timestamp,stateEstimate.x,stateEstimate.y,stateEstimate.z,stateEstimate.vx,stateEstimate.vy,stateEstimate.vz,stateEstimate.roll,stateEstimate.pitch,stateEstimate.yaw,gyro.x,gyro.y,gyro.z,ILBC.nominal_controller,ILBC.nominal_thrust,ILBC.nominal_torqueX,ILBC.nominal_torqueY,ILBC.nominal_torqueZ,ILBC.full_thrust,ILBC.full_torqueX,ILBC.full_torqueY,ILBC.full_torqueZ
21671.948,-0.7177152633666992,-0.6664632558822632,0.7184710502624512,-0.095701664686203,0.06482711434364319,-0.005052645690739155,0.21714356541633606,4.928027153015137,-10.883492469787598,-0.06873048096895218,-0.14723527431488037,-0.05583180487155914,1,0.0,0.0,0.0,0.0,0.0,0.0,0.0,0.0
21681.823,-0.7180633544921875,-0.6662263870239258,0.7184486389160156,-0.0967659056186676,0.06553014367818832,-0.005136634688824415,0.2173386812210083,4.926812648773193,-10.880634307861328,-0.022293608635663986,0.06961649656295776,0.09988464415073395,1,0.0,0.0,0.0,0.0,0.0,0.0,0.0,0.0
21691.669,-0.7177338600158691,-0.666447639465332,0.7184575200080872,-0.09567393362522125,0.06469647586345673,-0.005187151487916708,0.21628156304359436,4.92813777923584,-10.883334159851074,-0.27267730236053467,0.2001541554927826,-0.039397601038217545,1,0.0,0.0,0.0,0.0,0.0,0.0,0.0,0.0
21701.528,-0.7180810570716858,-0.6662130951881409,0.718435525894165,-0.09685257077217102,0.06545136868953705,-0.005203923210501671,0.2148226648569107,4.9255876541137695,-10.879210472106934,-0.0945996567606926,-0.04072371497750282,0.03432291001081467,1,0.0,0.0,0.0,0.0,0.0,0.0,0.0,0.0
21711.398,-0.7177467942237854,-0.6664364337921143,0.7184460759162903,-0.09567591547966003,0.06469416618347168,-0.005150828510522842,0.21198904514312744,4.927295207977295,-10.882440567016602,0.06790749728679657,-0.050732892006635666,-0.26922810077667236,1,0.0,0.0,0.0,0.0,0.0,0.0,0.0,0.0
21740.971,-0.7180379033088684,-0.6662351489067078,0.7184123992919922,-0.0964205414056778,0.06521639227867126,-0.0052726720459759235,0.21301352977752686,4.92620849609375,-10.88357162475586,-0.08058628439903259,-0.3048401474952698,-0.28266847133636475,1,0.0,0.0,0.0,0.0,0.0,0.0,0.0,0.0
21750.874,-0.7177008390426636,-0.6664614081382751,0.7184209823608398,-0.09532757103443146,0.06444689631462097,-0.005382963921874762,0.21317188441753387,4.929356575012207,-10.889006614685059,-0.03584900125861168,-0.019011305645108223,0.04110109433531761,1,0.6327953934669495,-0.004906470887362957,0.005285541992634535,0.0019384496845304966,0.6327953934669495,-0.004906470887362957,0.005285541992634535,0.0019384496845304966
21760.755,-0.7179799675941467,-0.6662710309028625,0.718399703502655,-0.09618500620126724,0.0651795044541359,-0.005516027566045523,0.21211816370487213,4.927861213684082,-10.88596248626709,-0.22771215438842773,0.5549485683441162,5.316339015960693,1,0.6344731450080872,-0.004891469608992338,0.005285541992634535,0.00042647431837394834,0.6344731450080872,-0.004891469608992338,0.005285541992634535,0.00042647431837394834
21770.594,-0.717673122882843,-0.6664991974830627,0.7184100151062012,-0.10032324492931366,0.06354114413261414,-0.005716515239328146,0.20406819880008698,4.928937911987305,-10.862936973571777,-0.6432657241821289,0.6833162903785706,-6.664331436157227,1,0.6361678838729858,-0.0048521109856665134,0.005285541992634535,0.0004859878681600094,0.6361678838729858,-0.0048521109856665134,0.005285541992634535,0.0004859878681600094
21780.457,-0.7180931568145752,-0.6662749648094177,0.7183887362480164,-0.10674779117107391,0.06353048980236053,-0.00525549566373229,0.1898859441280365,4.918396949768066,-10.90512466430664,-0.24730750918388367,-1.3539336919784546,1.8882697820663452,1,0.6376979351043701,-0.005052776075899601,0.005285541992634535,0.0005083497962914407,0.6376979351043701,-0.005052776075899601,0.005285541992634535,0.0005083497962914407
21790.315,-0.7178707718849182,-0.666512668132782,0.7184051275253296,-0.11072156578302383,0.06203577294945717,-0.005585366860032082,0.17355471849441528,4.917595386505127,-10.899529457092285,-4.034022331237793,5.716177940368652,1.108336091041565,1,0.6394245028495789,-0.004076547455042601,0.004523206036537886,0.0004545746778603643,0.6394245028495789,-0.004076547455042601,0.004523206036537886,0.0004545746778603643
21800.186,-0.7183865904808044,-0.6663079261779785,0.7183874249458313,-0.11714485287666321,0.061990100890398026,-0.004775382112711668,0.13259883224964142,4.867963790893555,-10.888372421264648,-1.077052354812622,0.09706317633390427,2.3028128147125244,1,0.640867292881012,-0.005285541992634535,0.005285541992634535,0.0004390159447211772,0.640867292881012,-0.005285541992634535,0.005285541992634535,0.0004390159447211772
21810.036,-0.7182325124740601,-0.6665752530097961,0.7184053063392639,-0.12084440886974335,0.060308437794446945,-0.006014854181557894,0.1109486073255539,4.849093437194824,-10.864285469055176,-1.7525867223739624,2.3865294456481934,3.183128833770752,1,0.6428201794624329,-0.0048292046412825584,0.005285541992634535,0.0004159440868534148,0.6428201794624329,-0.0048292046412825584,0.005285541992634535,0.0004159440868534148
21819.907,-0.7187551856040955,-0.6664299368858337,0.718390166759491,-0.12684842944145203,0.06013725325465202,-0.004293576814234257,0.08228841423988342,4.811886787414551,-10.836877822875977,-3.1169707775115967,5.815868854522705,-0.2908037304878235,1,0.6440362930297852,-0.004652251489460468,0.005285541992634535,0.0004355847486294806,0.6440362930297852,-0.004652251489460468,0.005285541992634535,0.0004355847486294806
21829.757,-0.7193798422813416,-0.666259765625,0.7184143662452698,-0.1333194375038147,0.06021897867321968,0.001759292441420257,0.023212941363453865,4.734433650970459,-10.839154243469238,-17.077556610107422,16.743099212646484,-0.9146572947502136,1,0.6441693305969238,-0.001556772505864501,0.003373249201104045,0.0004772915272042155,0.6441693305969238,-0.001556772505864501,0.003373249201104045,0.0004772915272042155
21839.627,-0.7193599343299866,-0.6665158271789551,0.7185984253883362,-0.13820354640483856,0.05928562954068184,0.019185882061719894,-0.1672450751066208,4.547887325286865,-10.846746444702148,-40.663177490234375,40.65563201904297,1.83717679977417,1,0.6414562463760376,0.0013633655617013574,-0.00023099142708815634,0.0004649274633266032,0.6414562463760376,0.0013633655617013574,-0.00023099142708815634,0.0004649274633266032
21849.478,-0.7207907438278198,-0.6659117341041565,0.718928337097168,-0.14772021770477295,0.061687029898166656,0.04686609283089638,-0.5833950638771057,4.125514984130859,-10.828752517700195,-64.41471099853516,71.8807144165039,6.154047012329102,1,0.6361594796180725,0.0024420246481895447,-0.0030490225180983543,0.00040198268834501505,0.6361594796180725,0.0024420246481895447,-0.0030490225180983543,0.00040198268834501505
21859.348,-0.7223135828971863,-0.6652792692184448,0.7195686101913452,-0.1563519686460495,0.06511057913303375,0.0812947005033493,-1.251185417175293,3.390779495239258,-10.776006698608398,-96.99491119384766,104.18290710449219,12.36738109588623,1,0.629138171672821,0.005285541992634535,-0.004734840709716082,0.000312712334562093,0.629138171672821,0.005285541992634535,-0.004734840709716082,0.000312712334562093
21869.2,-0.7206616997718811,-0.6666662693023682,0.7206531167030334,-0.1551693081855774,0.06181300804018974,0.11833555996417999,-2.1079864501953125,2.4749608039855957,-10.697358131408691,-123.21862030029297,127.64694213867188,17.346467971801758,1,0.621414065361023,0.005285541992634535,-0.004113647621124983,0.0002420769742457196,0.621414065361023,0.005285541992634535,-0.004113647621124983,0.0002420769742457196
21879.076,-0.7214087247848511,-0.6663962006568909,0.7221615314483643,-0.15575195848941803,0.06790604442358017,0.1602189540863037,-3.3780460357666016,1.1530755758285522,-10.577749252319336,-129.84033203125,131.2247314453125,19.772581100463867,1,0.6124268174171448,0.002293944824486971,-0.0005632835673168302,0.00016907526878640056,0.6124268174171448,0.002293944824486971,-0.0005632835673168302,0.00016907526878640056
21888.922,-0.7212849855422974,-0.6665289402008057,0.7241508960723877,-0.15052397549152374,0.07480592280626297,0.20868510007858276,-4.647388458251953,-0.1530534327030182,-10.4517183303833,-109.36094665527344,116.8743896484375,23.0423641204834,1,0.6017352342605591,-0.003690378274768591,0.0033196951262652874,0.00013269273040350527,0.6017352342605591,-0.003690378274768591,0.0033196951262652874,0.00013269273040350527
21898.783,-0.7219154834747314,-0.6660794019699097,0.7266488075256348,-0.14329877495765686,0.08672244101762772,0.26060202717781067,-5.746901988983154,-1.3671954870224,-10.316969871520996,-87.15543365478516,106.16127014160156,24.305187225341797,1,0.5901107788085938,-0.004671285394579172,0.0027302801609039307,0.00010731369548011571,0.5901107788085938,-0.004671285394579172,0.0027302801609039307,0.00010731369548011571
21908.645,-0.7215712666511536,-0.6659544110298157,0.7296525835990906,-0.13067962229251862,0.09871417284011841,0.3108408451080322,-6.60324764251709,-2.4471523761749268,-10.168501853942871,-78.2289810180664,109.89366149902344,25.47808265686035,1,0.5788276791572571,-0.0021505432669073343,-0.0005902218399569392,7.578216900583357e-05,0.5788276791572571,-0.0021505432669073343,-0.0005902218399569392,7.578216900583357e-05
21918.522,-0.7219470143318176,-0.665344774723053,0.7329656481742859,-0.11844412982463837,0.11290793865919113,0.35825881361961365,-7.363657474517822,-3.5416066646575928,-10.041692733764648,-88.40261840820312,123.28044128417969,25.232280731201172,1,0.5681735277175903,0.002293461002409458,-0.0033411490730941296,9.920896991388872e-05,0.5681735277175903,0.002293461002409458,-0.0033411490730941296,9.920896991388872e-05
21928.365,-0.721274733543396,-0.6649206876754761,0.7369368076324463,-0.09979243576526642,0.12761853635311127,0.40334463119506836,-8.250082969665527,-4.796880722045898,-9.930848121643066,-106.97608184814453,134.8086700439453,24.264644622802734,1,0.5580305457115173,0.004953411407768726,-0.003737963968887925,0.00012133428390370682,0.5580305457115173,0.004953411407768726,-0.003737963968887925,0.00012133428390370682
21938.239,-0.7212650775909424,-0.6638745665550232,0.7413979768753052,-0.07970376312732697,0.14594940841197968,0.4466356933116913,-9.344170570373535,-6.196149826049805,-9.87088394165039,-115.64165496826172,132.20912170410156,26.94618034362793,1,0.54826819896698,0.003575205337256193,-0.0011272123083472252,0.00016315942048095167,0.54826819896698,0.003575205337256193,-0.0011272123083472252,0.00016315942048095167
21948.085,-0.7201301455497742,-0.6630983352661133,0.7462151050567627,-0.053994227200746536,0.1642850637435913,0.4884243905544281,-10.475152969360352,-7.531947135925293,-9.790571212768555,-101.96188354492188,116.5442886352539,30.43793296813965,1,0.5388161540031433,-0.001203671912662685,0.0018122827168554068,0.00010985750850522891,0.5388161540031433,-0.001203671912662685,0.0018122827168554068,0.00010985750850522891
21957.955,-0.7195959091186523,-0.6616445183753967,0.7515177130699158,-0.027049457654356956,0.1867114007472992,0.5276163816452026,-11.50562572479248,-8.765059471130371,-9.688654899597168,-77.65868377685547,100.1107406616211,32.888397216796875,1,0.5299497246742249,-0.004074611235409975,0.0023294324055314064,6.140662299003452e-05,0.5299497246742249,-0.004074611235409975,0.0023294324055314064,6.140662299003452e-05
21967.809,-0.7178664803504944,-0.6602355241775513,0.757606565952301,0.006671578623354435,0.21056582033634186,0.5650882720947266,-12.314873695373535,-9.908635139465332,-9.517281532287598,-60.344757080078125,92.40118408203125,35.05261993408203,1,0.5214540362358093,-0.003167583141475916,0.0006024811300449073,-4.73268810310401e-05,0.5214540362358093,-0.003167583141475916,0.0006024811300449073,-4.73268810310401e-05
21977.673,-0.7166951298713684,-0.65834641456604,0.7636017799377441,0.03745854273438454,0.23423504829406738,0.5953761339187622,-12.901751518249512,-10.915350914001465,-9.351068496704102,-65.71672058105469,96.45889282226562,35.84097671508789,1,0.5146946310997009,0.0017667940119281411,-0.0021813528146594763,-5.3479372581932694e-05,0.5146946310997009,0.0017667940119281411,-0.0021813528146594763,-5.3479372581932694e-05
21987.527,-0.7142995595932007,-0.6567025184631348,0.7696943283081055,0.07173078507184982,0.2563808560371399,0.6208484768867493,-13.556528091430664,-11.942317962646484,-9.186356544494629,-84.422607421875,102.52896881103516,34.6902961730957,1,0.5090913772583008,0.005285541992634535,-0.0030867683235555887,-5.034396599512547e-05,0.5090913772583008,0.005285541992634535,-0.0030867683235555887,-5.034396599512547e-05
21997.405,-0.7124372720718384,-0.654320478439331,0.7762030959129333,0.10567913949489594,0.28152090311050415,0.6432046294212341,-14.447182655334473,-13.054093360900879,-9.070562362670898,-101.62400817871094,103.05372619628906,35.47734832763672,1,0.5042275786399841,0.005285541992634535,-0.002266522729769349,0.0,0.5042275786399841,0.005285541992634535,-0.002266522729769349,0.0
22007.247,-0.7093378305435181,-0.6522071957588196,0.7827090620994568,0.14333738386631012,0.30544760823249817,0.6623402833938599,-15.398558616638184,-14.089961051940918,-8.926045417785645,-91.1508560180664,84.60843658447266,37.49386978149414,1,0.5001338720321655,0.0003053538966923952,0.0020455324556678534,-5.60231928830035e-05,0.5001338720321655,0.0003053538966923952,0.0020455324556678534,-5.60231928830035e-05
22017.114,-0.7067193388938904,-0.6493139266967773,0.7896072268486023,0.18126577138900757,0.33345186710357666,0.6806762218475342,-16.228042602539062,-14.991292953491211,-8.749494552612305,-65.04173278808594,65.63308715820312,38.82413101196289,1,0.49621111154556274,-0.003493745345622301,0.00269543775357306,-0.00011269713286310434,0.49621111154556274,-0.003493745345622301,0.00269543775357306,-0.00011269713286310434
22026.977,-0.7024638652801514,-0.6460858583450317,0.7975428700447083,0.2280901074409485,0.36508750915527344,0.7002413868904114,-16.802841186523438,-15.809168815612793,-8.466102600097656,-36.941917419433594,51.525997161865234,39.841556549072266,1,0.4919545352458954,-0.00465967133641243,0.0020821490325033665,-0.0002646755601745099,0.4919545352458954,-0.00465967133641243,0.0020821490325033665,-0.0002646755601745099
22036.84,-0.6989971995353699,-0.6426317095756531,0.8047409057617188,0.2683803141117096,0.39462828636169434,0.715371310710907,-17.050241470336914,-16.425413131713867,-8.192758560180664,-28.569211959838867,52.340858459472656,40.16838836669922,1,0.4887751638889313,-0.0007505608373321593,-0.0011120495619252324,-0.0002661545295268297,0.4887751638889313,-0.0007505608373321593,-0.0011120495619252324,-0.0002661545295268297
22046.692,-0.693790078163147,-0.6387996673583984,0.8129045367240906,0.316499799489975,0.4263450503349304,0.7298859357833862,-17.303922653198242,-17.14386749267578,-7.896450519561768,-35.31536865234375,54.94973373413086,38.071807861328125,1,0.4857267439365387,0.002859809435904026,-0.001757760881446302,-0.000292361801257357,0.4857267439365387,0.002859809435904026,-0.001757760881446302,-0.000292361801257357
22056.553,-0.6928327083587646,-0.6391627788543701,0.8129535913467407,0.3197025954723358,0.42518243193626404,0.7302054166793823,-17.297832489013672,-17.152042388916016,-7.8755669593811035,-46.771385192871094,52.63484573364258,36.66433334350586,1,0.48619768023490906,0.004272050689905882,-0.0006781340925954282,5.898112431168556e-05,0.48619768023490906,0.004272050689905882,-0.0006781340925954282,5.898112431168556e-05
22066.41,-0.6875318288803101,-0.6354748606681824,0.8203933238983154,0.36424365639686584,0.45400482416152954,0.7411122918128967,-17.63910675048828,-17.794158935546875,-7.6231770515441895,-46.3143196105957,41.22918701171875,37.62293243408203,1,0.4840271770954132,0.0021440908312797546,0.0014557944377884269,-0.0002460997784510255,0.4840271770954132,0.0021440908312797546,0.0014557944377884269,-0.0002460997784510255
22076.289,-0.6827515363693237,-0.6311575174331665,0.8278887271881104,0.4063054919242859,0.48411452770233154,0.7507809996604919,-18.035837173461914,-18.362123489379883,-7.386437892913818,-29.22804069519043,28.130212783813477,39.96625900268555,1,0.48214930295944214,-0.0015887112822383642,0.002032143995165825,-0.00025331712095066905,0.48214930295944214,-0.0015887112822383642,0.002032143995165825,-0.00025331712095066905
22086.135,-0.6765788793563843,-0.6268996596336365,0.8355002403259277,0.45269885659217834,0.5140972137451172,0.7600752711296082,-18.34244728088379,-18.83968734741211,-7.074822425842285,-3.431053876876831,19.10870361328125,39.515438079833984,1,0.4803503751754761,-0.004103485494852066,0.0011830246075987816,-0.0003564305370673537,0.4803503751754761,-0.004103485494852066,0.0011830246075987816,-0.0003564305370673537
22096.001,-0.6709136366844177,-0.6219830513000488,0.8431704640388489,0.4964163303375244,0.545759916305542,0.7691821455955505,-18.408702850341797,-19.18505859375,-6.732651233673096,12.559816360473633,14.593759536743164,38.4581413269043,1,0.4785844385623932,-0.002544615650549531,0.00010952736192848533,-0.0004014502337668091,0.4785844385623932,-0.002544615650549531,0.00010952736192848533,-0.0004014502337668091
22105.851,-0.6638591289520264,-0.6171312928199768,0.8509380221366882,0.5438946485519409,0.5765895247459412,0.7781241536140442,-18.238582611083984,-19.483125686645508,-6.359077453613281,11.510001182556152,13.49332332611084,36.64017105102539,1,0.4768460690975189,0.0010967253474518657,-0.000899285776540637,-0.00044351202086545527,0.4768460690975189,0.0010967253474518657,-0.000899285776540637,-0.00044351202086545527
22115.721,-0.6572901010513306,-0.6115975975990295,0.8587672114372253,0.5880009531974792,0.608110249042511,0.785834789276123,-17.98905372619629,-19.736766815185547,-6.009338855743408,-2.901608467102051,10.879325866699219,33.88203430175781,1,0.47540155053138733,0.004518850706517696,-0.000824439397547394,-0.0004092591698281467,0.47540155053138733,0.004518850706517696,-0.000824439397547394,-0.0004092591698281467
22125.581,-0.6493734121322632,-0.60617995262146,0.8666695356369019,0.6346551775932312,0.6372971534729004,0.7920658588409424,-17.807085037231445,-19.96675682067871,-5.660385608673096,-13.093374252319336,3.1553235054016113,31.868144989013672,1,0.4743146598339081,0.004228982143104076,0.00016727522597648203,-0.00040890421951189637,0.4743146598339081,0.004228982143104076,0.00016727522597648203,-0.00040890421951189637
22135.44,-0.6419060230255127,-0.600051760673523,0.8746100068092346,0.6782823204994202,0.6677783131599426,0.7967677116394043,-17.791173934936523,-20.14605140686035,-5.338465690612793,-2.5868849754333496,-6.219187259674072,29.823463439941406,1,0.473599910736084,-0.00017421142547391355,0.000559089588932693,-0.0003745330614037812,0.473599910736084,-0.00017421142547391355,0.000559089588932693,-0.0003745330614037812
22145.294,-0.6256706118583679,-0.5869266986846924,0.8906477093696594,0.765954315662384,0.7292735576629639,0.8079037666320801,-17.586626052856445,-20.2269229888916,-4.667308807373047,22.85546875,-15.426236152648926,28.009326934814453,1,0.4712732136249542,-0.003884430741891265,0.00031938758911564946,-0.0008242567419074476,0.4712732136249542,-0.003884430741891265,0.00031938758911564946,-0.0008242567419074476
22155.174,-0.6247937679290771,-0.5873522758483887,0.8906427025794983,0.7686994671821594,0.728119432926178,0.8081423044204712,-17.587369918823242,-20.221723556518555,-4.654644966125488,46.627899169921875,-23.273672103881836,25.205795288085938,1,0.471648246049881,-0.004509816877543926,0.00033793787588365376,1.3192366168368608e-05,0.471648246049881,-0.004509816877543926,0.00033793787588365376,1.3192366168368608e-05
22165.016,-0.6161195635795593,-0.5804919600486755,0.8985645771026611,0.8120734691619873,0.7579807043075562,0.8130263090133667,-17.12152671813965,-20.130048751831055,-4.312248706817627,51.77397155761719,-30.349708557128906,20.91889762878418,1,0.47086411714553833,-0.0008978340192697942,0.00020631146617233753,-0.0003806264139711857,0.47086411714553833,-0.0008978340192697942,0.00020631146617233753,-0.0003806264139711857
22174.876,-0.6071324944496155,-0.5734528303146362,0.9063352942466736,0.8545094728469849,0.7868119478225708,0.8161052465438843,-16.526962280273438,-19.952085494995117,-4.008955001831055,39.31949234008789,-39.824119567871094,22.9603271484375,1,0.47052305936813354,0.0031816165428608656,0.0008381505031138659,-0.0003595067828428,0.47052305936813354,0.0031816165428608656,0.0008381505031138659,-0.0003595067828428
22184.745,-0.596516489982605,-0.5664425492286682,0.9145471453666687,0.8998329043388367,0.8130784034729004,0.8204472064971924,-15.93203353881836,-19.69102668762207,-3.6603779792785645,22.49066734313965,-45.64823532104492,21.007810592651367,1,0.46986234188079834,0.004752262029796839,9.855849202722311e-05,-0.00041677229455672204,0.46986234188079834,0.004752262029796839,9.855849202722311e-05,-0.00041677229455672204
22194.605,-0.5864331722259521,-0.558702290058136,0.9227868318557739,0.9407634735107422,0.8396359086036682,0.82457435131073,-15.486298561096191,-19.334007263183594,-3.306051015853882,21.417512893676758,-50.91367721557617,18.794147491455078,1,0.46924877166748047,0.0016614608466625214,6.936194949958008e-06,-0.00042339807259850204,0.46924877166748047,0.0016614608466625214,6.936194949958008e-06,-0.00042339807259850204
22204.457,-0.5750774145126343,-0.5512447953224182,0.9310768842697144,0.9840328693389893,0.8638169169425964,0.8295220732688904,-15.154074668884277,-18.92477035522461,-2.9570977687835693,37.627567291259766,-53.00263214111328,16.793909072875977,1,0.46842432022094727,-0.002425248734652996,-0.000795081490650773,-0.0004174230562057346,0.46842432022094727,-0.002425248734652996,-0.000795081490650773,-0.0004174230562057346
22214.318,-0.5641981959342957,-0.5430140495300293,0.9394035935401917,1.0236939191818237,0.889834463596344,0.8352246284484863,-14.76697063446045,-18.4637508392334,-2.6297836303710938,60.892818450927734,-58.83457565307617,15.24863052368164,1,0.46740424633026123,-0.004741937853395939,-5.3231266065267846e-05,-0.00039358215872198343,0.46740424633026123,-0.004741937853395939,-5.3231266065267846e-05,-0.00039358215872198343
22224.179,-0.552121639251709,-0.5351296067237854,0.9478074312210083,1.0654633045196533,0.9129337072372437,0.8428568243980408,-14.159697532653809,-17.966249465942383,-2.3165676593780518,74.73414611816406,-69.5414047241211,12.268641471862793,1,0.46589431166648865,-0.0034298677928745747,0.0010907569667324424,-0.0003683214308694005,0.46589431166648865,-0.0034298677928745747,0.0010907569667324424,-0.0003683214308694005
22234.047,-0.5404859185218811,-0.5264474153518677,0.956264317035675,1.1031962633132935,0.9372328519821167,0.8498896956443787,-13.371025085449219,-17.379222869873047,-2.020824909210205,66.28251647949219,-83.06552124023438,10.526500701904297,1,0.4645225703716278,0.0013970788568258286,0.0019837517756968737,-0.0003469651855994016,0.4645225703716278,0.0013970788568258286,0.0019837517756968737,-0.0003469651855994016
22243.898,-0.527744710445404,-0.5181442499160767,0.964782178401947,1.1419308185577393,0.9577754139900208,0.8569027185440063,-12.551572799682617,-16.670793533325195,-1.7387787103652954,45.98651885986328,-91.59201049804688,8.045382499694824,1,0.46314525604248047,0.0046456377021968365,0.0011057585943490267,-0.00032436661422252655,0.46314525604248047,0.0046456377021968365,0.0011057585943490267,-0.00032436661422252655
22253.763,-0.5154268741607666,-0.5090579986572266,0.9733690619468689,1.176183819770813,0.9790560007095337,0.8632442355155945,-11.896127700805664,-15.8335542678833,-1.451676845550537,34.10009765625,-96.20391082763672,5.789294242858887,1,0.46192508935928345,0.0035227809567004442,0.0003497132856864482,-0.00032696957350708544,0.46192508935928345,0.0035227809567004442,0.0003497132856864482,-0.00032696957350708544
22263.629,-0.5021041035652161,-0.500411868095398,0.9820153713226318,1.2110755443572998,0.996760368347168,0.8706063032150269,-11.419626235961914,-14.917489051818848,-1.195642113685608,43.320098876953125,-97.07830810546875,4.555111408233643,1,0.46044090390205383,-0.0009983282070606947,-0.0005218277219682932,-0.0002905870205722749,0.46044090390205383,-0.0009983282070606947,-0.0005218277219682932,-0.0002905870205722749
22273.489,-0.489177942276001,-0.4909842014312744,0.9907530546188354,1.242065668106079,1.0160818099975586,0.8796059489250183,-10.981740951538086,-13.970701217651367,-0.9556078910827637,65.46186828613281,-96.4871826171875,3.479180335998535,1,0.4585372507572174,-0.0043678670190274715,-0.0009612276335246861,-0.00027331270393915474,0.4585372507572174,-0.0043678670190274715,-0.0009612276335246861,-0.00027331270393915474
22283.341,-0.47533556818962097,-0.4820457100868225,0.9995774626731873,1.2735636234283447,1.0323152542114258,0.8903828263282776,-10.390335083007812,-13.016818046569824,-0.7512156367301941,83.8549575805664,-103.46339416503906,2.0822367668151855,1,0.45617687702178955,-0.004290762357413769,0.0007116859196685255,-0.00022787891793996096,0.45617687702178955,-0.004290762357413769,0.0007116859196685255,-0.00022787891793996096
22293.206,-0.46186575293540955,-0.47228261828422546,1.0085119009017944,1.3010116815567017,1.0503429174423218,0.9016785621643066,-9.600156784057617,-12.03816032409668,-0.5540571212768555,83.85492706298828,-114.68450164794922,1.090561866760254,1,0.45367103815078735,-0.0005486046429723501,0.0019211648032069206,-0.00022030662512406707,0.45367103815078735,-0.0005486046429723501,0.0019211648032069206,-0.00022030662512406707
22303.061,-0.4475861191749573,-0.46307364106178284,1.0175347328186035,1.3282369375228882,1.0639466047286987,0.9124817252159119,-8.705192565917969,-10.959085464477539,-0.38708898425102234,66.8849868774414,-126.76243591308594,0.7198566198348999,1,0.45127129554748535,0.0035337493754923344,0.0024978367146104574,-0.00018735526828095317,0.45127129554748535,0.0035337493754923344,0.0024978367146104574,-0.00018735526828095317
22312.931,-0.43366003036499023,-0.45306894183158875,1.0266860723495483,1.3511852025985718,1.0780938863754272,0.9228832721710205,-7.900859355926514,-9.768706321716309,-0.21724706888198853,50.300384521484375,-132.4663848876953,-0.6582968235015869,1,0.44895562529563904,0.0041368757374584675,0.001416112994775176,-0.00018842013378161937,0.44895562529563904,0.0041368757374584675,0.001416112994775176,-0.00018842013378161937
22322.788,-0.4190431237220764,-0.44366946816444397,1.0359129905700684,1.3734101057052612,1.0881683826446533,0.9335502982139587,-7.286967754364014,-8.470062255859375,-0.07171723991632462,51.99021911621094,-130.71884155273438,-1.0143953561782837,1,0.44655829668045044,0.00040939683094620705,-0.0001621133997105062,-0.00016191709437407553,0.44655829668045044,0.00040939683094620705,-0.0001621133997105062,-0.00016191709437407553
22332.643,-0.404756098985672,-0.4334777891635895,1.0452805757522583,1.391459584236145,1.0994547605514526,0.9452998042106628,-6.768373012542725,-7.146255970001221,0.06591127067804337,69.19134521484375,-126.30567932128906,-0.5771909356117249,1,0.4438750445842743,-0.003349698381498456,-0.0008491192711517215,-0.00016114802565425634,0.4438750445842743,-0.003349698381498456,-0.0008491192711517215,-0.00016114802565425634
22342.504,-0.3899051249027252,-0.42396068572998047,1.0547431707382202,1.4083223342895508,1.107002854347229,0.9583637714385986,-6.157693862915039,-5.851025104522705,0.16637545824050903,90.15406036376953,-125.64447784423828,-0.18289948999881744,1,0.4392312169075012,-0.004946636036038399,-9.710673475638032e-05,-0.0001221033453475684,0.4392312169075012,-0.004946636036038399,-9.710673475638032e-05,-0.0001221033453475684
22352.38,-0.3753686547279358,-0.41362398862838745,1.0643646717071533,1.42119300365448,1.116273283958435,0.9723979234695435,-5.347263813018799,-4.59152889251709,0.2723601758480072,94.78729248046875,-130.15609741210938,-1.36223566532135,1,0.4316747784614563,-0.0018642235081642866,0.0011689908569678664,-0.00012512043758761138,0.4316747784614563,-0.0018642235081642866,0.0011689908569678664,-0.00012512043758761138
22362.226,-0.3603906035423279,-0.40403974056243896,1.0740885734558105,1.432681918144226,1.120708703994751,0.9861190915107727,-4.399094104766846,-3.3075780868530273,0.33096110820770264,83.21217346191406,-142.54454040527344,-1.6901336908340454,1,0.42408686876296997,0.0017798598855733871,0.0033105008769780397,-6.643510278081521e-05,0.42408686876296997,0.0017798598855733871,0.0033105008769780397,-6.643510278081521e-05
22372.092,-0.3457085192203522,-0.39361751079559326,1.0839680433273315,1.4403765201568604,1.126402735710144,0.9985132217407227,-3.484429359436035,-1.9446874856948853,0.387760728597641,64.95359802246094,-150.156005859375,-2.032217264175415,1,0.41669389605522156,0.003801357699558139,0.002754637273028493,-6.424623279599473e-05,0.41669389605522156,0.003801357699558139,0.002754637273028493,-6.424623279599473e-05
22381.948,-0.33116039633750916,-0.383360892534256,1.0936883687973022,1.4455119371414185,1.1295576095581055,1.0080214738845825,-2.741325616836548,-0.5052239298820496,0.42786091566085815,56.52417755126953,-148.70831298828125,-2.193060874938965,1,0.4100433588027954,0.002123282290995121,0.001006716163828969,-4.407315282151103e-05,0.4100433588027954,0.002123282290995121,0.001006716163828969,-4.407315282151103e-05
22391.817,-0.31597819924354553,-0.37365466356277466,1.1040457487106323,1.4486699104309082,1.1280333995819092,1.0211933851242065,-2.114973783493042,1.0344942808151245,0.41660276055336,65.52677917480469,-137.62669372558594,-2.1042208671569824,1,0.40210816264152527,-0.001794538926333189,-0.0011862507089972496,1.952233651536517e-05,0.40210816264152527,-0.001794538926333189,-0.0011862507089972496,1.952233651536517e-05
22401.669,-0.3010764718055725,-0.3641418516635895,1.114224910736084,1.448418378829956,1.1252087354660034,1.0325214862823486,-1.5051745176315308,2.4832451343536377,0.3923065960407257,83.46659088134766,-130.5657196044922,-0.781928300857544,1,0.3946616053581238,-0.004368028603494167,-0.00030987049103714526,2.739043156907428e-05,0.3946616053581238,-0.004368028603494167,-0.00030987049103714526,2.739043156907428e-05
22411.53,-0.2864380478858948,-0.3537789285182953,1.1245545148849487,1.444583535194397,1.1248053312301636,1.0441824197769165,-0.7680109143257141,3.837407112121582,0.37882745265960693,93.91874694824219,-129.95791625976562,-0.5637134313583374,1,0.38699981570243835,-0.0033363099209964275,0.0012957780854776502,1.2955732017871924e-05,0.38699981570243835,-0.0033363099209964275,0.0012957780854776502,1.2955732017871924e-05
22421.393,-0.271739661693573,-0.34438326954841614,1.1349356174468994,1.4387342929840088,1.1191842555999756,1.0543649196624756,0.13930949568748474,5.146866798400879,0.32865771651268005,89.32398986816406,-136.26040649414062,-0.3615902066230774,1,0.3796229660511017,-0.0002542196016293019,0.003264044411480427,5.9276910178596154e-05,0.3796229660511017,-0.0002542196016293019,0.003264044411480427,5.9276910178596154e-05
22431.257,-0.25728997588157654,-0.3341456651687622,1.1454613208770752,1.4299824237823486,1.1153556108474731,1.063010334968567,1.0834623575210571,6.473834991455078,0.282164067029953,71.3135757446289,-141.03579711914062,-0.6657804250717163,1,0.37250083684921265,0.003054184140637517,0.003476162673905492,5.886280268896371e-05,0.37250083684921265,0.003054184140637517,0.003476162673905492,5.886280268896371e-05
22441.108,-0.24289286136627197,-0.3249209225177765,1.1559795141220093,1.419443130493164,1.1061363220214844,1.0689982175827026,1.9133094549179077,7.872678756713867,0.1797206997871399,55.8333625793457,-137.09524536132812,-0.16060328483581543,1,0.3659907281398773,0.0030361178796738386,0.0019056792370975018,0.0001291432126890868,0.3659907281398773,0.0030361178796738386,0.0019056792370975018,0.0001291432126890868
22450.97,-0.22872816026210785,-0.3148529827594757,1.166619896888733,1.4059497117996216,1.0990105867385864,1.073974847793579,2.5666990280151367,9.274566650390625,0.08904547244310379,53.63350296020508,-123.2232437133789,-0.16957759857177734,1,0.3596210479736328,0.0003795550437644124,-0.0003100317844655365,0.000118494666821789,0.3596210479736328,0.0003795550437644124,-0.0003100317844655365,0.000118494666821789
22460.833,-0.21290937066078186,-0.3043766915798187,1.1790038347244263,1.388184905052185,1.086893081665039,1.08235764503479,3.222564697265625,10.783648490905762,-0.052728503942489624,66.45699310302734,-109.4697265625,1.732544183731079,1,0.35147976875305176,-0.0032569468021392822,-0.0004690803762059659,0.00017457702779211104,0.35147976875305176,-0.0032569468021392822,-0.0004690803762059659,0.00017457702779211104
22470.698,-0.19922210276126862,-0.294626921415329,1.1896315813064575,1.369341492652893,1.077043056488037,1.0842152833938599,3.852694272994995,11.918187141418457,-0.14351868629455566,80.99215698242188,-99.68041229248047,3.878150463104248,1,0.34578216075897217,-0.004275116138160229,0.0002159898867830634,9.991886327043176e-05,0.34578216075897217,-0.004275116138160229,0.0002159898867830634,9.991886327043176e-05
22480.551,-0.18408343195915222,-0.284639835357666,1.2018615007400513,1.346752405166626,1.061658501625061,1.0874996185302734,4.773990154266357,13.075043678283691,-0.25501182675361633,84.01451873779297,-95.51853942871094,5.714160919189453,1,0.3388819992542267,-0.002262651454657316,0.0014698280720040202,0.0001173706550616771,0.3388819992542267,-0.002262651454657316,0.0014698280720040202,0.0001173706550616771
22490.418,-0.16967347264289856,-0.2742362320423126,1.2133961915969849,1.3224012851715088,1.0485343933105469,1.0834312438964844,5.707014083862305,14.11519718170166,-0.32660016417503357,72.04228210449219,-96.95289611816406,6.083313941955566,1,0.3341093957424164,0.0010694644879549742,0.002916105557233095,6.820986163802445e-05,0.3341093957424164,0.0010694644879549742,0.002916105557233095,6.820986163802445e-05
22500.272,-0.15664438903331757,-0.2658420503139496,1.2242265939712524,1.2988076210021973,1.0303549766540527,1.0802295207977295,6.53030252456665,15.08996295928955,-0.43131452798843384,52.7870979309082,-95.7694091796875,6.541788578033447,1,0.32943230867385864,0.003117416286841035,0.0025859102606773376,0.00011062656994909048,0.32943230867385864,0.003117416286841035,0.0025859102606773376,0.00011062656994909048
22510.151,-0.14410391449928284,-0.25686588883399963,1.2345960140228271,1.27390456199646,1.0147777795791626,1.0722483396530151,7.131591320037842,16.025592803955078,-0.509456217288971,42.0238037109375,-89.24313354492188,7.682916641235352,1,0.32613903284072876,0.001717272913083434,0.0014812808949500322,7.288339111255482e-05,0.32613903284072876,0.001717272913083434,0.0014812808949500322,7.288339111255482e-05
22519.997,-0.13169167935848236,-0.24884182214736938,1.2452654838562012,1.2474181652069092,0.9946665167808533,1.0653691291809082,7.639952182769775,16.947189331054688,-0.6162481307983398,43.405517578125,-76.41903686523438,8.75244140625,1,0.32239094376564026,-0.0009238044149242342,-7.403985364362597e-05,0.00010547977581154555,0.32239094376564026,-0.0009238044149242342,-7.403985364362597e-05,0.00010547977581154555
22529.862,-0.11971814930438995,-0.24021832644939423,1.2554665803909302,1.2196061611175537,0.977701723575592,1.0553563833236694,8.078897476196289,17.716724395751953,-0.6744509935379028,53.958187103271484,-61.97679138183594,10.469505310058594,1,0.3196258246898651,-0.0032993704080581665,-0.000789435813203454,3.5436001780908555e-05,0.3196258246898651,-0.0032993704080581665,-0.000789435813203454,3.5436001780908555e-05
22539.715,-0.10794289410114288,-0.23255173861980438,1.265907645225525,1.1906157732009888,0.9571123719215393,1.0461028814315796,8.638022422790527,18.348024368286133,-0.6901187300682068,63.113792419433594,-52.44023513793945,11.613014221191406,1,0.3165248930454254,-0.003557300427928567,-2.5647790607763454e-05,-2.484661126800347e-05,0.3165248930454254,-0.003557300427928567,-2.5647790607763454e-05,-2.484661126800347e-05
22549.593,-0.0965852290391922,-0.22429212927818298,1.275901198387146,1.160992980003357,0.9393079876899719,1.0333549976348877,9.238404273986816,18.869647979736328,-0.6737141609191895,59.348411560058594,-49.64744186401367,10.621140480041504,1,0.3144908845424652,-0.0009599371696822345,0.0013540098443627357,-5.833037357660942e-05,0.3144908845424652,-0.0009599371696822345,0.0013540098443627357,-5.833037357660942e-05
22559.437,-0.08549731969833374,-0.2170460969209671,1.2860844135284424,1.1311306953430176,0.9174258708953857,1.0199812650680542,9.862564086914062,19.36353302001953,-0.6763118505477905,44.30909729003906,-52.84525680541992,9.948909759521484,1,0.312496542930603,0.00172033766284585,0.0028180310036987066,-2.9815932066412643e-05,0.312496542930603,0.00172033766284585,0.0028180310036987066,-2.9815932066412643e-05
22569.296,-0.0747753381729126,-0.20920626819133759,1.2958110570907593,1.1010310649871826,0.8981040716171265,1.0032598972320557,10.330120086669922,19.87343978881836,-0.6845052242279053,26.99746322631836,-53.573883056640625,9.359861373901367,1,0.31154412031173706,0.0027406036388128996,0.002481383504346013,-1.833916576288175e-05,0.31154412031173706,0.0027406036388128996,0.002481383504346013,-1.833916576288175e-05
22579.157,-0.06300846487283707,-0.20044471323490143,1.3068331480026245,1.068203330039978,0.8770789504051208,0.9852785468101501,10.688687324523926,20.465259552001953,-0.7015475630760193,18.719867706298828,-47.04971694946289,9.028120040893555,1,0.3102433979511261,0.0011456013889983296,0.0009071898530237377,-4.25941880166647e-06,0.3102433979511261,0.0011456013889983296,0.0009071898530237377,-4.25941880166647e-06
22589.025,-0.05337699130177498,-0.1942702978849411,1.315922737121582,1.0360499620437622,0.8522284626960754,0.9651450514793396,10.904090881347656,20.907066345214844,-0.7292055487632751,22.837759017944336,-35.32646179199219,9.03612232208252,1,0.310427725315094,-0.0016471045091748238,-0.0005002125981263816,9.99780331767397e-06,0.310427725315094,-0.0016471045091748238,-0.0005002125981263816,9.99780331767397e-06
22598.877,-0.04381188005208969,-0.18802039325237274,1.3252874612808228,1.0033217668533325,0.8279597163200378,0.9476484060287476,11.145431518554688,21.254308700561523,-0.7346712946891785,33.029693603515625,-22.806005477905273,10.870479583740234,1,0.3098095953464508,-0.003416963154450059,-0.001076723332516849,-3.028920036740601e-05,0.3098095953464508,-0.003416963154450059,-0.001076723332516849,-3.028920036740601e-05
22608.749,-0.033089250326156616,-0.1799282431602478,1.3357964754104614,0.9684993624687195,0.8061991333961487,0.929269015789032,11.495936393737793,21.516260147094727,-0.6759399771690369,37.23679733276367,-15.50954532623291,11.371700286865234,1,0.30882713198661804,-0.0025100961793214083,-0.0002500256523489952,-0.00011612832895480096,0.30882713198661804,-0.0025100961793214083,-0.0002500256523489952,-0.00011612832895480096
22618.599,-0.024361245334148407,-0.17426103353500366,1.3446142673492432,0.9354546666145325,0.7811180353164673,0.908639669418335,11.845650672912598,21.658206939697266,-0.6225612163543701,29.617618560791016,-16.047456741333008,10.701400756835938,1,0.3092360198497772,2.7422167931945296e-06,0.0013901425991207361,-0.00010701791325118393,0.3092360198497772,2.7422167931945296e-06,0.0013901425991207361,-0.00010701791325118393
22628.482,-0.01539521012455225,-0.1675044298171997,1.3537002801895142,0.9039150476455688,0.7605071067810059,0.8882964849472046,12.121978759765625,21.835582733154297,-0.5555959343910217,13.520313262939453,-19.354753494262695,9.583510398864746,1,0.3094339072704315,0.002241681329905987,0.0021300571970641613,-0.00011884962441399693,0.3094339072704315,0.002241681329905987,0.0021300571970641613,-0.00011884962441399693
22638.319,-0.0074180737137794495,-0.16230995953083038,1.3620988130569458,0.8705092668533325,0.7348904609680176,0.865425705909729,12.253133773803711,22.030874252319336,-0.5172863602638245,-0.6126757264137268,-20.895919799804688,9.029027938842773,1,0.3105991780757904,0.002285879570990801,0.0018890645587816834,-8.098812395473942e-05,0.3105991780757904,0.002285879570990801,0.0018890645587816834,-8.098812395473942e-05
22648.188,0.0008543888106942177,-0.15600284934043884,1.3707160949707031,0.8385920524597168,0.714129626750946,0.8440976142883301,12.226966857910156,22.255035400390625,-0.47808051109313965,-3.613527774810791,-17.767475128173828,9.065114974975586,1,0.31126976013183594,0.00011404394899727777,0.0008812193991616368,-8.400520891882479e-05,0.31126976013183594,0.00011404394899727777,0.0008812193991616368,-8.400520891882479e-05
22658.039,0.008113009855151176,-0.15126994252204895,1.3786700963974,0.8040404319763184,0.6882280707359314,0.8218068480491638,12.19210147857666,22.425989151000977,-0.4373299479484558,1.4992446899414062,-7.047329902648926,9.230596542358398,1,0.31250855326652527,-0.0018258324125781655,-0.0010363965993747115,-8.885621355148032e-05,0.31250855326652527,-0.0018258324125781655,-0.0010363965993747115,-8.885621355148032e-05
22667.919,0.015676995739340782,-0.14545154571533203,1.3868381977081299,0.7709635496139526,0.6670324206352234,0.8014882802963257,12.185529708862305,22.511661529541016,-0.36339133977890015,8.899744987487793,2.7905328273773193,9.310155868530273,1,0.3131487965583801,-0.0026528527960181236,-0.0012056075502187014,-0.00013387591752689332,0.3131487965583801,-0.0026528527960181236,-0.0012056075502187014,-0.00013387591752689332
22677.764,0.022230852395296097,-0.14113758504390717,1.394342064857483,0.7361898422241211,0.641939640045166,0.778744101524353,12.220947265625,22.492321014404297,-0.2775057554244995,11.124724388122559,5.537833213806152,9.127813339233398,1,0.31472286581993103,-0.0018200254999101162,0.0002364758838666603,-0.00015109106607269496,0.31472286581993103,-0.0018200254999101162,0.0002364758838666603,-0.00015109106607269496
22687.631,0.029098622500896454,-0.1357623189687729,1.4020406007766724,0.7039194703102112,0.6214689612388611,0.7562017440795898,12.264718055725098,22.459548950195312,-0.17908066511154175,1.5758246183395386,1.6570075750350952,8.535369873046875,1,0.3161521553993225,0.0008573459926992655,0.0018318007932975888,-0.00016670890909153968,0.3161521553993225,0.0008573459926992655,0.0018318007932975888,-0.00016670890909153968
22697.481,0.03495803475379944,-0.13191063702106476,1.4090876579284668,0.6696183681488037,0.596245527267456,0.7324135303497314,12.228025436401367,22.452102661132812,-0.10431748628616333,-13.500219345092773,-3.7341816425323486,7.953612804412842,1,0.3182198107242584,0.0024744472466409206,0.0024891262874007225,-0.0001364197232760489,0.3182198107242584,0.0024744472466409206,0.0024891262874007225,-0.0001364197232760489
22707.36,0.041126567870378494,-0.12701210379600525,1.4163100719451904,0.6372789740562439,0.5754260420799255,0.7098546624183655,12.057917594909668,22.508455276489258,-0.036020487546920776,-22.063302993774414,-5.0216851234436035,7.706194877624512,1,0.31989943981170654,0.001474828808568418,0.0018503511091694236,-0.00012955733109265566,0.31989943981170654,0.001474828808568418,0.0018503511091694236,-0.00012955733109265566
22717.202,0.046291060745716095,-0.12359289824962616,1.4228929281234741,0.6027162671089172,0.5506860613822937,0.6858993172645569,11.79845142364502,22.560216903686523,0.025856884196400642,-22.47924041748047,2.8414466381073,7.450366497039795,1,0.32225099205970764,-0.00020195619435980916,-0.00015033800445962697,-0.00012245829566381872,0.32225099205970764,-0.00020195619435980916,-0.00015033800445962697,-0.00012245829566381872
22727.071,0.05149693414568901,-0.1194281131029129,1.4292535781860352,0.5690031051635742,0.5291885733604431,0.6626415848731995,11.545328140258789,22.538986206054688,0.10441498458385468,-15.529419898986816,13.744649887084961,8.263578414916992,1,0.32454803586006165,-0.0019935916643589735,-0.0010665609734132886,-0.0001523333921795711,0.32454803586006165,-0.0019935916643589735,-0.0010665609734132886,-0.0001523333921795711
22736.933,0.05598917976021767,-0.11641468852758408,1.435418725013733,0.5337692499160767,0.5048254132270813,0.6403892040252686,11.355093955993652,22.416736602783203,0.21856094896793365,-9.26478099822998,21.82525634765625,8.436455726623535,1,0.3267003297805786,-0.002184094861149788,-0.0006945874192751944,-0.00020267734362278134,0.3267003297805786,-0.002184094861149788,-0.0006945874192751944,-0.00020267734362278134
22746.802,0.06077846884727478,-0.11241888999938965,1.4417177438735962,0.5012047290802002,0.484760046005249,0.6187328696250916,11.222877502441406,22.210914611816406,0.35547691583633423,-11.601417541503906,23.9877872467041,7.5214362144470215,1,0.3286445438861847,-0.00040875159902498126,0.000499728717841208,-0.00023036358470562845,0.3286445438861847,-0.00040875159902498126,0.000499728717841208,-0.00023036358470562845
22756.645,0.06460058689117432,-0.10982731729745865,1.4474372863769531,0.466637521982193,0.4606783390045166,0.5962026119232178,11.073612213134766,21.994598388671875,0.4775072932243347,-21.158838272094727,21.116865158081055,6.564466953277588,1,0.3311026692390442,0.0013451380655169487,0.001742275431752205,-0.00021036798716522753,0.3311026692390442,0.0013451380655169487,0.001742275431752205,-0.00021036798716522753
22766.504,0.06871884316205978,-0.10625666379928589,1.4532769918441772,0.434720903635025,0.4409939646720886,0.5747216939926147,10.818462371826172,21.794343948364258,0.591545581817627,-32.58501052856445,17.543291091918945,5.270771503448486,1,0.33324867486953735,0.0021619959734380245,0.002125701867043972,-0.00019616990175563842,0.33324867486953735,0.0021619959734380245,0.002125701867043972,-0.00019616990175563842
22776.364,0.07190882414579391,-0.10401999205350876,1.458544135093689,0.40080350637435913,0.41803911328315735,0.552581250667572,10.454019546508789,21.63074493408203,0.6824563145637512,-38.3516845703125,19.525169372558594,4.370419979095459,1,0.3358532190322876,0.0012262548552826047,0.0010568825528025627,-0.0001649933255976066,0.3358532190322876,0.0012262548552826047,0.0010568825528025627,-0.0001649933255976066
22786.234,0.07536491751670837,-0.10085458308458328,1.4639426469802856,0.36877867579460144,0.39900198578834534,0.5328640341758728,10.053189277648926,21.428085327148438,0.774081826210022,-35.496700286865234,28.739219665527344,3.996415853500366,1,0.3377985954284668,-0.0006107077933847904,-0.000666519976221025,-0.00016718219558242708,0.3377985954284668,-0.0006107077933847904,-0.000666519976221025,-0.00016718219558242708
22796.085,0.07792064547538757,-0.09897582978010178,1.468801736831665,0.334540992975235,0.3769654631614685,0.513239324092865,9.662460327148438,21.14232635498047,0.873735249042511,-26.323026657104492,37.26345443725586,4.953008651733398,1,0.3399975001811981,-0.0022755558602511883,-0.0007610457250848413,-0.0001882426586234942,0.3399975001811981,-0.0022755558602511883,-0.0007610457250848413,-0.0001882426586234942
22805.945,0.08072270452976227,-0.09620234370231628,1.4737974405288696,0.3029029071331024,0.35887056589126587,0.49466222524642944,9.365488052368164,20.759904861450195,1.003108024597168,-22.131101608276367,44.230674743652344,4.70313024520874,1,0.3418756425380707,-0.001450955169275403,-0.0006613581208512187,-0.00022900293697603047,0.3418756425380707,-0.001450955169275403,-0.0006613581208512187,-0.00022900293697603047
22815.809,0.08266197144985199,-0.09468183666467667,1.478270411491394,0.2696066200733185,0.3376710116863251,0.47554317116737366,9.105453491210938,20.338462829589844,1.1256623268127441,-26.2752685546875,44.52198791503906,3.6476778984069824,1,0.3441571593284607,0.0003448740753810853,0.000752012652810663,-0.00021829523029737175,0.3441571593284607,0.0003448740753810853,0.000752012652810663,-0.00021829523029737175
22825.678,0.0848359689116478,-0.09225800633430481,1.482869267463684,0.23917174339294434,0.3206987977027893,0.45729130506515503,8.789083480834961,19.895015716552734,1.2410006523132324,-36.41269302368164,40.93604278564453,2.4582133293151855,1,0.3461690843105316,0.0019626205321401358,0.0017329195979982615,-0.0002058719255728647,0.3461690843105316,0.0019626205321401358,0.0017329195979982615,-0.0002058719255728647
22835.531,0.08620470017194748,-0.09104044735431671,1.4869623184204102,0.2074129283428192,0.30079588294029236,0.43841060996055603,8.379144668579102,19.50217056274414,1.3264203071594238,-45.2476921081543,40.09657287597656,2.0211102962493896,1,0.34859874844551086,0.0020506943110376596,0.0012993268901482224,-0.00016931191203184426,0.34859874844551086,0.0020506943110376596,0.0012993268901482224,-0.00016931191203184426
22845.39,0.08777231723070145,-0.08893317729234695,1.49117910861969,0.17803870141506195,0.28529176115989685,0.42076221108436584,7.8751444816589355,19.09836769104004,1.4025413990020752,-46.608924865722656,43.86893081665039,1.1890064477920532,1,0.3506700396537781,0.0006540993344970047,0.00028357747942209244,-0.00015517300926148891,0.3506700396537781,0.0006540993344970047,0.00028357747942209244,-0.00015517300926148891
22855.251,0.0885862186551094,-0.08803631365299225,1.4949183464050293,0.1470506340265274,0.2662171423435211,0.4035013020038605,7.4118971824646,18.671539306640625,1.4735829830169678,-40.00228500366211,50.501197814941406,1.4397087097167969,1,0.3528920114040375,-0.001209317590110004,-0.00048037184751592577,-0.0001537531934445724,0.3528920114040375,-0.001209317590110004,-0.00048037184751592577,-0.0001537531934445724
22865.122,0.08957032114267349,-0.08626677095890045,1.4987908601760864,0.11807891726493835,0.2515549063682556,0.38862311840057373,6.986255168914795,18.159358978271484,1.553970456123352,-31.990537643432617,58.53778839111328,1.714463472366333,1,0.3544629216194153,-0.0017795372987166047,-0.001044300734065473,-0.0001707908813841641,0.3544629216194153,-0.0017795372987166047,-0.001044300734065473,-0.0001707908813841641
22874.977,0.08985232561826706,-0.08562366664409637,1.5022135972976685,0.08778195083141327,0.23391152918338776,0.3739071190357208,6.659817218780518,17.598642349243164,1.6424943208694458,-29.33730125427246,61.790618896484375,1.5006173849105835,1,0.35622406005859375,-0.0008255685097537935,-0.00016195209173019975,-0.00018321418610867113,0.35622406005859375,-0.0008255685097537935,-0.00016195209173019975,-0.00018321418610867113
22884.829,0.09027837961912155,-0.0841606855392456,1.505786418914795,0.0604068897664547,0.22024428844451904,0.35966169834136963,6.337531566619873,16.986791610717773,1.7283622026443481,-33.75185012817383,60.53251647949219,0.924252450466156,1,0.3578002154827118,0.0007918554474599659,0.0008149222703650594,-0.0001795463467715308,0.3578002154827118,0.0007918554474599659,0.0008149222703650594,-0.0001795463467715308
22894.695,0.09006984531879425,-0.08372528105974197,1.508910059928894,0.03207121416926384,0.20437853038311005,0.34504738450050354,5.954165458679199,16.423789978027344,1.7939584255218506,-42.258792877197266,57.77718734741211,0.2943747043609619,1,0.3596991300582886,0.00196633068844676,0.0012717433273792267,-0.00015274749603122473,0.3596991300582886,0.00196633068844676,0.0012717433273792267,-0.00015274749603122473
22904.569,0.08997462689876556,-0.08249025791883469,1.5121879577636719,0.006429383531212807,0.1924251914024353,0.33151814341545105,5.476443290710449,15.849740028381348,1.8522220849990845,-48.37558364868164,57.58456802368164,0.09384001046419144,1,0.3612586557865143,0.001794538926333189,0.0007855644216760993,-0.00014476108481176198,0.3612586557865143,0.001794538926333189,0.0007855644216760993,-0.00014476108481176198
22914.411,0.08932342380285263,-0.08229856938123703,1.5150436162948608,-0.020124800503253937,0.17741869390010834,0.31826087832450867,4.994541168212891,15.302889823913574,1.908443570137024,-47.61112594604492,60.73272705078125,0.14624029397964478,1,0.36296772956848145,0.00041052597225643694,2.758347545750439e-05,-0.000145056881592609,0.36296772956848145,0.00041052597225643694,2.758347545750439e-05,-0.000145056881592609
22924.271,0.08874666690826416,-0.08131974190473557,1.5180611610412598,-0.0444331057369709,0.16655071079730988,0.3068021833896637,4.506255626678467,14.683189392089844,1.9661238193511963,-40.333457946777344,66.96318817138672,0.7681590914726257,1,0.36415472626686096,-0.0011267284862697124,-0.0008365373942069709,-0.0001538123469799757,0.36415472626686096,-0.0011267284862697124,-0.0008365373942069709,-0.0001538123469799757
22934.139,0.08768302202224731,-0.08129168301820755,1.5206761360168457,-0.06945796310901642,0.1534661501646042,0.2954546809196472,4.1005072593688965,14.04158878326416,2.031038522720337,-32.24300765991211,72.20210266113281,0.7758577466011047,1,0.36551955342292786,-0.0015929053770378232,-0.0008341178181581199,-0.00016570324078202248,0.36551955342292786,-0.0015929053770378232,-0.0008341178181581199,-0.00016570324078202248
22944.003,0.08665966987609863,-0.0805080458521843,1.5234739780426025,-0.09210370481014252,0.14416173100471497,0.2860499322414398,3.749230146408081,13.312498092651367,2.096122980117798,-30.197839736938477,73.87989807128906,0.8076199889183044,1,0.36631396412849426,-0.00041423604125157,-0.00020744062203448266,-0.00016901611525099725,0.36631396412849426,-0.00041423604125157,-0.00020744062203448266,-0.00016901611525099725
22953.853,0.08522974699735641,-0.08060778677463531,1.5258885622024536,-0.11479875445365906,0.1329047977924347,0.27565035223960876,3.4098780155181885,12.616847038269043,2.1599953174591064,-33.95256423950195,69.74395751953125,0.5668780207633972,1,0.367550253868103,0.0009247722337022424,0.0011226957431063056,-0.0001686020113993436,0.367550253868103,0.0009247722337022424,0.0011226957431063056,-0.0001686020113993436
22963.713,0.08380439132452011,-0.08001121878623962,1.5284863710403442,-0.13506001234054565,0.12463068962097168,0.2664353549480438,3.038618564605713,11.917351722717285,2.2145233154296875,-40.21889877319336,66.4609146118164,0.42890772223472595,1,0.36840444803237915,0.0017372749280184507,0.0010581730166450143,-0.00015836756210774183,0.36840444803237915,0.0017372749280184507,0.0010581730166450143,-0.00015836756210774183
22973.576,0.08219561725854874,-0.07952948659658432,1.5309336185455322,-0.15447160601615906,0.1167031079530716,0.25736168026924133,2.6180970668792725,11.261834144592285,2.261259078979492,-43.54413604736328,66.60824584960938,0.26587697863578796,1,0.3693011999130249,0.0013454605359584093,0.00034342234721407294,-0.00014961209672037512,0.3693011999130249,0.0013454605359584093,0.00034342234721407294,-0.00014961209672037512
22983.454,0.08028273284435272,-0.07981660962104797,1.5331251621246338,-0.17331477999687195,0.10747598111629486,0.2481008917093277,2.1594319343566895,10.599018096923828,2.3090949058532715,-41.076534271240234,69.82305908203125,0.8051315546035767,1,0.37037551403045654,0.00013711083738598973,-0.0004231079074088484,-0.00015694776084274054,0.37037551403045654,0.00013711083738598973,-0.0004231079074088484,-0.00015694776084274054
22993.294,0.0783514454960823,-0.0794721394777298,1.535399317741394,-0.19066877663135529,0.10100818425416946,0.24033287167549133,1.751792550086975,9.895909309387207,2.353497266769409,-33.96912384033203,74.42321014404297,0.7144481539726257,1,0.37104037404060364,-0.0010146201821044087,-0.0009268692811019719,-0.00015398982213810086,0.37104037404060364,-0.0010146201821044087,-0.0009268692811019719,-0.00015398982213810086
23003.161,0.07618444412946701,-0.07986297458410263,1.5374348163604736,-0.20737981796264648,0.09313727170228958,0.23301813006401062,1.409593939781189,9.15184497833252,2.4067752361297607,-27.703399658203125,78.47881317138672,1.1707448959350586,1,0.37171322107315063,-0.001061237882822752,-0.00103042833507061,-0.00017061340622603893,0.37171322107315063,-0.001061237882822752,-0.00103042833507061,-0.00017061340622603893
23013.015,0.07397064566612244,-0.07961549609899521,1.539568305015564,-0.22249431908130646,0.08820071071386337,0.22653083503246307,1.1214103698730469,8.379426002502441,2.447690010070801,-25.431835174560547,76.7425537109375,1.3895790576934814,1,0.37213271856307983,-0.0002990629291161895,0.00014049827586859465,-0.00015860420535318553,0.37213271856307983,-0.0002990629291161895,0.00014049827586859465,-0.00015860420535318553
23022.893,0.07159840315580368,-0.08005081117153168,1.5414732694625854,-0.2364504188299179,0.08198041468858719,0.21926407516002655,0.833092212677002,7.630310535430908,2.4956936836242676,-28.520557403564453,71.84556579589844,1.0634899139404297,1,0.37286126613616943,0.00093912857118994,0.0009102547192014754,-0.0001672413491178304,0.37286126613616943,0.00093912857118994,0.0009102547192014754,-0.0001672413491178304
23032.736,0.06919153779745102,-0.08052878081798553,1.5432653427124023,-0.24904978275299072,0.07604867219924927,0.21164007484912872,0.5254946351051331,6.944272041320801,2.5401346683502197,-32.661434173583984,67.91056060791016,1.502196192741394,1,0.37373781204223633,0.0013578811194747686,0.0008178258431144059,-0.00016789209621492773,0.37373781204223633,0.0013578811194747686,0.0008178258431144059,-0.00016789209621492773
23042.597,0.06664347648620605,-0.08035998046398163,1.5452523231506348,-0.2601780891418457,0.07314606755971909,0.20573727786540985,0.16651028394699097,6.256995677947998,2.5730559825897217,-33.87733840942383,67.37972259521484,2.189042568206787,1,0.3740909993648529,0.0008955757366493344,8.678308950038627e-05,-0.00015996485308278352,0.3740909993648529,0.0008955757366493344,8.678308950038627e-05,-0.00015996485308278352
23052.464,0.0641164630651474,-0.08086825162172318,1.5469326972961426,-0.2703450620174408,0.06850632280111313,0.19946345686912537,-0.1884482353925705,5.604073524475098,2.6215927600860596,-29.905729293823242,70.2627944946289,2.6311585903167725,1,0.37469014525413513,-0.00025179999647662044,-0.0007813704432919621,-0.00018463398737367243,0.37469014525413513,-0.00025179999647662044,-0.0007813704432919621,-0.00018463398737367243
23062.331,0.061410240828990936,-0.08075351268053055,1.5488102436065674,-0.2793368101119995,0.06678469479084015,0.1949586421251297,-0.4991430938243866,4.8929123878479,2.656147003173828,-24.11372947692871,71.920654296875,2.7896227836608887,1,0.3747512996196747,-0.000780402566306293,-0.0006855541141703725,-0.00016996264457702637,0.3747512996196747,-0.000780402566306293,-0.0006855541141703725,-0.00016996264457702637
23072.184,0.058803852647542953,-0.08126935362815857,1.550406575202942,-0.28704559803009033,0.063483327627182,0.1894473135471344,-0.7478440403938293,4.201622486114502,2.7030341625213623,-20.2268123626709,71.24853515625,3.285515069961548,1,0.37520256638526917,-0.0005137623520568013,-0.00027664125082083046,-0.00019090480054728687,0.37520256638526917,-0.0005137623520568013,-0.00027664125082083046,-0.00019090480054728687
23082.039,0.05599219724535942,-0.08118623495101929,1.5521941184997559,-0.2935855984687805,0.06268934905529022,0.1849900186061859,-0.9581835865974426,3.4839704036712646,2.740004301071167,-20.270666122436523,68.30016326904297,3.601350784301758,1,0.37529635429382324,0.0003327760787215084,0.00020098834647797048,-0.00018250425637234002,0.37529635429382324,0.0003327760787215084,0.00020098834647797048,-0.00018250425637234002
23091.902,0.053364306688308716,-0.08170312643051147,1.553714394569397,-0.2985338270664215,0.06019379943609238,0.17924852669239044,-1.1677833795547485,2.8225693702697754,2.7824130058288574,-22.419906616210938,64.84744262695312,3.9642958641052246,1,0.3758428692817688,0.0008787997649051249,0.00034471278195269406,-0.00019368523498997092,0.3758428692817688,0.0008787997649051249,0.00034471278195269406,-0.00019368523498997092
23101.769,0.050499673932790756,-0.08162753283977509,1.5554109811782837,-0.30265170335769653,0.0602404847741127,0.1750333160161972,-1.4050073623657227,2.1667959690093994,2.8165605068206787,-23.716136932373047,62.03154373168945,3.931914806365967,1,0.37592217326164246,0.0008234715787693858,0.000230507503147237,-0.00018475230899639428,0.37592217326164246,0.0008234715787693858,0.000230507503147237,-0.00018475230899639428
