timestamp,stateEstimate.x,stateEstimate.y,stateEstimate.z,stateEstimate.vx,stateEstimate.vy,stateEstimate.vz,stateEstimate.roll,stateEstimate.pitch,stateEstimate.yaw,gyro.x,gyro.y,gyro.z,ILBC.nominal_controller,ILBC.nominal_thrust,ILBC.nominal_torqueX,ILBC.nominal_torqueY,ILBC.nominal_torqueZ,ILBC.full_thrust,ILBC.full_torqueX,ILBC.full_torqueY,ILBC.full_torqueZ
89076.192,0.015397950075566769,-0.03708866238594055,0.026727277785539627,-0.07527553290128708,0.056099783629179,-0.0019663041457533836,-1.2555863857269287,1.136407494544983,-2.1365151405334473,-0.1041363924741745,0.3010208308696747,0.2970850467681885,1,0.19836726784706116,-0.0021861919667571783,0.0028107722755521536,5.359768692869693e-05,0.19836726784706116,-0.0021861919667571783,0.0028107722755521536,5.359768692869693e-05
89086.049,0.01566704735159874,-0.037296950817108154,0.026737410575151443,-0.07438685745000839,0.05542035028338432,-0.001994592137634754,-1.255438208580017,1.1346583366394043,-2.132925271987915,0.09868965297937393,-0.14959995448589325,-0.1137927770614624,1,0.19836726784706116,-0.0021861919667571783,0.0028107722755521536,5.359768692869693e-05,0.19836726784706116,-0.0021861919667571783,0.0028107722755521536,5.359768692869693e-05
89095.916,0.015402750112116337,-0.037100452929735184,0.026732180267572403,-0.07522266358137131,0.056155234575271606,-0.0018933983519673347,-1.2527923583984375,1.1353422403335571,-2.131242275238037,-0.1642904281616211,0.12167058885097504,0.2617257535457611,1,0.19836726784706116,-0.0021861919667571783,0.0028107722755521536,5.359768692869693e-05,0.19836726784706116,-0.0021861919667571783,0.0028107722755521536,5.359768692869693e-05
89105.769,0.01567230001091957,-0.03731326386332512,0.026741620153188705,-0.07419183850288391,0.05543101206421852,-0.001782527775503695,-1.2527797222137451,1.133266568183899,-2.1275832653045654,0.12021617591381073,-0.2031787484884262,0.053139153867959976,1,0.19836726784706116,-0.0021861919667571783,0.0028107722755521536,5.359768692869693e-05,0.19836726784706116,-0.0021861919667571783,0.0028107722755521536,5.359768692869693e-05
89115.634,0.015409327112138271,-0.03711770847439766,0.02673732489347458,-0.07508136332035065,0.056188005954027176,-0.0017920031677931547,-1.2512551546096802,1.1321208477020264,-2.125659465789795,-0.4035796523094177,0.31892284750938416,0.17290054261684418,1,0.19836726784706116,-0.0021861919667571783,0.0028107722755521536,5.359768692869693e-05,0.19836726784706116,-0.0021861919667571783,0.0028107722755521536,5.359768692869693e-05
89125.492,0.015673581510782242,-0.03731566667556763,0.026751287281513214,-0.07420699298381805,0.05576764792203903,-0.00155773910228163,-1.2576271295547485,1.1311134099960327,-2.125929355621338,-0.19033794105052948,0.2353094071149826,0.20910684764385223,1,0.19836726784706116,-0.0021861919667571783,0.0028107722755521536,5.359768692869693e-05,0.19836726784706116,-0.0021861919667571783,0.0028107722755521536,5.359768692869693e-05
89135.368,0.015407807193696499,-0.03712238743901253,0.026750290766358376,-0.07491222023963928,0.05632040277123451,-0.001492283190600574,-1.2578604221343994,1.1282734870910645,-2.122987985610962,0.04786066710948944,0.16826458275318146,-0.17938187718391418,1,0.19836726784706116,-0.0021861919667571783,0.0028107722755521536,5.359768692869693e-05,0.19836726784706116,-0.0021861919667571783,0.0028107722755521536,5.359768692869693e-05
89145.21,0.01567130722105503,-0.037328675389289856,0.026764657348394394,-0.07409127801656723,0.05549836531281471,-0.0014221325982362032,-1.2565702199935913,1.1261136531829834,-2.122248888015747,0.2820865213871002,0.1696879267692566,0.1885632574558258,1,0.19836726784706116,-0.0021861919667571783,0.0028107722755521536,5.359768692869693e-05,0.19836726784706116,-0.0021861919667571783,0.0028107722755521536,5.359768692869693e-05
89155.12,0.015407071448862553,-0.037132974714040756,0.026764139533042908,-0.07494685053825378,0.056139882653951645,-0.0013873445568606257,-1.2542905807495117,1.1231683492660522,-2.119814157485962,0.2640035152435303,-0.02678127959370613,0.18108807504177094,1,0.4880855083465576,0.005285541992634535,-0.005285541992634535,0.0019384496845304966,0.4880855083465576,0.005285541992634535,-0.005285541992634535,0.0019384496845304966
89164.981,0.015669362619519234,-0.03733755275607109,0.026775602251291275,-0.07405693084001541,0.05555766448378563,-0.0013406665530055761,-1.2546347379684448,1.1289490461349487,-2.12821888923645,-0.35051119327545166,0.19099149107933044,3.8536810874938965,1,0.4897124469280243,0.0042434995993971825,-0.004663381259888411,0.0019384496845304966,0.4897124469280243,0.0042434995993971825,-0.004663381259888411,0.0019384496845304966
89174.843,0.01539619266986847,-0.03714015707373619,0.02677587792277336,-0.07484125345945358,0.05618802830576897,-0.0012231492437422276,-1.2575109004974365,1.1398766040802002,-2.1210389137268066,2.120394706726074,-1.8216369152069092,1.6562517881393433,1,0.49132171273231506,0.0035460088402032852,-0.004152361303567886,0.0019384496845304966,0.49132171273231506,0.0035460088402032852,-0.004152361303567886,0.0019384496845304966
89184.7,0.015664497390389442,-0.03733766824007034,0.026787174865603447,-0.07354865223169327,0.05603206902742386,-0.001299763796851039,-1.233268141746521,1.166538953781128,-2.123835325241089,3.509828805923462,-3.017286777496338,2.8386778831481934,1,0.49297910928726196,0.0037197365891188383,-0.004284794442355633,0.0019384496845304966,0.49297910928726196,0.0037197365891188383,-0.004284794442355633,0.0019384496845304966
89194.563,0.015405956655740738,-0.037132374942302704,0.026792315766215324,-0.07403293997049332,0.057142745703458786,3.1579598726239055e-05,-1.1864500045776367,1.2118057012557983,-2.1145594120025635,9.515800476074219,-7.370335578918457,1.687204360961914,1,0.494285523891449,0.0025601014494895935,-0.003483421867713332,0.0019384496845304966,0.494285523891449,0.0025601014494895935,-0.003483421867713332,0.0019384496845304966
89204.42,0.015677960589528084,-0.037326984107494354,0.02681511826813221,-0.07286267727613449,0.05683676153421402,0.00011649946100078523,-1.0777243375778198,1.3109378814697266,-2.106671094894409,21.377206802368164,-22.40855598449707,-2.201608657836914,1,0.4959007799625397,0.0008852521423250437,-0.0007174930069595575,0.0019384496845304966,0.4959007799625397,0.0008852521423250437,-0.0007174930069595575,0.0019384496845304966
89214.294,0.015419257804751396,-0.03712574392557144,0.026841681450605392,-0.07366268336772919,0.05759967863559723,0.0027491427026689053,-0.8354137539863586,1.5554660558700562,-2.1186487674713135,16.312694549560547,-18.72102165222168,-1.0481832027435303,1,0.4968804717063904,0.0044712647795677185,-0.004602245986461639,0.0019384496845304966,0.4968804717063904,0.0044712647795677185,-0.004602245986461639,0.0019384496845304966
89224.143,0.015671532601118088,-0.03732782229781151,0.02689099870622158,-0.07315342873334885,0.056731440126895905,0.001780846854671836,-0.740923285484314,1.6705724000930786,-2.099339008331299,-4.677106857299805,6.557649612426758,16.116626739501953,1,0.4987544119358063,0.005285541992634535,-0.005285541992634535,0.0019384496845304966,0.4987544119358063,0.005285541992634535,-0.005285541992634535,0.0019384496845304966
89233.997,0.015395976603031158,-0.03712976723909378,0.026896415278315544,-0.07443608343601227,0.05691675469279289,-0.0033762964885681868,-0.7861425280570984,1.616224765777588,-1.9264010190963745,5.5886383056640625,-5.557377338409424,16.15715217590332,1,0.5016747117042542,0.0017758272588253021,-0.0019769768696278334,0.0019384496845304966,0.5016747117042542,0.0017758272588253021,-0.0019769768696278334,0.0019384496845304966
89243.857,0.015614823438227177,-0.03735453262925148,0.02692401222884655,-0.07448121160268784,0.05595390126109123,0.0041899848729372025,-0.7346356511116028,1.6946306228637695,-1.777540683746338,3.7712044715881348,-10.377252578735352,23.55953025817871,1,0.5014289021492004,0.004236886277794838,-0.0032551726326346397,0.0019384496845304966,0.5014289021492004,0.004236886277794838,-0.0032551726326346397,0.0019384496845304966
89253.736,0.015313386917114258,-0.037166398018598557,0.02699262648820877,-0.07613376528024673,0.056231264024972916,0.006823142059147358,-0.7289851903915405,1.8023674488067627,-1.500004529953003,4.263514518737793,-6.079263687133789,41.30146408081055,1,0.5024023652076721,0.0036853780038654804,-0.005262152757495642,0.0019384496845304966,0.5024023652076721,0.0036853780038654804,-0.005262152757495642,0.0019384496845304966
89263.578,0.015456162393093109,-0.03736744821071625,0.027104120701551437,-0.0765763521194458,0.05520964786410332,0.010103083215653896,-0.6507226228713989,1.9002093076705933,-1.0463613271713257,11.040367126464844,-7.986937046051025,53.42436218261719,1,0.5032105445861816,0.0019924624357372522,-0.003931209444999695,0.0019384496845304966,0.5032105445861816,0.0019924624357372522,-0.003931209444999695,0.0019384496845304966
89273.44,0.015124938450753689,-0.037198446691036224,0.02726004272699356,-0.07883675396442413,0.05519084259867668,0.018262343481183052,-0.5172192454338074,2.027125835418701,-0.4733161926269531,19.335968017578125,-21.547636032104492,68.6961441040039,1,0.5027967691421509,0.001156408921815455,-0.0010223629651591182,0.0019384496845304966,0.5027967691421509,0.001156408921815455,-0.0010223629651591182,0.0019384496845304966
89283.31,0.015285386703908443,-0.037436343729496,0.027530362829566002,-0.07970883697271347,0.053811367601156235,0.031579624861478806,-0.33544600009918213,2.2813282012939453,0.23108945786952972,29.314138412475586,-40.202327728271484,86.18490600585938,1,0.5010841488838196,0.00015066062042023987,0.0008031469187699258,0.0019384496845304966,0.5010841488838196,0.00015066062042023987,0.0008031469187699258,0.0019384496845304966
89293.17,0.01489945873618126,-0.037294935435056686,0.027942396700382233,-0.08318784087896347,0.052873872220516205,0.046535830944776535,-0.052120111882686615,2.733541250228882,1.1317228078842163,36.998008728027344,-56.7276725769043,101.38400268554688,1,0.4989429712295532,-4.1939783841371536e-05,0.0011375360190868378,0.0019384496845304966,0.4989429712295532,-4.1939783841371536e-05,0.0011375360190868378,0.0019384496845304966
89303.02,0.01480470597743988,-0.03751438856124878,0.028591828420758247,-0.08703438192605972,0.04971911013126373,0.062200795859098434,0.33410656452178955,3.422559976577759,2.3158857822418213,45.20199203491211,-71.27618408203125,118.00701141357422,1,0.4966026842594147,-0.0009583240607753396,0.0014835393521934748,0.0019384496845304966,0.4966026842594147,-0.0009583240607753396,0.0014835393521934748,0.0019384496845304966
89312.882,0.01432987954467535,-0.037421416491270065,0.029310107231140137,-0.0926768109202385,0.0471247099339962,0.0762462317943573,0.7077340483665466,4.187235355377197,3.5577571392059326,40.91156005859375,-80.12593078613281,136.58126831054688,1,0.49464306235313416,0.0012444824678823352,0.0008699279278516769,0.0019384496845304966,0.49464306235313416,0.0012444824678823352,0.0008699279278516769,0.0019384496845304966
89322.744,0.014195911586284637,-0.037752293050289154,0.03019293211400509,-0.0986013412475586,0.042106129229068756,0.08929073810577393,1.0269651412963867,5.0841169357299805,4.990429401397705,38.62398910522461,-92.02212524414062,158.23521423339844,1,0.49291226267814636,0.0003755223879124969,0.0021773201879113913,0.0019384496845304966,0.49291226267814636,0.0003755223879124969,0.0021773201879113913,0.0019384496845304966
89332.616,0.013563117012381554,-0.03773981332778931,0.03117692470550537,-0.10737134516239166,0.037484630942344666,0.10162251442670822,1.2556730508804321,6.067916393280029,6.645330429077148,37.697967529296875,-95.87506103515625,181.5138702392578,1,0.4913398325443268,-0.0004587567236740142,0.0009473552345298231,0.0019384496845304966,0.4913398325443268,-0.0004587567236740142,0.0009473552345298231,0.0019384496845304966
89342.462,0.013225845992565155,-0.03817587345838547,0.03231556713581085,-0.11672130972146988,0.030177421867847443,0.11354414373636246,1.4516428709030151,7.078437328338623,8.536355018615723,35.220001220703125,-87.38127899169922,205.57113647460938,1,0.48985132575035095,-0.0007305587641894817,-0.0016419426538050175,0.0019384496845304966,0.48985132575035095,-0.0007305587641894817,-0.0016419426538050175,0.0019384496845304966
89352.334,0.012388619594275951,-0.03828823193907738,0.033540982753038406,-0.12867236137390137,0.02336038649082184,0.12474960088729858,1.5336140394210815,7.978548526763916,10.666014671325684,30.922414779663086,-74.20869445800781,227.91539001464844,1,0.4885237514972687,-0.0009091254905797541,-0.0029017492197453976,0.0019384496845304966,0.4885237514972687,-0.0009091254905797541,-0.0029017492197453976,0.0019384496845304966
89362.188,0.011661765165627003,-0.03885701298713684,0.03503946587443352,-0.14219531416893005,0.013025772757828236,0.13505788147449493,1.5020548105239868,8.86457633972168,13.283743858337402,20.704809188842773,-67.3227310180664,250.51681518554688,1,0.48740336298942566,-0.00016437169688288122,-0.0017003355314955115,0.0017512720078229904,0.48740336298942566,-0.00016437169688288122,-0.0017003355314955115,0.0017512720078229904
89372.065,0.012048464268445969,-0.0392322763800621,0.035067129880189896,-0.14094218611717224,0.011342700570821762,0.1351540982723236,1.5348010063171387,8.871405601501465,13.267328262329102,9.805353164672852,-72.33041381835938,270.6772155761719,1,0.48881494998931885,0.00038084553671069443,0.0008989631896838546,0.0019384496845304966,0.48881494998931885,0.00038084553671069443,0.0008989631896838546,0.0019384496845304966
89381.906,0.011315250769257545,-0.03988366946578026,0.036521345376968384,-0.1540917456150055,0.000794562918599695,0.14338327944278717,1.33698570728302,9.649538040161133,15.8571195602417,-1.682808518409729,-82.75544738769531,289.0513916015625,1,0.4881976246833801,0.0001592098706169054,0.0026004279498010874,0.0014090394834056497,0.4881976246833801,0.0001592098706169054,0.0026004279498010874,0.0014090394834056497
89391.778,0.010059644468128681,-0.04027477279305458,0.03802994638681412,-0.16964294016361237,-0.009004868566989899,0.15134017169475555,0.9208688139915466,10.486953735351562,18.652793884277344,-12.023550033569336,-87.5727310180664,307.6003112792969,1,0.487635999917984,-0.0004419808101374656,0.0018689013086259365,0.0009049490327015519,0.487635999917984,-0.0004419808101374656,0.0018689013086259365,0.0009049490327015519
89401.636,0.00900738313794136,-0.041117630898952484,0.039658550173044205,-0.18534371256828308,-0.02131497487425804,0.15892669558525085,0.3609639108181,11.420122146606445,21.656917572021484,-21.302154541015625,-82.04080963134766,316.2774353027344,1,0.4871549904346466,-0.0010984997497871518,-0.0002126024483004585,0.00045865660649724305,0.4871549904346466,-0.0010984997497871518,-0.0002126024483004585,0.00045865660649724305
89411.503,0.007409027311950922,-0.04171166941523552,0.041330330073833466,-0.20398373901844025,-0.03239678964018822,0.16645179688930511,-0.4261508584022522,12.311513900756836,24.828807830810547,-30.434879302978516,-69.24006652832031,316.8690185546875,1,0.48667794466018677,-0.0011925416765734553,-0.0019772995728999376,0.00011305207590339705,0.48667794466018677,-0.0011925416765734553,-0.0019772995728999376,0.00011305207590339705
89421.352,0.005980910267680883,-0.04274744167923927,0.043133508414030075,-0.2231135368347168,-0.04588998109102249,0.17458601295948029,-1.3213331699371338,13.074597358703613,28.063556671142578,-44.0472297668457,-55.85197448730469,313.0561218261719,1,0.4860377907752991,0.0004608537128660828,-0.0024507350753992796,-7.365245255641639e-05,0.4860377907752991,0.0004608537128660828,-0.0024507350753992796,-7.365245255641639e-05
89431.219,0.003996169660240412,-0.04358832538127899,0.04497433081269264,-0.24489998817443848,-0.05836334452033043,0.18306119740009308,-2.3836615085601807,13.626260757446289,31.309797286987305,-61.30112075805664,-54.06130599975586,306.54229736328125,1,0.4853004515171051,0.002136831870302558,-5.048904858995229e-05,-0.00017800822388380766,0.4853004515171051,0.002136831870302558,-5.048904858995229e-05,-0.00017800822388380766
89441.071,0.0021335133351385593,-0.04485943913459778,0.04696475341916084,-0.2672049403190613,-0.07291634380817413,0.19219829142093658,-3.5749614238739014,14.069955825805664,34.512596130371094,-78.11957550048828,-59.77682876586914,299.79266357421875,1,0.4843854308128357,0.003008373314514756,0.0018027655314654112,-0.0002106637548422441,0.4843854308128357,0.003008373314514756,0.0018027655314654112,-0.0002106637548422441
89450.95,-0.0003139030304737389,-0.04593871906399727,0.04899528622627258,-0.2920914590358734,-0.0853995680809021,0.20121359825134277,-5.001114845275879,14.432417869567871,37.665340423583984,-85.88496398925781,-68.78599548339844,293.9504089355469,1,0.4834871292114258,0.0018371238838881254,0.0029217510018497705,-0.00023941484687384218,0.4834871292114258,0.0018371238838881254,0.0029217510018497705,-0.00023941484687384218
89460.793,-0.0026846365071833134,-0.04740934818983078,0.0511927492916584,-0.31797608733177185,-0.09933653473854065,0.21087586879730225,-6.538904666900635,14.837898254394531,40.76808547973633,-82.28361511230469,-73.43547058105469,288.4717712402344,1,0.4824140965938568,-0.00023066881112754345,0.0023334650322794914,-0.00026881665689870715,0.4824140965938568,-0.00023066881112754345,0.0023334650322794914,-0.00026881665689870715
89470.652,-0.005677307024598122,-0.0487191379070282,0.05343260243535042,-0.347522497177124,-0.11137913912534714,0.22177676856517792,-8.149283409118652,15.21254825592041,43.846595764160156,-69.77555847167969,-71.33580780029297,283.5967102050781,1,0.48101770877838135,-0.0021442521829158068,0.000983971869572997,-0.00033347701537422836,0.48101770877838135,-0.0021442521829158068,0.000983971869572997,-0.00033347701537422836
89480.516,-0.008657439611852169,-0.05037713050842285,0.05587414652109146,-0.37877002358436584,-0.12479747831821442,0.2335233986377716,-9.679067611694336,15.564774513244629,46.88804244995117,-59.016448974609375,-56.48747253417969,280.6737365722656,1,0.47939416766166687,-0.0018580937758088112,-0.002023917157202959,-0.00039458784158341587,0.47939416766166687,-0.0018580937758088112,-0.002023917157202959,-0.00039458784158341587
89490.385,-0.012286054901778698,-0.05192013084888458,0.0583551786839962,-0.4130408465862274,-0.13708123564720154,0.245086207985878,-11.094282150268555,15.732105255126953,49.88605880737305,-59.8958625793457,-42.94116973876953,274.6543884277344,1,0.4777989685535431,0.0008654113626107574,-0.002139574382454157,-0.00042398966616019607,0.4777989685535431,0.0008654113626107574,-0.002139574382454157,-0.00042398966616019607
89500.245,-0.01593233272433281,-0.053799744695425034,0.061040833592414856,-0.44774049520492554,-0.1511148065328598,0.2558286190032959,-12.410967826843262,15.73585033416748,52.81458282470703,-69.90526580810547,-40.340240478515625,269.5760192871094,1,0.4763911962509155,0.0034308359026908875,8.517002424923703e-05,-0.00042475873488001525,0.4763911962509155,0.0034308359026908875,8.517002424923703e-05,-0.00042475873488001525
89510.097,-0.020261315628886223,-0.055575110018253326,0.06373825669288635,-0.4844764471054077,-0.16355453431606293,0.26462477445602417,-13.782890319824219,15.555082321166992,55.665374755859375,-78.56546783447266,-47.61390686035156,264.5847473144531,1,0.4754529297351837,0.003845233004540205,0.0024328301660716534,-0.0004126311978325248,0.4754529297351837,0.003845233004540205,0.0024328301660716534,-0.0004126311978325248
89519.961,-0.02463657036423683,-0.05765675753355026,0.06661961227655411,-0.5214691758155823,-0.177494078874588,0.27262333035469055,-15.21639347076416,15.39139175415039,58.47242736816406,-73.57443237304688,-53.96479034423828,260.6680603027344,1,0.47470057010650635,0.0013919168850407004,0.002561714267358184,-0.0004485996614675969,0.47470057010650635,0.0013919168850407004,0.002561714267358184,-0.0004485996614675969
89529.839,-0.029714560136198997,-0.05966831371188164,0.06948975473642349,-0.5612975358963013,-0.19000601768493652,0.28043368458747864,-16.683650970458984,15.20203685760498,61.241554260253906,-57.12184524536133,-52.44035339355469,256.7585754394531,1,0.4739832282066345,-0.0009254175238311291,0.0009463874157518148,-0.0004902472719550133,0.4739832282066345,-0.0009254175238311291,0.0009463874157518148,-0.0004902472719550133
89539.683,-0.035086918622255325,-0.06177051365375519,0.07238488644361496,-0.6024302244186401,-0.20258548855781555,0.2878805100917816,-18.00650405883789,14.99485969543457,63.92331314086914,-34.49425506591797,-40.59854507446289,254.56285095214844,1,0.47334492206573486,-0.002446541329845786,-0.0015982284676283598,-0.000478948000818491,0.47334492206573486,-0.002446541329845786,-0.0015982284676283598,-0.000478948000818491
89549.54,-0.041370417922735214,-0.06442412734031677,0.0758570060133934,-0.6489152908325195,-0.2190479189157486,0.29528674483299255,-19.21169662475586,14.677607536315918,66.90715026855469,-20.30156898498535,-25.84690284729004,250.4808807373047,1,0.4727056920528412,-0.000663293874822557,-0.0028015775606036186,-0.0009510928066447377,0.4727056920528412,-0.000663293874822557,-0.0028015775606036186,-0.0009510928066447377
89559.406,-0.04731591045856476,-0.06692440807819366,0.07903698086738586,-0.6907220482826233,-0.23411570489406586,0.3005931079387665,-20.0362491607666,14.2133150100708,69.45759582519531,-19.358455657958984,-18.17254638671875,244.04473876953125,1,0.4725792706012726,0.002503159921616316,-0.0017650197260081768,-0.00047433364670723677,0.4725792706012726,0.002503159921616316,-0.0017650197260081768,-0.00047433364670723677
89569.273,-0.05404696613550186,-0.06943467259407043,0.08217071741819382,-0.7340413331985474,-0.24818237125873566,0.3046835660934448,-20.77130699157715,13.58789348602295,71.91564178466797,-25.385318756103516,-23.646587371826172,235.5730438232422,1,0.4727482199668884,0.004681609105318785,0.0009663894306868315,-0.0004027517279610038,0.4727482199668884,0.004681609105318785,0.0009663894306868315,-0.0004027517279610038
89579.121,-0.06144871190190315,-0.0721682459115982,0.08546602725982666,-0.7784647345542908,-0.26318150758743286,0.30837446451187134,-21.52932357788086,12.943624496459961,74.3682632446289,-24.639175415039062,-32.84793472290039,232.58090209960938,1,0.473010778427124,0.0038357158191502094,0.0019281009444966912,-0.0004780014860443771,0.473010778427124,0.0038357158191502094,0.0019281009444966912,-0.0004780014860443771
89588.985,-0.06874801218509674,-0.07507685571908951,0.08883175253868103,-0.8210638761520386,-0.27959978580474854,0.31159043312072754,-22.24086570739746,12.429919242858887,76.73321533203125,-7.9259138107299805,-37.12649154663086,228.2567596435547,1,0.47338631749153137,0.0004702095175161958,0.001590162981301546,-0.0004378919256851077,0.47338631749153137,0.0004702095175161958,0.001590162981301546,-0.0004378919256851077
89598.843,-0.07674238830804825,-0.07818590104579926,0.0923527255654335,-0.8654369711875916,-0.29726117849349976,0.31523996591567993,-22.8638973236084,11.959149360656738,79.1655502319336,20.849424362182617,-29.37563133239746,224.3106689453125,1,0.47364893555641174,-0.002600105246528983,-0.0005386036355048418,-0.0005960820126347244,0.47364893555641174,-0.002600105246528983,-0.0005386036355048418,-0.0005960820126347244
89608.724,-0.08518457412719727,-0.08122963458299637,0.0956123024225235,-0.9105455279350281,-0.3129505515098572,0.31812480092048645,-23.200929641723633,11.427183151245117,81.40367889404297,48.81884765625,-16.374008178710938,220.94935607910156,1,0.4740968346595764,-0.0031132225412875414,-0.001599841401912272,-0.0004251136560924351,0.4740968346595764,-0.0031132225412875414,-0.001599841401912272,-0.0004251136560924351
89618.565,-0.0935952365398407,-0.084431491792202,0.09901569783687592,-0.9534938931465149,-0.3308359980583191,0.3219977915287018,-23.186094284057617,10.873017311096191,83.57213592529297,62.636165618896484,-7.046392440795898,216.00149536132812,1,0.4742940068244934,-0.0004650477203540504,-0.0007423342321999371,-0.0003946470096707344,0.4742940068244934,-0.0004650477203540504,-0.0007423342321999371,-0.0003946470096707344
89628.428,-0.10288982838392258,-0.08777711540460587,0.10235442966222763,-0.9975842833518982,-0.3479577600955963,0.32534313201904297,-22.96135902404785,10.173892974853516,85.64554595947266,59.94050979614258,-5.673610687255859,212.18035888671875,1,0.47461697459220886,0.0032816268503665924,0.0012223833473399282,-0.0003366124292369932,0.47461697459220886,0.0032816268503665924,0.0012223833473399282,-0.0003366124292369932
89638.288,-0.11210422962903976,-0.09120931476354599,0.1058475598692894,-1.0378516912460327,-0.36584171652793884,0.3284582495689392,-22.62725830078125,9.490893363952637,87.6463623046875,52.59538650512695,-6.742639064788818,210.01284790039062,1,0.47499239444732666,0.004774844739586115,0.0021460263524204493,-0.0003151378477923572,0.47499239444732666,0.004774844739586115,0.0021460263524204493,-0.0003151378477923572
89648.163,-0.12218568474054337,-0.09485478699207306,0.10926497727632523,-1.0785576105117798,-0.38311514258384705,0.3309597373008728,-22.35545539855957,8.791947364807129,89.63601684570312,55.69107437133789,-2.3379523754119873,207.02622985839844,1,0.47551625967025757,0.0028233537450432777,0.0012230286374688148,-0.00036376621574163437,0.47551625967025757,0.0028233537450432777,0.0012230286374688148,-0.00036376621574163437
89658.009,-0.1321362853050232,-0.09853143990039825,0.11284324526786804,-1.1161381006240845,-0.4009299576282501,0.3347274959087372,-22.058149337768555,8.134299278259277,91.58854675292969,76.48578643798828,10.039828300476074,205.43011474609375,1,0.4757205545902252,-0.0013343304162845016,-0.0005434428458102047,-0.00038843537913635373,0.4757205545902252,-0.0013343304162845016,-0.0005434428458102047,-0.00038843537913635373
89667.88,-0.1429653763771057,-0.1025199145078659,0.11634575575590134,-1.1552298069000244,-0.41942769289016724,0.33982840180397034,-21.624038696289062,7.40535306930542,93.5125961303711,104.93799591064453,27.10892105102539,202.98699951171875,1,0.4755867123603821,-0.003805390326306224,-0.0018789023160934448,-0.0004166539874859154,0.4755867123603821,-0.003805390326306224,-0.0018789023160934448,-0.0004166539874859154
89677.73,-0.15361514687538147,-0.10645367950201035,0.12004357576370239,-1.1910914182662964,-0.4375166594982147,0.34683147072792053,-20.875547409057617,6.581090927124023,95.34513854980469,126.29139709472656,39.460453033447266,198.45892333984375,1,0.4749707579612732,-0.0031179003417491913,-0.0011928642634302378,-0.0003479117003735155,0.4749707579612732,-0.0031179003417491913,-0.0011928642634302378,-0.0003479117003735155
89687.598,-0.16514617204666138,-0.11073818802833557,0.12367750704288483,-1.227292537689209,-0.45552048087120056,0.35379600524902344,-19.859769821166992,5.623392581939697,97.11834716796875,129.83416748046875,44.93170928955078,194.07334899902344,1,0.47435399889945984,0.0003806842432823032,0.00014291788102127612,-0.00031762252910993993,0.47435399889945984,0.0003806842432823032,0.00014291788102127612,-0.00031762252910993993
89697.451,-0.17758187651634216,-0.11536155641078949,0.12781797349452972,-1.2623428106307983,-0.474256306886673,0.36191365122795105,-18.568960189819336,4.59405517578125,98.98126220703125,120.971923828125,42.35249328613281,192.3876495361328,1,0.47343921661376953,0.003218717174604535,0.002018432831391692,-0.000495571584906429,0.47343921661376953,0.003218717174604535,0.002018432831391692,-0.000495571584906429
89707.321,-0.18970084190368652,-0.11988475918769836,0.13158728182315826,-1.2932333946228027,-0.48931166529655457,0.36913079023361206,-17.430028915405273,3.643486499786377,100.67281341552734,115.09365844726562,41.60938262939453,189.621826171875,1,0.47273704409599304,0.002834645565599203,0.0017782468348741531,-0.00033418694511055946,0.47273704409599304,0.002834645565599203,0.0017782468348741531,-0.00033418694511055946
89717.171,-0.2019202560186386,-0.12445659190416336,0.13586685061454773,-1.3197304010391235,-0.5041970610618591,0.37978804111480713,-16.280841827392578,2.747174024581909,102.45109558105469,121.9112777709961,47.97199249267578,185.2572784423828,1,0.4711660146713257,-5.161820081411861e-05,0.0001940521615324542,-0.0004858103930018842,0.4711660146713257,-5.161820081411861e-05,0.0001940521615324542,-0.0004858103930018842
89727.05,-0.21454772353172302,-0.12917345762252808,0.13979846239089966,-1.3467152118682861,-0.516427755355835,0.38883140683174133,-15.14940357208252,1.8475764989852905,104.09943389892578,140.630615234375,64.16847229003906,182.59957885742188,1,0.46998167037963867,-0.0032648511696606874,-0.002394439186900854,-0.00037488804082386196,0.46998167037963867,-0.0032648511696606874,-0.002394439186900854,-0.00037488804082386196
89736.891,-0.22717751562595367,-0.1338408887386322,0.14429867267608643,-1.3692790269851685,-0.5280629396438599,0.4031014144420624,-13.743776321411133,0.8591628074645996,105.78762817382812,159.3645477294922,78.48880767822266,179.50856018066406,1,0.4674800634384155,-0.004183654673397541,-0.002584619913250208,-0.0004735645779874176,0.4674800634384155,-0.004183654673397541,-0.002584619913250208,-0.0004735645779874176
89746.752,-0.24021995067596436,-0.1387118250131607,0.14844776690006256,-1.392138123512268,-0.5372909307479858,0.4144274890422821,-12.205668449401855,-0.21886977553367615,107.35453033447266,163.5643768310547,82.74247741699219,176.25135803222656,1,0.46569162607192993,-0.0016261345008388162,-0.00078782276250422,-0.0003656592743936926,0.46569162607192993,-0.0016261345008388162,-0.00078782276250422,-0.0003656592743936926
89756.619,-0.2531810402870178,-0.14336958527565002,0.1531817615032196,-1.4099608659744263,-0.5437599420547485,0.42961883544921875,-10.480318069458008,-1.3476840257644653,108.97966003417969,151.98837280273438,75.84275817871094,172.59678649902344,1,0.4629221558570862,0.0017330809496343136,0.0016435557045042515,-0.0004805453063454479,0.4629221558570862,0.0017330809496343136,0.0016435557045042515,-0.0004805453063454479
89766.485,-0.2665509581565857,-0.14827340841293335,0.15755966305732727,-1.4277247190475464,-0.5476266741752625,0.4403827488422394,-8.897868156433105,-2.365787982940674,110.52893829345703,136.7860107421875,66.33706665039062,169.85519409179688,1,0.46123453974723816,0.0028114174492657185,0.0024450896307826042,-0.00043203524546697736,0.46123453974723816,0.0028114174492657185,0.0024450896307826042,-0.00043203524546697736
89776.339,-0.27972716093063354,-0.1528390645980835,0.16252563893795013,-1.4401719570159912,-0.5482192635536194,0.4542970657348633,-7.351057052612305,-3.254987955093384,112.16887664794922,131.5541534423828,62.95067596435547,166.50550842285156,1,0.45874500274658203,0.0007089436403475702,0.0012519025476649404,-0.000590106996241957,0.45874500274658203,0.0007089436403475702,0.0012519025476649404,-0.000590106996241957
89786.197,-0.29329678416252136,-0.1576652228832245,0.16714102029800415,-1.4531280994415283,-0.5466732978820801,0.46508511900901794,-5.944945335388184,-4.040006160736084,113.72990417480469,138.83595275878906,69.37459564208984,163.9707489013672,1,0.4570145606994629,-0.002390083856880665,-0.0010926927207037807,-0.0005398813518695533,0.4570145606994629,-0.002390083856880665,-0.0010926927207037807,-0.0005398813518695533
89796.063,-0.30800899863243103,-0.16254210472106934,0.1727636456489563,-1.463147759437561,-0.5419056415557861,0.48061707615852356,-4.262842178344727,-4.915446758270264,115.49846649169922,150.60546875,80.43177032470703,159.4945526123047,1,0.4540847837924957,-0.004158975090831518,-0.002621881663799286,-0.0008407029090449214,0.4540847837924957,-0.004158975090831518,-0.002621881663799286,-0.0008407029090449214
89805.937,-0.321674644947052,-0.1671706736087799,0.17757272720336914,-1.4722696542739868,-0.5353310704231262,0.4917846918106079,-2.668782949447632,-5.761678218841553,117.01567077636719,154.83807373046875,84.22798919677734,154.66026306152344,1,0.4522205591201782,-0.003197585931047797,-0.0014932177728042006,-0.0005581022123806179,0.4522205591201782,-0.003197585931047797,-0.0014932177728042006,-0.0005581022123806179
89815.777,-0.33491185307502747,-0.17114751040935516,0.18295229971408844,-1.4764152765274048,-0.524266242980957,0.5057604312896729,-0.9227471947669983,-6.629037380218506,118.5676498413086,142.04905700683594,77.90249633789062,147.58062744140625,1,0.449639230966568,0.00027535081608220935,0.0005895766080357134,-0.0006165509112179279,0.449639230966568,0.00027535081608220935,0.0005895766080357134,-0.0006165509112179279
89825.652,-0.348618745803833,-0.1754917949438095,0.18801027536392212,-1.4813041687011719,-0.5118374824523926,0.5160768032073975,0.6705359816551208,-7.3897271156311035,120.02152252197266,121.49943542480469,62.32364273071289,143.78367614746094,1,0.44794991612434387,0.0022244215942919254,0.002872230252251029,-0.0005290553090162575,0.44794991612434387,0.0022244215942919254,0.002872230252251029,-0.0005290553090162575
89835.497,-0.3618328869342804,-0.17903554439544678,0.19361728429794312,-1.4817248582839966,-0.49443483352661133,0.528121829032898,2.1449878215789795,-8.001105308532715,121.50630950927734,105.14461517333984,51.037166595458984,138.95111083984375,1,0.4458140730857849,0.0015727421268820763,0.002261522226035595,-0.0005958453402854502,0.4458140730857849,0.0015727421268820763,0.002261522226035595,-0.0005958453402854502
89845.379,-0.37551435828208923,-0.18297100067138672,0.19889800250530243,-1.4831990003585815,-0.47644755244255066,0.5370933413505554,3.400176525115967,-8.438921928405762,122.90225219726562,103.75985717773438,48.905643463134766,134.6571502685547,1,0.444426953792572,-0.0018076046835631132,0.0002690598485060036,-0.0005139107233844697,0.444426953792572,-0.0018076046835631132,0.0002690598485060036,-0.0005139107233844697
89855.22,-0.38862374424934387,-0.18600167334079742,0.20472198724746704,-1.4805678129196167,-0.4542360007762909,0.5488227605819702,4.674072265625,-8.81735897064209,124.31591033935547,109.61201477050781,54.951873779296875,131.08663940429688,1,0.4423385262489319,-0.003974439576268196,-0.0020406933035701513,-0.0005702297203242779,0.4423385262489319,-0.003974439576268196,-0.0020406933035701513,-0.0005702297203242779
89865.08,-0.4022280275821686,-0.18945734202861786,0.2102089822292328,-1.4794775247573853,-0.43217504024505615,0.5578545331954956,5.9508466720581055,-9.216252326965332,125.65628051757812,111.85285186767578,62.7530403137207,127.36911010742188,1,0.4409056007862091,-0.0038100683595985174,-0.0031220943201333284,-0.0005094146472401917,0.4409056007862091,-0.0038100683595985174,-0.0031220943201333284,-0.0005094146472401917
89874.942,-0.41621339321136475,-0.19282162189483643,0.21612265706062317,-1.4779099225997925,-0.40893203020095825,0.5677489042282104,7.320199966430664,-9.68552017211914,127.04023742675781,100.77941131591797,58.918495178222656,123.61725616455078,1,0.4392440915107727,-0.0011943160789087415,-0.0010578504297882318,-0.0005953721120022237,0.4392440915107727,-0.0011943160789087415,-0.0010578504297882318,-0.0005953721120022237
89884.81,-0.42992842197418213,-0.19581447541713715,0.22195594012737274,-1.4748451709747314,-0.38310083746910095,0.5752331614494324,8.580591201782227,-10.100798606872559,128.36044311523438,79.15723419189453,41.82249450683594,118.52635955810547,1,0.43816903233528137,0.0012933585094287992,0.0018916457192972302,-0.0005357994232326746,0.43816903233528137,0.0012933585094287992,0.0018916457192972302,-0.0005357994232326746
89894.671,-0.44141677021980286,-0.1964937001466751,0.22809024155139923,-1.463361382484436,-0.34829699993133545,0.5823093056678772,9.63235855102539,-10.335427284240723,129.60061645507812,56.03753662109375,19.79103660583496,113.37533569335938,1,0.4371846318244934,0.0019903655629605055,0.0034161568619310856,-0.0004521491355262697,0.4371846318244934,0.0019903655629605055,0.0034161568619310856,-0.0004521491355262697
89904.523,-0.4547165632247925,-0.19873641431331635,0.23390497267246246,-1.4579676389694214,-0.3185197710990906,0.5866543054580688,10.4177827835083,-10.355439186096191,130.7514190673828,45.43278884887695,5.904216766357422,108.79977416992188,1,0.4368709623813629,-0.0005331191932782531,0.0020487585570663214,-0.0003571996057871729,0.4368709623813629,-0.0005331191932782531,0.0020487585570663214,-0.0003571996057871729
89914.389,-0.46725720167160034,-0.19975340366363525,0.24021834135055542,-1.4491137266159058,-0.28467094898223877,0.59396892786026,11.108283996582031,-10.22435474395752,131.87168884277344,47.087894439697266,5.290424346923828,105.66364288330078,1,0.4358100891113281,-0.003516650991514325,-0.0008452479378320277,-0.0003442438901402056,0.4358100891113281,-0.003516650991514325,-0.0008452479378320277,-0.0003442438901402056
89924.259,-0.4803699254989624,-0.20130397379398346,0.24616602063179016,-1.4423795938491821,-0.2524712085723877,0.59991055727005,11.752223014831543,-10.069499969482422,132.91195678710938,50.140811920166016,11.07793140411377,104.36088562011719,1,0.43508079648017883,-0.004342380911111832,-0.002590749878436327,-0.00027940605650655925,0.43508079648017883,-0.004342380911111832,-0.002590749878436327,-0.00027940605650655925
89934.105,-0.4926414489746094,-0.20155631005764008,0.25264158844947815,-1.431706190109253,-0.21682173013687134,0.6078214049339294,12.457069396972656,-9.929286003112793,133.96768188476562,42.21009063720703,13.045931816101074,102.31365203857422,1,0.4338514804840088,-0.002284266520291567,-0.002119249664247036,-0.00032862601801753044,0.4338514804840088,-0.002284266520291567,-0.002119249664247036,-0.00032862601801753044
89943.966,-0.5055319666862488,-0.2023964524269104,0.25872471928596497,-1.4236440658569336,-0.1836751401424408,0.6117627024650574,13.063196182250977,-9.82425594329834,134.98399353027344,21.06306266784668,1.6317470073699951,100.40704345703125,1,0.4336005747318268,0.0008012112230062485,0.0008252458646893501,-0.0003089853562414646,0.4336005747318268,0.0008012112230062485,0.0008252458646893501,-0.0003089853562414646
89953.828,-0.5175477862358093,-0.2018703669309616,0.26529398560523987,-1.4121055603027344,-0.1469535082578659,0.6170535683631897,13.49870777130127,-9.61756420135498,135.99424743652344,-5.039121627807617,-16.553516387939453,98.38320922851562,1,0.4330071806907654,0.002428636187687516,0.0027451200876384974,-0.0003296908689662814,0.4330071806907654,0.002428636187687516,0.0027451200876384974,-0.0003296908689662814
89963.703,-0.5301861763000488,-0.2019612193107605,0.2714763581752777,-1.4030215740203857,-0.11277703940868378,0.6194236278533936,13.653485298156738,-9.257513046264648,136.911865234375,-23.069719314575195,-33.772926330566406,96.8632583618164,1,0.4331344962120056,0.001197864767163992,0.003124191192910075,-0.00024249109264928848,0.4331344962120056,0.001197864767163992,0.003124191192910075,-0.00024249109264928848
89973.557,-0.5419045090675354,-0.2006770670413971,0.27813848853111267,-1.3905131816864014,-0.07594592124223709,0.6252408623695374,13.597657203674316,-8.694209098815918,137.79864501953125,-27.596927642822266,-39.3064079284668,94.29515075683594,1,0.43239834904670715,-0.0016496852040290833,0.0009355798829346895,-0.0002232645492767915,0.43239834904670715,-0.0016496852040290833,0.0009355798829346895,-0.0002232645492767915
89983.41,-0.5543011426925659,-0.20005477964878082,0.2844158709049225,-1.380892276763916,-0.04224034771323204,0.6297784447669983,13.453943252563477,-8.098196029663086,138.6144256591797,-23.77587890625,-35.21381378173828,93.79325103759766,1,0.43197280168533325,-0.0037465132772922516,-0.0012043170863762498,-0.0001658215478528291,0.43197280168533325,-0.0037465132772922516,-0.0012043170863762498,-0.0001658215478528291
89993.271,-0.5657297372817993,-0.19801656901836395,0.29120251536369324,-1.3676544427871704,-0.006434774491935968,0.6371755003929138,13.34371280670166,-7.50385046005249,139.4590301513672,-24.475175857543945,-30.277721405029297,93.85145568847656,1,0.43082720041275024,-0.0031064478680491447,-0.0015964540652930737,-0.00023764009529259056,0.43082720041275024,-0.0031064478680491447,-0.0015964540652930737,-0.00023764009529259056
90003.141,-0.5778542160987854,-0.19669578969478607,0.29760831594467163,-1.3572384119033813,0.025637634098529816,0.6416527628898621,13.222244262695312,-6.985179901123047,140.28607177734375,-37.4001350402832,-33.755714416503906,93.32685089111328,1,0.43039894104003906,-0.0003897173737641424,0.0002098602126352489,-0.00024692798615433276,0.43039894104003906,-0.0003897173737641424,0.0002098602126352489,-0.00024692798615433276
90012.992,-0.5889809131622314,-0.1939527839422226,0.3045073449611664,-1.343330979347229,0.05976453796029091,0.6485458612442017,12.977766990661621,-6.413092613220215,141.13372802734375,-59.473304748535156,-43.468727111816406,92.42459869384766,1,0.42936140298843384,0.002078600227832794,0.0018564806086942554,-0.0003018863208126277,0.42936140298843384,0.002078600227832794,0.0018564806086942554,-0.0003018863208126277
90022.853,-0.6008363962173462,-0.1919666826725006,0.3110206425189972,-1.3325408697128296,0.09020481258630753,0.6527107357978821,12.51831340789795,-5.796041011810303,141.9278564453125,-79.3857192993164,-56.551475524902344,91.58168029785156,1,0.4289941191673279,0.002266522729769349,0.0030851552728563547,-0.00026290080859325826,0.4289941191673279,0.002266522729769349,0.0030851552728563547,-0.00026290080859325826
90032.712,-0.6129958629608154,-0.18977069854736328,0.31786930561065674,-1.3231793642044067,0.11769309639930725,0.6578777432441711,11.832202911376953,-5.045083045959473,142.72103881835938,-88.0130615234375,-62.043357849121094,89.06504821777344,1,0.4283706843852997,0.00023212058295030147,0.0018416405655443668,-0.0002772763546090573,0.4283706843852997,0.00023212058295030147,0.0018416405655443668,-0.0002772763546090573
90042.586,-0.6232529878616333,-0.18599392473697662,0.32462558150291443,-1.3074558973312378,0.1491524577140808,0.6635960936546326,11.059999465942383,-4.249886989593506,143.45591735839844,-85.5118408203125,-59.3626594543457,88.28014373779297,1,0.42760199308395386,-0.0022371651139110327,0.00018856771930586547,-0.00023024527763482183,0.42760199308395386,-0.0022371651139110327,0.00018856771930586547,-0.00023024527763482183
90052.434,-0.6351348757743835,-0.18323498964309692,0.331584632396698,-1.2978471517562866,0.17307984828948975,0.6709378957748413,10.247718811035156,-3.4585790634155273,144.2257537841797,-78.96343231201172,-52.06874465942383,87.06426239013672,1,0.4264199137687683,-0.0033808303996920586,-0.0009333214838989079,-0.0002975085808429867,0.4264199137687683,-0.0033808303996920586,-0.0009333214838989079,-0.0002975085808429867
90062.298,-0.6450883746147156,-0.1789405196905136,0.3384478986263275,-1.2816041707992554,0.20096023380756378,0.6787335872650146,9.533669471740723,-2.7557191848754883,144.9705810546875,-82.04692077636719,-47.89487838745117,85.60542297363281,1,0.42511361837387085,-0.001429985393770039,-0.0003658439964056015,-0.00028751077479682863,0.42511361837387085,-0.001429985393770039,-0.0003658439964056015,-0.00028751077479682863
90072.158,-0.6566861271858215,-0.17567948997020721,0.34553447365760803,-1.2718206644058228,0.22125452756881714,0.6861202716827393,8.75074291229248,-2.1078555583953857,145.75384521484375,-96.95541381835938,-51.177894592285156,83.704345703125,1,0.42389777302742004,0.0016564601100981236,0.0013617523945868015,-0.00035483326064422727,0.42389777302742004,0.0016564601100981236,0.0013617523945868015,-0.00035483326064422727
90082.028,-0.6663374900817871,-0.17095576226711273,0.3524741530418396,-1.2554359436035156,0.24536779522895813,0.6926551461219788,7.880140781402588,-1.460914969444275,146.49021911621094,-117.1316909790039,-57.6965446472168,81.95074462890625,1,0.42288345098495483,0.0035845611710101366,0.002398471813648939,-0.00031525615486316383,0.42288345098495483,0.0035845611710101366,0.002398471813648939,-0.00031525615486316383
90091.882,-0.6762621998786926,-0.16613174974918365,0.3597310781478882,-1.2406501770019531,0.2656216621398926,0.7003610730171204,6.755254745483398,-0.7329263687133789,147.23622131347656,-127.18267822265625,-63.85380554199219,79.67402648925781,1,0.42156723141670227,0.0020873108878731728,0.0027262470684945583,-0.0003425874456297606,0.42156723141670227,0.0020873108878731728,0.0027262470684945583,-0.0003425874456297606
90101.739,-0.6870203614234924,-0.16222979128360748,0.3666749894618988,-1.229475736618042,0.2813849151134491,0.7063336968421936,5.535088539123535,-0.011346908286213875,147.94508361816406,-124.85116577148438,-60.605411529541016,77.65868377685547,1,0.4206719994544983,-0.00029390110285021365,0.0008525067823939025,-0.0003120616020169109,0.4206719994544983,-0.00029390110285021365,0.0008525067823939025,-0.0003120616020169109
90111.603,-0.6966738104820251,-0.1571105271577835,0.37402746081352234,-1.214823842048645,0.29673120379447937,0.7156357765197754,4.286146640777588,0.7248320579528809,148.6746826171875,-112.66777801513672,-51.06566619873047,76.21704864501953,1,0.4189372658729553,-0.0025873619597405195,-0.0006215153844095767,-0.0003584419609978795,0.4189372658729553,-0.0025873619597405195,-0.0006215153844095767,-0.0003584419609978795
90121.47,-0.7071850895881653,-0.1529570370912552,0.38110026717185974,-1.2039207220077515,0.3072672188282013,0.7227619290351868,3.161897897720337,1.310899019241333,149.38572692871094,-103.5634765625,-42.79212951660156,75.24937438964844,1,0.41773152351379395,-0.0021302185487002134,-0.000557476538233459,-0.00035856026806868613,0.41773152351379395,-0.0021302185487002134,-0.000557476538233459,-0.00035856026806868613
90131.325,-0.7179869413375854,-0.14874960482120514,0.3885454535484314,-1.1948118209838867,0.3139442503452301,0.7307663559913635,2.0913662910461426,1.8177471160888672,150.12615966796875,-104.7091293334961,-39.93802261352539,71.99422454833984,1,0.4162960350513458,0.00019921398779843003,0.0005477981176227331,-0.00040334335062652826,0.4162960350513458,0.00019921398779843003,0.0005477981176227331,-0.00040334335062652826
90141.18,-0.7268661856651306,-0.14333531260490417,0.3957577049732208,-1.1789449453353882,0.3236493468284607,0.7376488447189331,1.0769869089126587,2.29115629196167,150.82217407226562,-116.2647476196289,-46.87320327758789,70.07069396972656,1,0.41512855887413025,0.002907233778387308,0.002954012481495738,-0.00036394369089975953,0.41512855887413025,0.002907233778387308,0.002954012481495738,-0.00036394369089975953
90151.041,-0.7360354065895081,-0.13792668282985687,0.40330877900123596,-1.1647833585739136,0.32970190048217773,0.7449353337287903,-0.08936813473701477,2.8345837593078613,151.5379180908203,-127.1002197265625,-52.07314682006836,68.00514221191406,1,0.4138500988483429,0.00340663967654109,0.002989500295370817,-0.00040411236113868654,0.4138500988483429,0.00340663967654109,0.002989500295370817,-0.00040411236113868654
90160.912,-0.746080756187439,-0.1335410475730896,0.4106004238128662,-1.1545504331588745,0.3315616548061371,0.7497369050979614,-1.3417339324951172,3.3634254932403564,152.21458435058594,-127.32637786865234,-50.62406921386719,66.13868713378906,1,0.4131806194782257,0.0015545142814517021,0.001757760881446302,-0.0003709244483616203,0.4131806194782257,0.0015545142814517021,0.001757760881446302,-0.0003709244483616203
90170.764,-0.7564063668251038,-0.1291944980621338,0.4182611107826233,-1.145987629890442,0.32910847663879395,0.7565872669219971,-2.664048433303833,3.8878002166748047,152.91250610351562,-114.47163391113281,-41.20720672607422,63.518646240234375,1,0.4119928479194641,-0.0012783568818122149,-5.839308141730726e-05,-0.0004083126550540328,0.4119928479194641,-0.0012783568818122149,-5.839308141730726e-05,-0.0004083126550540328
90180.623,-0.7648753523826599,-0.12379685789346695,0.42560875415802,-1.130752682685852,0.32909953594207764,0.7629648447036743,-3.797443151473999,4.320747375488281,153.57151794433594,-98.81639862060547,-26.607555389404297,63.62923812866211,1,0.4109129309654236,-0.00225281179882586,-0.0015141876647248864,-0.000388671993277967,0.4109129309654236,-0.00225281179882586,-0.0015141876647248864,-0.000388671993277967
90190.483,-0.7761081457138062,-0.11918306350708008,0.43413519859313965,-1.1221530437469482,0.32121360301971436,0.7703174948692322,-4.945578575134277,4.598761081695557,154.30715942382812,-90.29812622070312,-20.426774978637695,60.75196838378906,1,0.409580260515213,-0.0008486353908665478,5.903830970055424e-05,-0.0004946842091158032,0.409580260515213,-0.0008486353908665478,5.903830970055424e-05,-0.0004946842091158032
90200.353,-0.7859200239181519,-0.1136564388871193,0.4426957666873932,-1.1088120937347412,0.3139539659023285,0.7763336300849915,-5.9931135177612305,4.84623908996582,155.03355407714844,-94.27960205078125,-22.607187271118164,58.916839599609375,1,0.4085700809955597,0.0020840847864747047,0.0019768155179917812,-0.000501014175824821,0.4085700809955597,0.0020840847864747047,0.0019768155179917812,-0.000501014175824821
90210.206,-0.7942421436309814,-0.10854572057723999,0.45020008087158203,-1.0951216220855713,0.3073262870311737,0.7794195413589478,-6.953430652618408,5.075441360473633,155.65695190429688,-102.3036880493164,-28.656957626342773,55.657344818115234,1,0.4082818329334259,0.0034479342866688967,0.0031453229021281004,-0.0003763078711926937,0.4082818329334259,0.0034479342866688967,0.0031453229021281004,-0.0003763078711926937
90220.069,-0.8040868639945984,-0.10455145686864853,0.45809322595596313,-1.0879580974578857,0.29478371143341064,0.78279709815979,-8.03902816772461,5.333535671234131,156.27256774902344,-102.99102020263672,-31.760700225830078,53.39891052246094,1,0.40791624784469604,0.002321850974112749,0.0028081913478672504,-0.0003767219604924321,0.40791624784469604,0.002321850974112749,0.0028081913478672504,-0.0003767219604924321
90229.928,-0.812224268913269,-0.09967508167028427,0.4655681252479553,-1.0745857954025269,0.28490203619003296,0.7846291065216064,-9.04561996459961,5.6177473068237305,156.8599853515625,-91.70693969726562,-23.3136043548584,52.044124603271484,1,0.40793120861053467,-0.0002893845085054636,0.0003042247553821653,-0.00035696299164555967,0.40793120861053467,-0.0002893845085054636,0.0003042247553821653,-0.00035696299164555967
90239.8,-0.8229491710662842,-0.09567119181156158,0.4742601215839386,-1.0674465894699097,0.2667575776576996,0.7884702086448669,-10.075401306152344,5.782914161682129,157.4882354736328,-75.95214080810547,-10.014095306396484,50.67717361450195,1,0.407442182302475,-0.0014812808949500322,-0.0010910796700045466,-0.0004246995667926967,0.407442182302475,-0.0014812808949500322,-0.0010910796700045466,-0.0004246995667926967
90249.65,-0.8308097124099731,-0.09114159643650055,0.48161643743515015,-1.0539929866790771,0.25328099727630615,0.7892546653747559,-10.778133392333984,5.829258918762207,158.00889587402344,-61.31673049926758,0.6897066235542297,50.14728546142578,1,0.4077100157737732,-0.0016419426538050175,-0.0008842842071317136,-0.00030934030655771494,0.4077100157737732,-0.0016419426538050175,-0.0008842842071317136,-0.00030934030655771494
90259.508,-0.8402208089828491,-0.08776374161243439,0.4894866943359375,-1.0472722053527832,0.23437969386577606,0.7910251617431641,-11.42248249053955,5.7506842613220215,158.5218505859375,-58.68462371826172,3.5834507942199707,48.07577896118164,1,0.40773069858551025,0.0009281596867367625,0.000632322917226702,-0.00030679648625664413,0.40773069858551025,0.0009281596867367625,0.000632322917226702,-0.00030679648625664413
90269.376,-0.847970724105835,-0.08360928297042847,0.4967946708202362,-1.034853458404541,0.2190001904964447,0.7896122932434082,-12.000045776367188,5.6870527267456055,159.00148010253906,-63.83270263671875,-0.9864901900291443,47.59495544433594,1,0.40854278206825256,0.002897232538089156,0.002398149110376835,-0.0002823048271238804,0.40854278206825256,0.002897232538089156,0.002398149110376835,-0.0002823048271238804
90279.238,-0.8572503328323364,-0.08059888333082199,0.5046176910400391,-1.0292896032333374,0.1986217200756073,0.7893230319023132,-12.69534683227539,5.627152442932129,159.49517822265625,-67.59832763671875,-6.34712028503418,47.693111419677734,1,0.4090767502784729,0.003056442365050316,0.002756088972091675,-0.0003214086755178869,0.4090767502784729,0.003056442365050316,0.002756088972091675,-0.0003214086755178869
90289.094,-0.8662758469581604,-0.0778159350156784,0.5122683644294739,-1.0230621099472046,0.17716079950332642,0.7882359623908997,-13.400297164916992,5.630334854125977,159.9959716796875,-62.13203048706055,-5.716707229614258,47.135250091552734,1,0.4098101258277893,0.0012693237513303757,0.0015285438857972622,-0.0003474975819699466,0.4098101258277893,0.0012693237513303757,0.0015285438857972622,-0.0003474975819699466
90298.955,-0.8740232586860657,-0.07428256422281265,0.5196338891983032,-1.0124918222427368,0.15819919109344482,0.7864154577255249,-13.9832763671875,5.6108856201171875,160.48924255371094,-47.830753326416016,2.8033854961395264,46.73317337036133,1,0.4107280671596527,-0.0008617013227194548,-0.0003777806705329567,-0.000356253091013059,0.4107280671596527,-0.0008617013227194548,-0.0003777806705329567,-0.000356253091013059
90308.812,-0.8816025853157043,-0.07098634541034698,0.5267884731292725,-1.001997709274292,0.13843561708927155,0.78366619348526,-14.410858154296875,5.489380359649658,160.94007873535156,-30.96802520751953,13.760499954223633,45.87225341796875,1,0.41188040375709534,-0.001863739569671452,-0.0013093278976157308,-0.0003165576490573585,0.41188040375709534,-0.001863739569671452,-0.0013093278976157308,-0.0003165576490573585
90318.682,-0.8906072378158569,-0.0688444972038269,0.5345184803009033,-0.9973223805427551,0.11421159654855728,0.7830700278282166,-14.716263771057129,5.250581741333008,161.3705291748047,-21.52825927734375,20.481470108032227,45.02606964111328,1,0.41249969601631165,-0.0005276347510516644,-0.0007934684981592,-0.00030348359723575413,0.41249969601631165,-0.0005276347510516644,-0.0007934684981592,-0.00030348359723575413
90328.533,-0.8981049656867981,-0.06603437662124634,0.5416155457496643,-0.9874898791313171,0.09354157000780106,0.7790044546127319,-14.91477108001709,4.995610237121582,161.77731323242188,-22.948463439941406,16.975807189941406,44.298927307128906,1,0.41398537158966064,0.00187019188888371,0.0013733665691688657,-0.00028620928060263395,0.41398537158966064,0.00187019188888371,0.0013733665691688657,-0.00028620928060263395
90338.394,-0.9070385098457336,-0.06434015929698944,0.5492627024650574,-0.9841516613960266,0.06943609565496445,0.7767547369003296,-15.172858238220215,4.741752624511719,162.18197631835938,-28.23685073852539,9.223827362060547,43.53546142578125,1,0.4150241017341614,0.003080961061641574,0.002461865544319153,-0.0002953197108581662,0.4150241017341614,0.003080961061641574,0.002461865544319153,-0.0002953197108581662
90348.254,-0.9144951105117798,-0.062006134539842606,0.5562776923179626,-0.9753215312957764,0.04846927151083946,0.7716842889785767,-15.444621086120605,4.599038600921631,162.6005859375,-27.653234481811523,4.320918083190918,43.41458511352539,1,0.4167698323726654,0.0020539204124361277,0.002071825321763754,-0.0003295725618954748,0.4167698323726654,0.0020539204124361277,0.002071825321763754,-0.0003295725618954748
90358.123,-0.9233261942863464,-0.0608307346701622,0.563858687877655,-0.9722703099250793,0.022935042157769203,0.7697528004646301,-15.732361793518066,4.457884311676025,163.0281524658203,-18.290538787841797,8.264583587646484,42.5421028137207,1,0.4177401065826416,0.00014533747162204236,7.678206748096272e-05,-0.00035270352964289486,0.4177401065826416,0.00014533747162204236,7.678206748096272e-05,-0.00035270352964289486
90367.976,-0.9319859743118286,-0.05984700098633766,0.5712425708770752,-0.9691596031188965,-0.0022414654958993196,0.7674919366836548,-15.882489204406738,4.25565242767334,163.4156036376953,-2.019418716430664,15.786909103393555,42.19462203979492,1,0.4187954068183899,-0.0017006582347676158,-0.0010183302219957113,-0.00031685346039012074,0.4187954068183899,-0.0017006582347676158,-0.0010183302219957113,-0.00031685346039012074
90377.837,-0.9395675659179688,-0.05826091766357422,0.5783076286315918,-0.9623458981513977,-0.024592166766524315,0.7637667655944824,-15.856616020202637,3.9967105388641357,163.7928924560547,9.942965507507324,22.156818389892578,41.595157623291016,1,0.4202193319797516,-0.0011889929883182049,-0.001103661605156958,-0.000316025223582983,0.4202193319797516,-0.0011889929883182049,-0.001103661605156958,-0.000316025223582983
90387.698,-0.9481615424156189,-0.05778037756681442,0.585636556148529,-0.9596672654151917,-0.04987574741244316,0.7612323760986328,-15.748897552490234,3.6875758171081543,164.14163208007812,12.960748672485352,21.50210189819336,40.173038482666016,1,0.42135173082351685,0.0006382912979461253,0.0002355080214329064,-0.00028526276582852006,0.42135173082351685,0.0006382912979461253,0.0002355080214329064,-0.00028526276582852006
90397.565,-0.9557482004165649,-0.056758079677820206,0.5926366448402405,-0.9538773894309998,-0.07261601835489273,0.7567604184150696,-15.647988319396973,3.4145944118499756,164.49755859375,8.242919921875,14.547202110290527,39.50914764404297,1,0.42297127842903137,0.0025070314295589924,0.001714691985398531,-0.0003046076453756541,0.42297127842903137,0.0025070314295589924,0.001714691985398531,-0.0003046076453756541
90407.417,-0.9642915725708008,-0.05676894634962082,0.5999104976654053,-0.9516943097114563,-0.09728268533945084,0.7540691494941711,-15.577439308166504,3.2117114067077637,164.85862731933594,4.9480299949646,7.290957450866699,39.07834243774414,1,0.42415323853492737,0.002512354403734207,0.001986655406653881,-0.00032330170506611466,0.42415323853492737,0.002512354403734207,0.001986655406653881,-0.00032330170506611466
90417.279,-0.9718933701515198,-0.05624757334589958,0.6068593859672546,-0.9466819167137146,-0.11983633041381836,0.7498875856399536,-15.55061149597168,3.0736684799194336,165.2386016845703,9.552915573120117,3.5655744075775146,38.44626998901367,1,0.4257110357284546,0.0008775093592703342,0.0013806254137307405,-0.0003585010999813676,0.4257110357284546,0.0008775093592703342,0.0013806254137307405,-0.0003585010999813676
90427.14,-0.9793801307678223,-0.05591340735554695,0.6136516332626343,-0.9415236711502075,-0.14179472625255585,0.7458779215812683,-15.440402030944824,2.94697642326355,165.60504150390625,21.82204818725586,9.146952629089355,37.83168411254883,1,0.427232027053833,-0.0010426875669509172,-0.0007639493560418487,-0.000352940201992169,0.427232027053833,-0.0010426875669509172,-0.0007639493560418487,-0.000352940201992169
90437.01,-0.9880529046058655,-0.05667205899953842,0.6210167407989502,-0.9405778646469116,-0.16652727127075195,0.7458670139312744,-15.180870056152344,2.7537426948547363,165.95413208007812,35.79261016845703,13.755845069885254,37.09835433959961,1,0.42776161432266235,-0.0018284133402630687,-0.0008476675720885396,-0.0003410493372939527,0.42776161432266235,-0.0018284133402630687,-0.0008476675720885396,-0.0003410493372939527
90446.861,-0.9955246448516846,-0.05682312697172165,0.6278374195098877,-0.9351744055747986,-0.18802425265312195,0.7433826327323914,-14.80235481262207,2.5542802810668945,166.28428649902344,42.91691207885742,14.890532493591309,35.55446243286133,1,0.42890822887420654,-0.0006808761972934008,-0.00025744576123543084,-0.0003206396067980677,0.42890822887420654,-0.0006808761972934008,-0.00025744576123543084,-0.0003206396067980677
90456.72,-1.0041790008544922,-0.05806037411093712,0.6352027654647827,-0.93449467420578,-0.21167811751365662,0.7438569068908691,-14.369895935058594,2.3328745365142822,166.60467529296875,40.64115905761719,9.216824531555176,34.851043701171875,1,0.42932048439979553,0.001383367576636374,0.0012369010364636779,-0.00031720841070637107,0.42932048439979553,0.001383367576636374,0.0012369010364636779,-0.00031720841070637107
