timestamp,stateEstimate.x,stateEstimate.y,stateEstimate.z,stateEstimate.vx,stateEstimate.vy,stateEstimate.vz,stateEstimate.roll,stateEstimate.pitch,stateEstimate.yaw,gyro.x,gyro.y,gyro.z,ILBC.nominal_controller,ILBC.nominal_thrust,ILBC.nominal_torqueX,ILBC.nominal_torqueY,ILBC.nominal_torqueZ,ILBC.full_thrust,ILBC.full_torqueX,ILBC.full_torqueY,ILBC.full_torqueZ
137915.6,0.011766965501010418,0.015316391363739967,0.027004901319742203,-0.07474222034215927,0.05346279218792915,-0.0017952615162357688,-1.1290870904922485,1.2087651491165161,0.37871870398521423,0.11870110780000687,-0.25152406096458435,0.10561385750770569,1,0.19836726784706116,0.0010015543084591627,0.0012356105726212263,1.6150297597050667e-05,0.19836726784706116,0.0010015543084591627,0.0012356105726212263,1.6150297597050667e-05
137925.475,0.012014695443212986,0.015149394050240517,0.027012882754206657,-0.07406391203403473,0.05308094620704651,-0.001800665631890297,-1.1274492740631104,1.207385540008545,0.3789171278476715,0.15605279803276062,-0.09552087634801865,0.031160684302449226,1,0.19836726784706116,0.0010015543084591627,0.0012356105726212263,1.6150297597050667e-05,0.19836726784706116,0.0010015543084591627,0.0012356105726212263,1.6150297597050667e-05
137935.316,0.01176739763468504,0.015333267860114574,0.02700822427868843,-0.07482961565256119,0.053626395761966705,-0.001798159210011363,-1.1269736289978027,1.2071369886398315,0.37680619955062866,0.044897157698869705,0.005856433883309364,0.1902819126844406,1,0.19836726784706116,0.0010015543084591627,0.0012356105726212263,1.6150297597050667e-05,0.19836726784706116,0.0010015543084591627,0.0012356105726212263,1.6150297597050667e-05
137945.188,0.011532929725944996,0.015509175136685371,0.027003278955817223,-0.0754990205168724,0.054273489862680435,-0.0018476612167432904,-1.1260608434677124,1.2049671411514282,0.3769741356372833,-0.0215061753988266,0.4138251841068268,-0.09128507226705551,1,0.19836726784706116,0.0010015543084591627,0.0012356105726212263,1.6150297597050667e-05,0.19836726784706116,0.0010015543084591627,0.0012356105726212263,1.6150297597050667e-05
137955.039,0.011765027418732643,0.015351655893027782,0.027008939534425735,-0.07481531798839569,0.053698331117630005,-0.0018655890598893166,-1.124840259552002,1.201174020767212,0.3760470747947693,0.03476067632436752,0.2037799209356308,0.209485724568367,1,0.19836726784706116,0.0010015543084591627,0.0012356105726212263,1.6150297597050667e-05,0.19836726784706116,0.0010015543084591627,0.0012356105726212263,1.6150297597050667e-05
137964.909,0.012006745673716068,0.015185683034360409,0.02701452001929283,-0.07404270023107529,0.053080521523952484,-0.0018121985485777259,-1.130338191986084,1.2122408151626587,0.37736427783966064,-0.07167431712150574,-0.11855627596378326,-0.23746949434280396,1,0.19836726784706116,0.0010015543084591627,0.0012356105726212263,1.6150297597050667e-05,0.19836726784706116,0.0010015543084591627,0.0012356105726212263,1.6150297597050667e-05
137974.756,0.011756674386560917,0.015369766391813755,0.027008702978491783,-0.0748787596821785,0.05365729704499245,-0.0017728571547195315,-1.1289968490600586,1.2107007503509521,0.37547391653060913,0.06318138539791107,-0.03953996300697327,0.10018178820610046,1,0.19836726784706116,0.0010015543084591627,0.0012356105726212263,1.6150297597050667e-05,0.19836726784706116,0.0010015543084591627,0.0012356105726212263,1.6150297597050667e-05
137984.617,0.011519771069288254,0.01554508600383997,0.027004163712263107,-0.07569430768489838,0.05419425293803215,-0.0016595671186223626,-1.1284852027893066,1.2117165327072144,0.37550559639930725,0.08838099241256714,-0.31047770380973816,0.10226717591285706,1,0.19836726784706116,0.0010015543084591627,0.0012356105726212263,1.6150297597050667e-05,0.19836726784706116,0.0010015543084591627,0.0012356105726212263,1.6150297597050667e-05
137994.476,0.011677142232656479,0.01544036716222763,0.027010535821318626,-0.07530205696821213,0.053902361541986465,-0.0015596121083945036,-1.1282731294631958,1.2109642028808594,0.37509867548942566,0.029202863574028015,0.0714447945356369,0.07757743448019028,1,0.19836726784706116,0.0010015543084591627,0.0012356105726212263,1.6150297597050667e-05,0.19836726784706116,0.0010015543084591627,0.0012356105726212263,1.6150297597050667e-05
138004.389,0.0114409439265728,0.015610780566930771,0.027006281539797783,-0.07609438896179199,0.05443134158849716,-0.0016370635712519288,-1.126592755317688,1.2107324600219727,0.37404537200927734,0.1289062201976776,-0.08268540352582932,-0.07859742641448975,1,0.4756009876728058,0.005013417452573776,-0.005259894300252199,0.0019384496845304966,0.4756009876728058,0.005013417452573776,-0.005259894300252199,0.0019384496845304966
138014.24,0.011673967353999615,0.01544723380357027,0.02701280266046524,-0.07541901618242264,0.053986042737960815,-0.001736368634738028,-1.1266663074493408,1.2172205448150635,0.37602201104164124,0.23196209967136383,0.5210444927215576,5.065526008605957,1,0.47726473212242126,0.004225433338433504,-0.004511107690632343,0.0019384496845304966,0.47726473212242126,0.004225433338433504,-0.004511107690632343,0.0019384496845304966
138024.101,0.011809103190898895,0.01535885687917471,0.027013232931494713,-0.07442466169595718,0.05414756014943123,-0.002163686789572239,-1.1239982843399048,1.213936448097229,0.4030992388725281,-3.0898778438568115,2.1239399909973145,-2.3026411533355713,1,0.4790104329586029,0.00506019638851285,-0.004800976254045963,0.0019384496845304966,0.4790104329586029,0.00506019638851285,-0.004800976254045963,0.0019384496845304966
138033.962,0.011567962355911732,0.015535999089479446,0.027008535340428352,-0.07523734122514725,0.05426458269357681,-0.0010945305693894625,-1.144121766090393,1.1947184801101685,0.38822951912879944,3.9717721939086914,-4.327218055725098,0.9583679437637329,1,0.4803834855556488,0.002712536370381713,-0.002943527651950717,0.0019384496845304966,0.4803834855556488,0.002712536370381713,-0.002943527651950717,0.0019384496845304966
138043.83,0.01128727849572897,0.015730461105704308,0.0270135086029768,-0.07707051187753677,0.05371283367276192,2.400244966338505e-06,-1.1123305559158325,1.2230253219604492,0.39088568091392517,16.237651824951172,-16.719287872314453,-3.034271001815796,1,0.4817480444908142,0.0011756044114008546,-0.001259000040590763,0.0019384496845304966,0.4817480444908142,0.0011756044114008546,-0.001259000040590763,0.0019384496845304966
138053.682,0.011531203985214233,0.015543800778687,0.02704589068889618,-0.07608767598867416,0.05338665843009949,0.0021919342689216137,-0.9787667989730835,1.3746960163116455,0.36977630853652954,7.573546409606934,-9.973610877990723,3.056891918182373,1,0.48283839225769043,0.005285541992634535,-0.005285541992634535,0.0019384496845304966,0.48283839225769043,0.005285541992634535,-0.005285541992634535,0.0019384496845304966
138063.544,0.011242100968956947,0.01573081873357296,0.027093583717942238,-0.07710225880146027,0.05397900938987732,0.005170517601072788,-0.8686918616294861,1.4975659847259521,0.40599337220191956,-5.208443641662598,6.015618801116943,17.201309204101562,1,0.48372864723205566,0.005285541992634535,-0.005285541992634535,0.0019384496845304966,0.48372864723205566,0.005285541992634535,-0.005285541992634535,0.0019384496845304966
138073.411,0.01147346943616867,0.015529447235167027,0.027135802432894707,-0.07646448910236359,0.05304703488945961,-0.0004066558612976223,-0.9023715853691101,1.4723695516586304,0.5484206080436707,7.9884748458862305,-9.131505966186523,9.790820121765137,1,0.48674866557121277,0.001268839812837541,-0.0010142975952476263,0.0019384496845304966,0.48674866557121277,0.001268839812837541,-0.0010142975952476263,0.0019384496845304966
138083.274,0.01110147312283516,0.015765128657221794,0.027163803577423096,-0.07790902256965637,0.05371750146150589,0.004332192242145538,-0.8469329476356506,1.5388697385787964,0.6730875968933105,0.39473751187324524,0.7377555966377258,21.08104133605957,1,0.4872037470340729,0.005285541992634535,-0.005285541992634535,0.0019384496845304966,0.4872037470340729,0.005285541992634535,-0.005285541992634535,0.0019384496845304966
138093.129,0.011339551769196987,0.015550138428807259,0.027198776602745056,-0.07722639292478561,0.05274362117052078,-5.096860331832431e-05,-0.8435181379318237,1.5448614358901978,0.8732728958129883,-2.8129451274871826,3.7213499546051025,33.74090576171875,1,0.48992720246315,0.004931957460939884,-0.005216179881244898,0.0019384496845304966,0.48992720246315,0.004931957460939884,-0.005216179881244898,0.0019384496845304966
138102.984,0.01055376697331667,0.016084693372249603,0.027205027639865875,-0.07993938773870468,0.0541532076895237,0.0013019359903410077,-0.8672764897346497,1.5172734260559082,1.2039583921432495,8.618185043334961,-5.311694622039795,40.70774841308594,1,0.49122631549835205,0.001453536213375628,-0.0024571875110268593,0.0019384496845304966,0.49122631549835205,0.001453536213375628,-0.0024571875110268593,0.0019384496845304966
138112.847,0.01130794920027256,0.015466750599443913,0.027271129190921783,-0.07798503339290619,0.052015312016010284,0.009647254832088947,-0.7982349395751953,1.581302523612976,1.5885573625564575,19.739774703979492,-8.134188652038574,53.761661529541016,1,0.49077919125556946,0.0009233204764313996,-0.0036011759657412767,0.0019384496845304966,0.49077919125556946,0.0009233204764313996,-0.0036011759657412767,0.0019384496845304966
138122.716,0.011478515341877937,0.015262010507285595,0.02741960808634758,-0.07795076072216034,0.05086851119995117,0.01779193803668022,-0.6378044486045837,1.6374073028564453,2.130173444747925,24.89571189880371,-11.62169361114502,67.46437072753906,1,0.49036967754364014,0.0017122725257650018,-0.003333244938403368,0.0019384496845304966,0.49036967754364014,0.0017122725257650018,-0.003333244938403368,0.0019384496845304966
138132.567,0.011193670332431793,0.015401510521769524,0.027642332017421722,-0.07938378304243088,0.05065250024199486,0.02713705785572529,-0.41896378993988037,1.7417006492614746,2.7837345600128174,26.31482696533203,-20.377683639526367,85.10294342041016,1,0.4896486699581146,0.0021616732701659203,-0.0019114863825961947,0.0019384496845304966,0.4896486699581146,0.0021616732701659203,-0.0019114863825961947,0.0019384496845304966
138142.427,0.011318937875330448,0.015188001096248627,0.027982698753476143,-0.08001504838466644,0.04867510870099068,0.03842874988913536,-0.15704254806041718,1.9797475337982178,3.6519880294799805,30.833498001098633,-41.955631256103516,105.22850799560547,1,0.48842814564704895,0.0010118779027834535,0.0015862917061895132,0.0019384496845304966,0.48842814564704895,0.0010118779027834535,0.0015862917061895132,0.0019384496845304966
138152.286,0.011002249084413052,0.015312683768570423,0.028427932411432266,-0.08221349865198135,0.0475030355155468,0.05148954316973686,0.12332635372877121,2.4006989002227783,4.6737799644470215,39.11689376831055,-62.766239166259766,121.11660766601562,1,0.486749529838562,-0.0004702095175161958,0.0023613711819052696,0.0019384496845304966,0.486749529838562,-0.0004702095175161958,0.0023613711819052696,0.0019384496845304966
138162.158,0.010596889071166515,0.015413525514304638,0.029031436890363693,-0.08590937405824661,0.04518180340528488,0.0658687874674797,0.47279858589172363,3.0427801609039307,5.901945114135742,45.22392654418945,-77.66963958740234,139.96365356445312,1,0.4847226142883301,-0.0007581422687508166,0.0019184224074706435,0.0019384496845304966,0.4847226142883301,-0.0007581422687508166,0.0019184224074706435,0.0019384496845304966
138172.01,0.01066402904689312,0.015128294005990028,0.02975691296160221,-0.08868936449289322,0.04095149785280228,0.07895086705684662,0.8505010604858398,3.820953607559204,7.249994277954102,52.990943908691406,-88.70651245117188,162.0877227783203,1,0.4829978048801422,-0.001952296937815845,0.0017667940119281411,0.0019384496845304966,0.4829978048801422,-0.001952296937815845,0.0017667940119281411,0.0019384496845304966
138181.87,0.01015276275575161,0.015156345441937447,0.030624497681856155,-0.0948621928691864,0.03658138960599899,0.08954109251499176,1.2730019092559814,4.760990142822266,8.878532409667969,47.07558822631836,-92.1369857788086,181.98382568359375,1,0.4818752408027649,0.0004043963272124529,0.0005950610502623022,0.0019384496845304966,0.4818752408027649,0.0004043963272124529,0.0005950610502623022,0.0019384496845304966
138191.735,0.010073000565171242,0.014770220965147018,0.031570374965667725,-0.10047851502895355,0.029633590951561928,0.09966878592967987,1.6174776554107666,5.722076892852783,10.620209693908691,36.384422302246094,-85.54850769042969,204.028076171875,1,0.4808521866798401,0.0011199535802006721,-0.0014617627020925283,0.0019384496845304966,0.4808521866798401,0.0011199535802006721,-0.0014617627020925283,0.0019384496845304966
138201.603,0.009811664931476116,0.014319450594484806,0.03265461325645447,-0.10841923952102661,0.021025098860263824,0.10860076546669006,1.8209257125854492,6.682168006896973,12.657877922058105,26.348613739013672,-78.06971740722656,224.87759399414062,1,0.4801124334335327,0.0006487761856988072,-0.0017142081633210182,0.0019384496845304966,0.4801124334335327,0.0006487761856988072,-0.0017142081633210182,0.0019384496845304966
138211.454,0.00912540964782238,0.014149152673780918,0.03376759588718414,-0.11799043416976929,0.013169843703508377,0.11595240235328674,1.8380182981491089,7.52800178527832,14.828965187072754,18.160696029663086,-76.42816925048828,247.10791015625,1,0.4797535240650177,-0.00011952838394790888,-0.00040181539952754974,0.0019384496845304966,0.4797535240650177,-0.00011952838394790888,-0.00040181539952754974,0.0019384496845304966
138221.321,0.008250072598457336,0.013886699452996254,0.03499480336904526,-0.12954379618167877,0.004110576119273901,0.12224144488573074,1.7074646949768066,8.39896297454834,17.329090118408203,12.267817497253418,-73.85755920410156,269.4095153808594,1,0.47964873909950256,-0.0011356002651154995,-0.00048440450336784124,0.0016508797416463494,0.47964873909950256,-0.0011356002651154995,-0.00048440450336784124,0.0016508797416463494
138231.178,0.0077372342348098755,0.013189173303544521,0.03625167906284332,-0.14023320376873016,-0.007297999691218138,0.1278916597366333,1.4915432929992676,9.21985149383545,19.94188117980957,4.560598373413086,-73.57269287109375,289.69830322265625,1,0.4796940088272095,-0.0012760985409840941,0.0001621133997105062,0.0012580667389556766,0.4796940088272095,-0.0012760985409840941,0.0001621133997105062,0.0012580667389556766
138241.042,0.0066047897562384605,0.012725280597805977,0.037603821605443954,-0.15428510308265686,-0.018155980855226517,0.13367941975593567,1.0775892734527588,10.054474830627441,22.903100967407227,-5.826040267944336,-76.90625,305.45947265625,1,0.4796965718269348,-0.0011620547156780958,0.0012281904928386211,0.0005894562928006053,0.4796965718269348,-0.0011620547156780958,0.0012281904928386211,0.0005894562928006053
138250.894,0.0058039892464876175,0.01183628011494875,0.03898398205637932,-0.167537122964859,-0.031170770525932312,0.13893288373947144,0.5434353351593018,10.885013580322266,25.901447296142578,-18.3236141204834,-76.20365905761719,311.25048828125,1,0.4798237085342407,-0.0008325047674588859,0.0005879634991288185,0.0003767219604924321,0.4798237085342407,-0.0008325047674588859,0.0005879634991288185,0.0003767219604924321
138260.754,0.0043706586584448814,0.01114180963486433,0.04045689105987549,-0.18424221873283386,-0.04357857629656792,0.14497266709804535,-0.22915512323379517,11.693723678588867,29.12730598449707,-35.37594985961914,-73.10965728759766,310.2060852050781,1,0.47974693775177,0.0009426773176528513,0.00017824408132582903,-3.389787889318541e-05,0.47974693775177,0.0009426773176528513,0.00017824408132582903,-3.389787889318541e-05
138270.616,0.003248281544074416,0.010013174265623093,0.04197178781032562,-0.2003287672996521,-0.05833708494901657,0.15131373703479767,-1.127059817314148,12.42113971710205,32.22067642211914,-52.434654235839844,-65.06669616699219,305.99725341796875,1,0.47958603501319885,0.001835188246332109,-0.0009668733109720051,3.0762472306378186e-05,0.47958603501319885,0.001835188246332109,-0.0009668733109720051,3.0762472306378186e-05
138280.495,0.0014450838789343834,0.00908090639859438,0.043591052293777466,-0.2205330729484558,-0.07147715985774994,0.1589401662349701,-2.3307619094848633,13.021217346191406,35.430397033691406,-64.30146789550781,-55.269683837890625,297.998291015625,1,0.4790950417518616,0.0015475780237466097,-0.0015701609663665295,-0.00019179217633791268,0.4790950417518616,0.0015475780237466097,-0.0015701609663665295,-0.00019179217633791268
138290.343,-8.068694296525791e-05,0.007725178729742765,0.04528120532631874,-0.24059292674064636,-0.08685104548931122,0.16839133203029633,-3.568288564682007,13.479902267456055,38.447872161865234,-68.72586822509766,-50.83335876464844,293.4933166503906,1,0.4781375527381897,0.0005165045731700957,-0.0005571538931690156,-4.762267417390831e-05,0.4781375527381897,0.0005165045731700957,-0.0005571538931690156,-4.762267417390831e-05
138300.2,-0.001975308870896697,0.006279466208070517,0.04715830460190773,-0.26391053199768066,-0.10176775604486465,0.17958113551139832,-4.941436767578125,13.844930648803711,41.54428482055664,-68.730712890625,-53.31096649169922,288.39239501953125,1,0.4767322838306427,-4.87146717205178e-05,0.0010257504181936383,-0.0002395923074800521,0.4767322838306427,-4.87146717205178e-05,0.0010257504181936383,-0.0002395923074800521
138310.06,-0.004339856095612049,0.004973102826625109,0.04903288558125496,-0.28921887278556824,-0.11499106138944626,0.19087082147598267,-6.3072381019592285,14.120391845703125,44.49106216430664,-68.38957977294922,-62.47806930541992,285.45098876953125,1,0.47528547048568726,0.0001929230202222243,0.0028136756736785173,-0.0001565336569910869,0.47528547048568726,0.0001929230202222243,0.0028136756736785173,-0.0001565336569910869
138319.935,-0.00710979662835598,0.0035240291617810726,0.05110090225934982,-0.3175205588340759,-0.1281765103340149,0.20269933342933655,-7.738525390625,14.431108474731445,47.54935836791992,-69.69054412841797,-68.52130889892578,281.4016418457031,1,0.47368746995925903,0.0009196103783324361,0.002506708726286888,-0.0003949427918996662,0.47368746995925903,0.0009196103783324361,0.002506708726286888,-0.0003949427918996662
138329.782,-0.009663335978984833,0.0017210127552971244,0.05328355357050896,-0.3453635573387146,-0.1434001624584198,0.21448630094528198,-9.079126358032227,14.765419960021973,50.46708679199219,-67.91798400878906,-64.87914276123047,278.2903747558594,1,0.4720821976661682,0.0005508629255928099,0.0004916632897220552,-0.00032087622093968093,0.4720821976661682,0.0005508629255928099,0.0004916632897220552,-0.00032087622093968093
138339.642,-0.013034483417868614,1.1748750694096088e-05,0.0556022934615612,-0.37763410806655884,-0.15700045228004456,0.22588053345680237,-10.528167724609375,14.972463607788086,53.4754524230957,-64.01207733154297,-51.70565414428711,273.6138610839844,1,0.4705573618412018,0.00031309662153944373,-0.001909228041768074,-0.0005269256653264165,0.4705573618412018,0.00031309662153944373,-0.001909228041768074,-0.0005269256653264165
138349.513,-0.01621665246784687,-0.0020242955069988966,0.058030739426612854,-0.4092996120452881,-0.17279843986034393,0.2370649129152298,-11.819683074951172,15.035637855529785,56.3066291809082,-60.93448257446289,-36.64384460449219,267.8179931640625,1,0.4690679609775543,0.0006687782588414848,-0.002792221959680319,-0.00038470837171189487,0.4690679609775543,0.0006687782588414848,-0.002792221959680319,-0.00038470837171189487
138359.374,-0.020251620560884476,-0.0040137870237231255,0.06058504059910774,-0.4447184205055237,-0.18700915575027466,0.2473354935646057,-13.158775329589844,14.863725662231445,59.15594482421875,-58.37120056152344,-30.843189239501953,262.54547119140625,1,0.46778982877731323,0.0009946181671693921,-0.001095434883609414,-0.0004897149046882987,0.46778982877731323,0.0009946181671693921,-0.001095434883609414,-0.0004897149046882987
138369.229,-0.02412673830986023,-0.006276767700910568,0.06323088705539703,-0.47920292615890503,-0.20277349650859833,0.25677958130836487,-14.359090805053711,14.640287399291992,61.82440948486328,-57.537906646728516,-40.14848327636719,259.30120849609375,1,0.46670258045196533,0.0016030677361413836,0.002370404312387109,-0.00035418252809904516,0.46670258045196533,0.0016030677361413836,0.002370404312387109,-0.00035418252809904516
138379.09,-0.028863420709967613,-0.008561680093407631,0.06597965210676193,-0.5162287354469299,-0.21731141209602356,0.26412293314933777,-15.601086616516113,14.391335487365723,64.57618713378906,-54.93190002441406,-53.050350189208984,255.0591583251953,1,0.4661253094673157,0.0016285540768876672,0.003635211382061243,-0.0005434308550320566,0.4661253094673157,0.0016285540768876672,0.003635211382061243,-0.0005434308550320566
138388.952,-0.03343615308403969,-0.011067398823797703,0.06879495829343796,-0.5521681904792786,-0.23328249156475067,0.270580917596817,-16.732206344604492,14.277344703674316,67.22256469726562,-47.068817138671875,-54.172664642333984,251.6533660888672,1,0.46575793623924255,0.0008071796037256718,0.001346105826087296,-0.0004997127107344568,0.46575793623924255,0.0008071796037256718,0.001346105826087296,-0.0004997127107344568
138398.821,-0.0389288105070591,-0.013642862439155579,0.07168972492218018,-0.5920578241348267,-0.2489730268716812,0.2775469720363617,-17.846031188964844,14.091782569885254,69.92766571044922,-32.1080322265625,-42.86408996582031,247.43902587890625,1,0.4652542471885681,-0.0006386138848029077,-0.001611294224858284,-0.0006567195523530245,0.4652542471885681,-0.0006386138848029077,-0.001611294224858284,-0.0006567195523530245
138408.669,-0.04426683858036995,-0.016402365639805794,0.07464702427387238,-0.6305806040763855,-0.2662918269634247,0.2834323048591614,-18.723398208618164,13.837257385253906,72.46340942382812,-18.814668655395508,-28.437755584716797,243.7858123779297,1,0.46500977873802185,-0.0003156775492243469,-0.002844001166522503,-0.0005271030822768807,0.46500977873802185,-0.0003156775492243469,-0.002844001166522503,-0.0005271030822768807
138418.538,-0.05054153874516487,-0.0192884411662817,0.0776747390627861,-0.6716081500053406,-0.28333964943885803,0.2887422442436218,-19.4876766204834,13.35504150390625,74.99076843261719,-13.6691312789917,-18.781742095947266,237.43777465820312,1,0.46490010619163513,0.001640490721911192,-0.002370081841945648,-0.000578097824472934,0.46490010619163513,0.001640490721911192,-0.002370081841945648,-0.000578097824472934
138428.391,-0.05663273483514786,-0.02232910506427288,0.08074627816677094,-0.7103114128112793,-0.30167248845100403,0.292984277009964,-20.08252716064453,12.849859237670898,77.33116149902344,-11.258398056030273,-19.982898712158203,232.6741943359375,1,0.4650488793849945,0.0025601014494895935,-0.00010646253213053569,-0.00041044235695153475,0.4650488793849945,0.0025601014494895935,-0.00010646253213053569,-0.00041044235695153475
138438.263,-0.06370449811220169,-0.025533072650432587,0.08386707305908203,-0.7513319253921509,-0.3192857503890991,0.2963889241218567,-20.681350708007812,12.267509460449219,79.69354248046875,-6.006595611572266,-29.983814239501953,228.09530639648438,1,0.46540021896362305,0.0022658775560557842,0.00265801465138793,-0.0005047411541454494,0.46540021896362305,0.0022658775560557842,0.00265801465138793,-0.0005047411541454494
138448.11,-0.07056326419115067,-0.02881759963929653,0.0870160460472107,-0.7903225421905518,-0.3376823663711548,0.2997421622276306,-21.150753021240234,11.841349601745605,81.95092010498047,6.188464641571045,-36.79286575317383,224.3723907470703,1,0.46575936675071716,0.0008210519445128739,0.0028794887475669384,-0.0004428612592164427,0.46575936675071716,0.0008210519445128739,0.0028794887475669384,-0.0004428612592164427
138457.97,-0.07842075824737549,-0.03236823529005051,0.0902138203382492,-0.8313611745834351,-0.3567059636116028,0.3029341697692871,-21.51586151123047,11.405569076538086,84.27468872070312,23.602901458740234,-31.418140411376953,220.67820739746094,1,0.46615374088287354,-0.0004929538117721677,0.0008005659910850227,-0.0005970285856164992,0.46615374088287354,-0.0004929538117721677,0.0008005659910850227,-0.0005970285856164992
138467.835,-0.08602626621723175,-0.03597819060087204,0.09343455731868744,-0.8697340488433838,-0.3769340515136719,0.3058665990829468,-21.629562377929688,11.009684562683105,86.46414947509766,42.939178466796875,-17.32989501953125,217.6092071533203,1,0.46660807728767395,-0.0013007784727960825,-0.0009641310898587108,-0.0005005408893339336,0.46660807728767395,-0.0013007784727960825,-0.0009641310898587108,-0.0005005408893339336
138477.706,-0.09465251863002777,-0.03989327698945999,0.09670740365982056,-0.9096015691757202,-0.3974040448665619,0.308916300535202,-21.562015533447266,10.403684616088867,88.63289642333984,55.03495407104492,-0.8193536996841431,213.28536987304688,1,0.46702879667282104,-2.419603106318391e-06,-0.0016296833055093884,-0.0005355036701075733,0.46702879667282104,-2.419603106318391e-06,-0.0016296833055093884,-0.0005355036701075733
138487.552,-0.10297378897666931,-0.04381623864173889,0.09999033808708191,-0.9459437131881714,-0.4184865951538086,0.31145137548446655,-21.3010311126709,9.771502494812012,90.63461303710938,59.82362747192383,7.280831336975098,209.27499389648438,1,0.4675733745098114,0.0015312860487028956,0.00016888829122763127,-0.00038370268885046244,0.4675733745098114,0.0015312860487028956,0.00016888829122763127,-0.00038370268885046244
138497.423,-0.11233091354370117,-0.04813038930296898,0.1033337414264679,-0.9834980368614197,-0.4398523271083832,0.31508323550224304,-20.990659713745117,8.994353294372559,92.6403579711914,59.6821174621582,10.902871131896973,205.9038848876953,1,0.4678405821323395,0.0027835110668092966,0.0013052952708676457,-0.00044925036490894854,0.4678405821323395,0.0027835110668092966,0.0013052952708676457,-0.00044925036490894854
138507.28,-0.12275581061840057,-0.05303370952606201,0.1072438433766365,-1.0219357013702393,-0.4638569951057434,0.3200465738773346,-20.58814811706543,8.148016929626465,94.82725524902344,64.47042846679688,13.252546310424805,203.59788513183594,1,0.4677702486515045,0.0018416405655443668,0.0018608360551297665,-0.0007501901127398014,0.4677702486515045,0.0018416405655443668,0.0018608360551297665,-0.0007501901127398014
138517.146,-0.13277924060821533,-0.057675957679748535,0.11065151542425156,-1.0569992065429688,-0.4840342700481415,0.32462310791015625,-20.144887924194336,7.3512163162231445,96.72737884521484,78.32098388671875,20.03219223022461,199.1650390625,1,0.46778905391693115,-0.00034326096647419035,0.0009970377432182431,-0.0004424471117090434,0.46778905391693115,-0.00034326096647419035,0.0009970377432182431,-0.0004424471117090434
138527.003,-0.14271104335784912,-0.0624019131064415,0.11430953443050385,-1.0884735584259033,-0.5051398873329163,0.3314307630062103,-19.476306915283203,6.566005706787109,98.5910873413086,98.23433685302734,34.68255615234375,193.61993408203125,1,0.4672444760799408,-0.0022479724138975143,-0.0008973501389846206,-0.00043629464926198125,0.4672444760799408,-0.0022479724138975143,-0.0008973501389846206,-0.00043629464926198125
138536.869,-0.15333575010299683,-0.06739011406898499,0.11784926056861877,-1.1206891536712646,-0.5245305895805359,0.33848777413368225,-18.61298370361328,5.6187005043029785,100.3301010131836,112.3735580444336,53.27311325073242,191.82139587402344,1,0.4666275978088379,-0.001584678771905601,-0.0022529729176312685,-0.00034175923792645335,0.4666275978088379,-0.001584678771905601,-0.0022529729176312685,-0.00034175923792645335
138546.716,-0.1633995622396469,-0.0720357671380043,0.12132354080677032,-1.1490556001663208,-0.5413262248039246,0.34401971101760864,-17.621536254882812,4.634718418121338,101.91012573242188,118.00318145751953,65.63318634033203,188.97381591796875,1,0.46638059616088867,-9.113838314078748e-05,-0.0013777220156043768,-0.00019043154316022992,0.46638059616088867,-9.113838314078748e-05,-0.0013777220156043768,-0.00019043154316022992
138556.586,-0.17459282279014587,-0.07732770591974258,0.12499889731407166,-1.1773818731307983,-0.5584146976470947,0.3515761196613312,-16.530210494995117,3.4863381385803223,103.55316925048828,114.64118194580078,69.80071258544922,188.14373779296875,1,0.46562036871910095,0.0018382529960945249,0.00017872800526674837,-0.00033193890703842044,0.46562036871910095,0.0018382529960945249,0.00017872800526674837,-0.00033193890703842044
138566.437,-0.1867561638355255,-0.08304634690284729,0.1293216496706009,-1.2040292024612427,-0.5751649141311646,0.3615245521068573,-15.297747611999512,2.260611057281494,105.39041900634766,111.65635681152344,65.88552856445312,187.84324645996094,1,0.464252233505249,0.0018211546121165156,0.0020287565421313047,-0.000648555695079267,0.464252233505249,0.0018211546121165156,0.0020287565421313047,-0.000648555695079267
138576.301,-0.1983899623155594,-0.08852029591798782,0.1331314742565155,-1.2285133600234985,-0.587786078453064,0.36995166540145874,-14.206621170043945,1.1852086782455444,107.04878997802734,115.7778549194336,65.84263610839844,185.57322692871094,1,0.4632487893104553,0.0001656621607253328,0.0012788408203050494,-0.0004800720198545605,0.4632487893104553,0.0001656621607253328,0.0012788408203050494,-0.0004800720198545605
138586.161,-0.2109297215938568,-0.0942680761218071,0.13757170736789703,-1.25156569480896,-0.5989083647727966,0.3811770975589752,-12.873861312866211,0.057635121047496796,108.85380554199219,128.2480010986328,73.02467346191406,180.61416625976562,1,0.4615347981452942,-0.00215151091106236,-0.0004619828541763127,-0.0007032182184047997,0.4615347981452942,-0.00215151091106236,-0.0004619828541763127,-0.0007032182184047997
138596.04,-0.22293522953987122,-0.09983311593532562,0.1415412724018097,-1.272751808166504,-0.6071486473083496,0.39160653948783875,-11.531000137329102,-1.0453166961669922,110.44329071044922,141.589599609375,85.5131607055664,177.3297119140625,1,0.4600026309490204,-0.0030282139778137207,-0.0020876333583146334,-0.00047912547597661614,0.4600026309490204,-0.0030282139778137207,-0.0020876333583146334,-0.00047912547597661614
138605.898,-0.23446039855480194,-0.10495273023843765,0.14572948217391968,-1.289398193359375,-0.6123166680335999,0.4029880464076996,-10.036738395690918,-2.1633808612823486,111.99822235107422,145.0253143310547,93.98506164550781,171.77076721191406,1,0.45821744203567505,-0.0014098219107836485,-0.0017103366553783417,-0.00046226527774706483,0.45821744203567505,-0.0014098219107836485,-0.0017103366553783417,-0.00046226527774706483
138615.758,-0.24677520990371704,-0.1105332225561142,0.14992259442806244,-1.306579828262329,-0.6152515411376953,0.4141126871109009,-8.523953437805176,-3.330406904220581,113.5265121459961,137.8496856689453,90.94498443603516,168.36029052734375,1,0.45647943019866943,0.0007645945297554135,0.0005979645648039877,-0.00046936431317590177,0.45647943019866943,0.0007645945297554135,0.0005979645648039877,-0.00046936431317590177
138625.609,-0.2585431933403015,-0.11550106853246689,0.1543143093585968,-1.3193875551223755,-0.6138579249382019,0.4247601330280304,-7.087007999420166,-4.382339954376221,115.05294799804688,125.60999298095703,83.58206939697266,164.70556640625,1,0.4548439085483551,0.002001172862946987,0.0016253279754891992,-0.00050545105477795,0.4548439085483551,0.002001172862946987,0.0016253279754891992,-0.00050545105477795
138635.474,-0.27110353112220764,-0.1209881529211998,0.15870964527130127,-1.3331011533737183,-0.6111195087432861,0.43520352244377136,-5.720266819000244,-5.338585376739502,116.59387969970703,121.3936767578125,76.56783294677734,162.8018341064453,1,0.4532434046268463,0.00028454529820010066,0.0016980774234980345,-0.0005749624106101692,0.4532434046268463,0.00028454529820010066,0.0016980774234980345,-0.0005749624106101692
138645.322,-0.2830165922641754,-0.1257164478302002,0.1633177399635315,-1.3425095081329346,-0.6039127707481384,0.44601327180862427,-4.335875988006592,-6.192429542541504,118.13398742675781,127.32308197021484,77.74707794189453,159.40460205078125,1,0.45153599977493286,-0.0023205606266856194,-0.00014953146455809474,-0.0006148352986201644,0.45153599977493286,-0.0023205606266856194,-0.00014953146455809474,-0.0006148352986201644
138655.186,-0.28226929903030396,-0.12500466406345367,0.16342496871948242,-1.3397196531295776,-0.6015990972518921,0.44619718194007874,-4.330613136291504,-6.172504901885986,118.12576293945312,135.80335998535156,85.4287338256836,155.6174774169922,1,0.4524631202220917,-0.003204844892024994,-0.0017700201133266091,0.0013369843363761902,0.4524631202220917,-0.003204844892024994,-0.0017700201133266091,0.0013369843363761902
138665.047,-0.3077319860458374,-0.13535882532596588,0.17277859151363373,-1.3594797849655151,-0.5827816724777222,0.4685339033603668,-1.2764543294906616,-7.974185466766357,121.18135833740234,136.2755889892578,91.55487060546875,157.68418884277344,1,0.44786396622657776,-0.0023591129574924707,-0.0020987638272345066,-0.0019384496845304966,0.44786396622657776,-0.0023591129574924707,-0.0020987638272345066,-0.0019384496845304966
138674.917,-0.306947261095047,-0.13457047939300537,0.17287807166576385,-1.356711983680725,-0.5802096128463745,0.4685713052749634,-1.2790570259094238,-7.960561275482178,121.17418670654297,125.83636474609375,89.14390563964844,168.18106079101562,1,0.4487941265106201,0.00023276581487152725,-0.0002839000662788749,0.001117683365009725,0.4487941265106201,0.00023276581487152725,-0.0002839000662788749,0.001117683365009725
138684.768,-0.3325938582420349,-0.14423024654388428,0.18265056610107422,-1.3707256317138672,-0.5500982403755188,0.4880236089229584,1.7561697959899902,-9.691107749938965,124.45516204833984,106.902099609375,77.37115478515625,152.3247528076172,1,0.4448812007904053,0.001847124774940312,0.0013344917679205537,-0.0019384496845304966,0.4448812007904053,0.001847124774940312,0.0013344917679205537,-0.0019384496845304966
138694.628,-0.3317538797855377,-0.14336854219436646,0.18275094032287598,-1.367690920829773,-0.5472744703292847,0.4881744384765625,1.7565151453018188,-9.675026893615723,124.44784545898438,91.54106903076172,67.78147888183594,160.3976287841797,1,0.44575411081314087,0.0017150145722553134,0.0012835186207666993,0.0010344472248107195,0.44575411081314087,0.0017150145722553134,0.0012835186207666993,0.0010344472248107195
138704.485,-0.3574927747249603,-0.1520991027355194,0.19290661811828613,-1.3776483535766602,-0.5057996511459351,0.5071318745613098,4.239358901977539,-10.88440227508545,127.65581512451172,90.41696166992188,59.78058624267578,143.50328063964844,1,0.4419354498386383,-0.0019495548913255334,0.00027131816023029387,-0.0019384496845304966,0.4419354498386383,-0.0019495548913255334,0.00027131816023029387,-0.0019384496845304966
138714.357,-0.3566097319126129,-0.1511593759059906,0.1930132508277893,-1.374484658241272,-0.5025742053985596,0.5073845982551575,4.242909908294678,-10.875102043151855,127.64896392822266,97.92780303955078,56.184810638427734,151.75514221191406,1,0.4427544176578522,-0.004032994154840708,-0.0004747261118609458,0.0009595524170435965,0.4427544176578522,-0.004032994154840708,-0.0004747261118609458,0.0009595524170435965
138724.213,-0.3823637366294861,-0.15875506401062012,0.20358476042747498,-1.3814135789871216,-0.45160114765167236,0.5276492238044739,6.783254146575928,-11.709793090820312,130.72183227539062,100.06088256835938,53.04896926879883,135.99517822265625,1,0.4385811984539032,-0.003991054370999336,-0.001359171699732542,-0.0019384496845304966,0.4385811984539032,-0.003991054370999336,-0.001359171699732542,-0.0019384496845304966
138734.07,-0.3952472507953644,-0.16210082173347473,0.2090214490890503,-1.3836398124694824,-0.4230191707611084,0.5369778871536255,8.064543724060059,-12.038026809692383,132.2156524658203,89.21531677246094,48.32643508911133,143.63763427734375,1,0.437105655670166,-0.0014616015832871199,-0.0012840026756748557,-0.001041546231135726,0.437105655670166,-0.0014616015832871199,-0.0012840026756748557,-0.001041546231135726
138743.939,-0.4071391224861145,-0.1640646755695343,0.21466626226902008,-1.3815020322799683,-0.3891942501068115,0.5457450747489929,9.181967735290527,-12.26762866973877,133.63409423828125,64.0006103515625,38.283023834228516,121.59970092773438,1,0.4357563853263855,0.0019201970426365733,-0.0002042145060840994,-0.0008515288354828954,0.4357563853263855,0.0019201970426365733,-0.0002042145060840994,-0.0008515288354828954
138753.804,-0.41996487975120544,-0.1666991114616394,0.22028616070747375,-1.381963849067688,-0.35682931542396545,0.553446888923645,10.00323486328125,-12.369243621826172,134.86849975585938,38.05244827270508,17.402280807495117,111.90853881835938,1,0.4346597492694855,0.0026759197935462,0.0024860615376383066,-0.0006063756300136447,0.4346597492694855,0.0026759197935462,0.0024860615376383066,-0.0006063756300136447
138763.663,-0.43174999952316284,-0.16785450279712677,0.22611136734485626,-1.3784613609313965,-0.31955617666244507,0.5615357756614685,10.57797622680664,-12.273055076599121,135.97900390625,25.058774948120117,-1.7703747749328613,104.19647979736328,1,0.4334551692008972,0.00017130789638031274,0.0026476909406483173,-0.0004445768427103758,0.4334551692008972,0.00017130789638031274,0.0026476909406483173,-0.0004445768427103758
138773.517,-0.4307422339916229,-0.1667378693819046,0.22623933851718903,-1.3749393224716187,-0.3156556487083435,0.5620875954627991,10.583941459655762,-12.269268989562988,135.97447204589844,27.99938201904297,-9.608465194702148,100.17904663085938,1,0.4341185986995697,-0.0032079096417874098,0.0006747465813532472,0.000970082706771791,0.4341185986995697,-0.0032079096417874098,0.0006747465813532472,0.000970082706771791
138783.38,-0.45617011189460754,-0.17009161412715912,0.23790255188941956,-1.3735252618789673,-0.24695120751857758,0.5777277946472168,11.562081336975098,-11.728025436401367,137.9611053466797,34.80667495727539,-8.399481773376465,102.22715759277344,1,0.43101751804351807,-0.00499889999628067,-0.0015906469197943807,-0.0016026656376197934,0.43101751804351807,-0.00499889999628067,-0.0015906469197943807,-0.0016026656376197934
138793.255,-0.4688185751438141,-0.1712093949317932,0.24386392533779144,-1.3718652725219727,-0.2122962474822998,0.5848317742347717,12.129505157470703,-11.43906307220459,139.01878356933594,30.036287307739258,-3.0440056324005127,110.46617889404297,1,0.4300224184989929,-0.0028920709155499935,-0.0028333552181720734,-0.0005518313846550882,0.4300224184989929,-0.0028920709155499935,-0.0028333552181720734,-0.0005518313846550882
138803.099,-0.4803093671798706,-0.17075149714946747,0.25005215406417847,-1.365541696548462,-0.17356786131858826,0.5917879939079285,12.573406219482422,-11.137617111206055,140.02052307128906,5.365758419036865,-11.246051788330078,92.38475799560547,1,0.4290536642074585,0.0016882375348359346,6.339359970297664e-05,-0.0003963034541811794,0.4290536642074585,0.0016882375348359346,6.339359970297664e-05,-0.0003963034541811794
138812.958,-0.479229211807251,-0.1695607602596283,0.25019052624702454,-1.3618035316467285,-0.16950513422489166,0.5925585031509399,12.577507019042969,-11.131264686584473,140.0168914794922,-26.655614852905273,-29.027250289916992,88.8971939086914,1,0.4296175539493561,0.004413194488734007,0.002710439497604966,0.0008782685035839677,0.4296175539493561,0.004413194488734007,0.002710439497604966,0.0008782685035839677
138822.826,-0.5042098760604858,-0.1698439121246338,0.26241621375083923,-1.3561824560165405,-0.10060083866119385,0.6016350984573364,12.487637519836426,-10.211578369140625,141.67625427246094,-47.84611129760742,-47.85066223144531,90.26274108886719,1,0.4281083941459656,0.002577361185103655,0.003493745345622301,-0.0012680053478106856,0.4281083941459656,0.002577361185103655,0.003493745345622301,-0.0012680053478106856
138832.7,-0.5166081190109253,-0.16942964494228363,0.268618106842041,-1.3529857397079468,-0.06688392907381058,0.6071706414222717,12.153621673583984,-9.486412048339844,142.50729370117188,-47.82963562011719,-58.38748550415039,98.80171966552734,1,0.4274689853191376,-0.001895355642773211,0.0022328095510601997,-0.00033466017339378595,0.4274689853191376,-0.001895355642773211,0.0022328095510601997,-0.00033466017339378595
138842.549,-0.5277794599533081,-0.1674005538225174,0.27505847811698914,-1.345310926437378,-0.02985791675746441,0.6154145002365112,11.873727798461914,-8.704142570495605,143.3042449951172,-32.80872344970703,-53.289920806884766,87.24618530273438,1,0.42614585161209106,-0.005285541992634535,-0.0011078555835410953,-0.0002438517549308017,0.42614585161209106,-0.005285541992634535,-0.0011078555835410953,-0.0002438517549308017
138852.409,-0.5400446057319641,-0.16628706455230713,0.2814120054244995,-1.3413300514221191,0.001645657466724515,0.6232223510742188,11.707808494567871,-8.0211763381958,144.05751037597656,-23.56260108947754,-44.51287841796875,87.05358123779297,1,0.42491912841796875,-0.005214889533817768,-0.0021999028977006674,-0.00021995166025590152,0.42491912841796875,-0.005214889533817768,-0.0021999028977006674,-0.00021995166025590152
138862.271,-0.5510315299034119,-0.16355782747268677,0.28801679611206055,-1.3324311971664429,0.03633055090904236,0.6313504576683044,11.573246002197266,-7.400674343109131,144.81845092773438,-35.656715393066406,-42.66377258300781,85.45864868164062,1,0.4236009418964386,-0.0007026527309790254,-0.0008708958048373461,-0.00025030001415871084,0.4236009418964386,-0.0007026527309790254,-0.0008708958048373461,-0.00025030001415871084
138872.139,-0.5631216764450073,-0.1617702841758728,0.2945215702056885,-1.3272809982299805,0.06556201726198196,0.6369960904121399,11.229473114013672,-6.773919105529785,145.55703735351562,-63.84771728515625,-52.068443298339844,83.91016387939453,1,0.4228898882865906,0.003495197044685483,0.0017951841000467539,-0.00024266856780741364,0.4228898882865906,0.003495197044685483,0.0017951841000467539,-0.00024266856780741364
138881.993,-0.5739060044288635,-0.15839774906635284,0.30124568939208984,-1.3174114227294922,0.0976833924651146,0.6435725092887878,10.574878692626953,-6.012857913970947,146.2576446533203,-95.52106475830078,-67.41519165039062,82.5608139038086,1,0.4219382405281067,0.005285541992634535,0.0036873137578368187,-0.00021545561321545392,0.4219382405281067,0.005285541992634535,0.0036873137578368187,-0.00021545561321545392
138891.848,-0.5727094411849976,-0.1571437120437622,0.3013923466205597,-1.3131667375564575,0.10192988812923431,0.6447564363479614,10.584692001342773,-5.999154090881348,146.25559997558594,-108.56459045410156,-76.22825622558594,80.93067169189453,1,0.42232194542884827,0.0020624694880098104,0.0027375388890504837,0.0006696161581203341,0.42232194542884827,0.0020624694880098104,0.0027375388890504837,0.0006696161581203341
138901.709,-0.5845884084701538,-0.15332628786563873,0.3087216317653656,-1.302615761756897,0.13527487218379974,0.6519936323165894,9.5757474899292,-5.036680698394775,146.99156188964844,-98.10108947753906,-74.81876373291016,82.84064483642578,1,0.421193927526474,-0.003161614527925849,0.0007486251997761428,-0.00029182934667915106,0.421193927526474,-0.003161614527925849,0.0007486251997761428,-0.00029182934667915106
138911.579,-0.5963159799575806,-0.15060533583164215,0.3153816759586334,-1.2963908910751343,0.15952371060848236,0.6596599817276001,8.59872817993164,-4.135776519775391,147.6646728515625,-81.94245147705078,-64.97781372070312,91.69918823242188,1,0.41994813084602356,-0.004968089982867241,-0.001217544311657548,-0.0003050217346753925,0.41994813084602356,-0.004968089982867241,-0.001217544311657548,-0.0003050217346753925
138921.426,-0.6066867113113403,-0.1464056819677353,0.322231262922287,-1.2850894927978516,0.18583782017230988,0.6693374514579773,7.7822370529174805,-3.2655043601989746,148.4210662841797,-78.29830932617188,-55.98712921142578,88.98884582519531,1,0.41818922758102417,-0.0026768874377012253,-0.0012669040588662028,-0.0004212683707010001,0.41818922758102417,-0.0026768874377012253,-0.0012669040588662028,-0.0004212683707010001
138931.289,-0.6182361245155334,-0.14322234690189362,0.32905736565589905,-1.278308391571045,0.20553120970726013,0.6775606870651245,7.052875995635986,-2.5331203937530518,149.2316131591797,-94.60719299316406,-57.58979797363281,85.96170806884766,1,0.41677871346473694,0.0020274659618735313,0.0010428488021716475,-0.0005014282651245594,0.41677871346473694,0.0020274659618735313,0.0010428488021716475,-0.0005014282651245594
138941.157,-0.6301964521408081,-0.1384674608707428,0.33710071444511414,-1.267824649810791,0.22685189545154572,0.688241183757782,6.141442775726318,-1.7253495454788208,150.1418914794922,-121.01982116699219,-69.46737670898438,81.8862533569336,1,0.41474294662475586,0.005239731166511774,0.00373860914260149,-0.0006350083276629448,0.41474294662475586,0.005239731166511774,0.00373860914260149,-0.0006350083276629448
138951.027,-0.6414692401885986,-0.1348709762096405,0.3440219759941101,-1.2600876092910767,0.24293553829193115,0.6939406991004944,5.07736873626709,-0.9824867844581604,150.89256286621094,-138.2379913330078,-77.5170669555664,76.03099060058594,1,0.4139338433742523,0.004267534241080284,0.003436481347307563,-0.00042694760486483574,0.4139338433742523,0.004267534241080284,0.003436481347307563,-0.00042694760486483574
138960.868,-0.6518639922142029,-0.1300017535686493,0.3514394760131836,-1.2489522695541382,0.2584863305091858,0.7031732797622681,3.7520229816436768,-0.08942782133817673,151.63153076171875,-133.33261108398438,-74.71984100341797,70.44269561767578,1,0.412234902381897,-0.00016888829122763127,0.001342718256637454,-0.0004040532512590289,0.412234902381897,-0.00016888829122763127,0.001342718256637454,-0.0004040532512590289
138970.729,-0.6629283428192139,-0.1261434257030487,0.35848817229270935,-1.2406445741653442,0.26937782764434814,0.7111316919326782,2.420666217803955,0.7365373373031616,152.29962158203125,-114.42571258544922,-61.91825866699219,67.40495300292969,1,0.41084009408950806,-0.003488906193524599,-0.0009970377432182431,-0.0003227101406082511,0.41084009408950806,-0.003488906193524599,-0.0009970377432182431,-0.0003227101406082511
138980.593,-0.6730893850326538,-0.12107357382774353,0.36602944135665894,-1.22874915599823,0.27924472093582153,0.7225779294967651,1.1982159614562988,1.516890525817871,152.9862060546875,-96.13692474365234,-48.4534912109375,66.19062042236328,1,0.40856340527534485,-0.0038887858390808105,-0.001468053786084056,-0.00036613256088458,0.40856340527534485,-0.0038887858390808105,-0.001468053786084056,-0.00036613256088458
138990.461,-0.683948278427124,-0.11705867946147919,0.373225599527359,-1.2199995517730713,0.28464388847351074,0.7306169271469116,0.20284730195999146,2.0740902423858643,153.6377410888672,-95.34423828125,-44.89728927612305,64.03926849365234,1,0.40711960196495056,-0.00018856771930586547,0.0005373131716623902,-0.0003348967875353992,0.40711960196495056,-0.00018856771930586547,0.0005373131716623902,-0.0003348967875353992
139000.313,-0.6938799619674683,-0.11186286807060242,0.3808614909648895,-1.2076250314712524,0.2903274595737457,0.7399695515632629,-0.7453246712684631,2.6049916744232178,154.3128662109375,-111.31632232666016,-51.32952117919922,60.95496368408203,1,0.4053362011909485,0.004001539666205645,0.0029777248855680227,-0.0003709244483616203,0.4053362011909485,0.004001539666205645,0.0029777248855680227,-0.0003709244483616203
139010.17,-0.7045238614082336,-0.10778219997882843,0.3881652057170868,-1.1986356973648071,0.29181137681007385,0.7442889213562012,-1.7768150568008423,3.0961599349975586,154.93734741210938,-128.6324462890625,-59.89216613769531,59.87400436401367,1,0.4047943353652954,0.005206501577049494,0.003908142913132906,-0.0003267920983489603,0.4047943353652954,0.005206501577049494,0.003908142913132906,-0.0003267920983489603
139020.036,-0.7142512202262878,-0.10260754823684692,0.39583298563957214,-1.1863304376602173,0.29319387674331665,0.7503853440284729,-3.0394952297210693,3.726958751678467,155.59605407714844,-131.92617797851562,-59.82707595825195,57.960052490234375,1,0.40380287170410156,0.002779962494969368,0.002375404816120863,-0.00038370268885046244,0.40380287170410156,0.002779962494969368,0.002375404816120863,-0.00038370268885046244
139029.903,-0.7246794700622559,-0.09854511171579361,0.40319570899009705,-1.1770209074020386,0.29020729660987854,0.7543646097183228,-4.351833820343018,4.318726062774658,156.214111328125,-114.64640808105469,-48.039546966552734,56.563026428222656,1,0.40333038568496704,-0.0017406624974682927,-0.0002674467978067696,-0.00034944983781315386,0.40333038568496704,-0.0017406624974682927,-0.0002674467978067696,-0.00034944983781315386
139039.751,-0.7353044152259827,-0.09316188097000122,0.41159579157829285,-1.1637781858444214,0.28575119376182556,0.761940062046051,-5.710580825805664,4.909150123596191,156.91293334960938,-91.60877227783203,-30.76280975341797,55.14598846435547,1,0.40195488929748535,-0.0035122958943247795,-0.00185228674672544,-0.00046942345215938985,0.40195488929748535,-0.0035122958943247795,-0.00185228674672544,-0.00046942345215938985
139049.611,-0.7454469799995422,-0.08925368636846542,0.4189924895763397,-1.1537946462631226,0.27704739570617676,0.7663934826850891,-6.691074848175049,5.233968734741211,157.50228881835938,-78.58123016357422,-20.023696899414062,53.3191032409668,1,0.40134698152542114,-0.00174969551153481,-0.0008189549553208053,-0.00034548621624708176,0.40134698152542114,-0.00174969551153481,-0.0008189549553208053,-0.00034548621624708176
139059.47,-0.7546423077583313,-0.08434903621673584,0.42661404609680176,-1.1407325267791748,0.2695938050746918,0.770928144454956,-7.512585163116455,5.443236351013184,158.091064453125,-83.14385223388672,-21.98137664794922,50.3018798828125,1,0.40071213245391846,0.0021837723907083273,0.0019560069777071476,-0.0003483257896732539,0.40071213245391846,0.0021837723907083273,0.0019560069777071476,-0.0003483257896732539
139069.34,-0.7646003365516663,-0.08062924444675446,0.43402937054634094,-1.1313016414642334,0.258193701505661,0.7720522284507751,-8.326386451721191,5.601928234100342,158.62106323242188,-95.38548278808594,-32.4658203125,48.91164779663086,1,0.4009213149547577,0.004475942812860012,0.00421398039907217,-0.00028786572511307895,0.4009213149547577,0.004475942812860012,0.00421398039907217,-0.00028786572511307895
139079.191,-0.7736021280288696,-0.07601001113653183,0.44162678718566895,-1.118473768234253,0.24784493446350098,0.7731582522392273,-9.267333984375,5.888420104980469,159.18466186523438,-103.78131866455078,-37.499229431152344,47.30520248413086,1,0.40113335847854614,0.004294795449823141,0.003482292639091611,-0.00034217332722619176,0.40113335847854614,0.004294795449823141,0.003482292639091611,-0.00034217332722619176
139089.05,-0.7833611965179443,-0.07253924757242203,0.4490225613117218,-1.1091917753219604,0.2337227463722229,0.7725203037261963,-10.29273509979248,6.1867475509643555,159.7155303955078,-93.68888854980469,-30.92929458618164,47.30159378051758,1,0.4017787277698517,0.00048069446347653866,0.0010331703815609217,-0.00032401163480244577,0.4017787277698517,0.00048069446347653866,0.0010331703815609217,-0.00032401163480244577
139098.909,-0.7922007441520691,-0.06824097037315369,0.45655933022499084,-1.0965924263000488,0.21968215703964233,0.773804247379303,-11.277261734008789,6.484063625335693,160.27178955078125,-71.62804412841797,-13.187378883361816,46.47749710083008,1,0.40194565057754517,-0.002533969469368458,-0.0017637292621657252,-0.00037334993248805404,0.40194565057754517,-0.002533969469368458,-0.0017637292621657252,-0.00037334993248805404
139108.78,-0.8017711043357849,-0.06512641906738281,0.46394082903862,-1.087224006652832,0.20109915733337402,0.7740737199783325,-12.063002586364746,6.590413570404053,160.76626586914062,-50.40419387817383,2.3983194828033447,45.04466247558594,1,0.40236371755599976,-0.002934817224740982,-0.0018435762031003833,-0.00030738807981833816,0.40236371755599976,-0.002934817224740982,-0.0018435762031003833,-0.00030738807981833816
139118.633,-0.8104544281959534,-0.06124342232942581,0.47142747044563293,-1.074942946434021,0.18364684283733368,0.7745133638381958,-12.631681442260742,6.559408664703369,161.24713134765625,-44.149898529052734,6.963329792022705,42.80168914794922,1,0.4027389883995056,4.00040989916306e-05,0.0002885779831558466,-0.0002949647605419159,0.4027389883995056,4.00040989916306e-05,0.0002885779831558466,-0.0002949647605419159
139128.496,-0.8198536038398743,-0.058516863733530045,0.4787793755531311,-1.0661399364471436,0.16313202679157257,0.7731721997261047,-13.084836959838867,6.421490669250488,161.6544647216797,-52.080711364746094,0.7372366786003113,41.63303756713867,1,0.40355777740478516,0.003442934015765786,0.0027717361226677895,-0.00021261598158162087,0.40355777740478516,0.003442934015765786,0.0027717361226677895,-0.00021261598158162087
139138.352,-0.8284183144569397,-0.05505798012018204,0.48617807030677795,-1.0550423860549927,0.1448347270488739,0.7708194851875305,-13.585119247436523,6.337403774261475,162.08372497558594,-62.51152420043945,-7.573449611663818,41.100284576416016,1,0.4046308696269989,0.0045759533531963825,0.0036055310629308224,-0.0002542636648286134,0.4046308696269989,0.0045759533531963825,0.0036055310629308224,-0.0002542636648286134
139148.222,-0.837641179561615,-0.052763041108846664,0.49347251653671265,-1.0466762781143188,0.12322528660297394,0.7669910192489624,-14.191061019897461,6.323734760284424,162.50440979003906,-60.346492767333984,-8.584965705871582,40.97712326049805,1,0.4060755968093872,0.0022237764205783606,0.002260070526972413,-0.0002605936024338007,0.4060755968093872,0.0022237764205783606,0.002260070526972413,-0.0002605936024338007
139158.072,-0.846073567867279,-0.04977857321500778,0.500775158405304,-1.036096453666687,0.10321532189846039,0.7635798454284668,-14.811524391174316,6.347020149230957,162.9537353515625,-43.6626091003418,2.2482197284698486,40.60810089111328,1,0.40742191672325134,-0.0011233410332351923,-0.00046359593397937715,-0.00031265319557860494,0.40742191672325134,-0.0011233410332351923,-0.00046359593397937715,-0.00031265319557860494
139167.937,-0.855173647403717,-0.04794863238930702,0.5079765915870667,-1.028494119644165,0.07891560345888138,0.7604920268058777,-15.31946086883545,6.275341510772705,163.35177612304688,-23.321420669555664,17.33528709411621,40.52218246459961,1,0.40869271755218506,-0.002412021392956376,-0.0018632557475939393,-0.0002652671537362039,0.40869271755218506,-0.002412021392956376,-0.0018632557475939393,-0.0002652671537362039
139177.796,-0.8635257482528687,-0.04551135003566742,0.5151755809783936,-1.018877387046814,0.056146834045648575,0.7572250366210938,-15.629195213317871,6.06315803527832,163.73471069335938,-8.387092590332031,26.680450439453125,39.71857452392578,1,0.41001275181770325,-0.0017266287468373775,-0.0010431715054437518,-0.00025704409927129745,0.41001275181770325,-0.0017266287468373775,-0.0010431715054437518,-0.00025704409927129745
139187.674,-0.8724802136421204,-0.044203776866197586,0.5223148465156555,-1.011657953262329,0.03028208762407303,0.7538771629333496,-15.760022163391113,5.754456520080566,164.06304931640625,-10.150023460388184,23.946880340576172,37.953121185302734,1,0.4113578498363495,0.0019029371906071901,0.0014722476480528712,-0.00019060900376643986,0.4113578498363495,0.0019029371906071901,0.0014722476480528712,-0.00019060900376643986
139197.523,-0.8807538747787476,-0.0422828234732151,0.5294296741485596,-1.0031704902648926,0.007480468600988388,0.749893307685852,-15.855987548828125,5.42739200592041,164.38670349121094,-19.416345596313477,14.366780281066895,38.004112243652344,1,0.4128665626049042,0.003945888485759497,0.0031667763832956553,-0.0001988911972148344,0.4128665626049042,0.003945888485759497,0.0031667763832956553,-0.0001988911972148344
139207.376,-0.8896311521530151,-0.04145168885588646,0.5364749431610107,-0.9974493980407715,-0.017767947167158127,0.7450250387191772,-16.033536911010742,5.178642272949219,164.710693359375,-24.24448013305664,8.052042007446289,38.03836441040039,1,0.41460177302360535,0.0034568060655146837,0.0026931792963296175,-0.00021332589676603675,0.41460177302360535,0.0034568060655146837,0.0026931792963296175,-0.00021332589676603675
139217.236,-0.898766815662384,-0.04093019291758537,0.5437960624694824,-0.9930315017700195,-0.04396772012114525,0.7420127987861633,-16.28049087524414,5.007881164550781,165.0785369873047,-13.711112976074219,10.013697624206543,38.62223434448242,1,0.41588130593299866,0.00017437273345422,0.0008857360808178782,-0.0002876291109714657,0.41588130593299866,0.00017437273345422,0.0008857360808178782,-0.0002876291109714657
139227.106,-0.9066166281700134,-0.03971322253346443,0.5504858493804932,-0.9846351146697998,-0.06652605533599854,0.7372918128967285,-16.42405128479004,4.832372188568115,165.42884826660156,5.175291538238525,20.285430908203125,39.28385925292969,1,0.41759151220321655,-0.002098924946039915,-0.0012388367904350162,-0.00028544021188281476,0.41759151220321655,-0.002098924946039915,-0.0012388367904350162,-0.00028544021188281476
139236.963,-0.9147826433181763,-0.038908593356609344,0.5574601888656616,-0.9777761697769165,-0.09127473086118698,0.7347967624664307,-16.43815040588379,4.576512813568115,165.78150939941406,22.9107666015625,32.319034576416016,39.235816955566406,1,0.41875356435775757,-0.0024221837520599365,-0.0021457038819789886,-0.0003030103398486972,0.41875356435775757,-0.0024221837520599365,-0.0021457038819789886,-0.0003030103398486972
139246.821,-0.9234905242919922,-0.039106231182813644,0.5643863677978516,-0.9731784462928772,-0.11783363670110703,0.7319978475570679,-16.255992889404297,4.203125953674316,166.0770721435547,28.55457305908203,33.52133560180664,37.66919708251953,1,0.4199950397014618,-7.274939707713202e-05,-0.00012372237688396126,-0.00023355813755188137,0.4199950397014618,-7.274939707713202e-05,-0.00012372237688396126,-0.00023355813755188137
139256.686,-0.9316365718841553,-0.0388045534491539,0.5713260173797607,-0.9673667550086975,-0.14114393293857574,0.7291744351387024,-15.964244842529297,3.7902467250823975,166.37254333496094,21.85369300842285,23.95627212524414,36.666072845458984,1,0.42124682664871216,0.0027715747710317373,0.0023165279999375343,-0.0002388824213994667,0.42124682664871216,0.0027715747710317373,0.0023165279999375343,-0.0002388824213994667
139266.551,-0.9402915239334106,-0.03952251374721527,0.578209400177002,-0.9637356400489807,-0.16670197248458862,0.7260515093803406,-15.7366304397583,3.454294443130493,166.65872192382812,13.64035701751709,12.606122970581055,36.44617462158203,1,0.42257753014564514,0.00353987910784781,0.0030230518896132708,-0.00023799504560884088,0.42257753014564514,0.00353987910784781,0.0030230518896132708,-0.00023799504560884088
139276.4,-0.9484403133392334,-0.039752572774887085,0.585111141204834,-0.9591326713562012,-0.18896330893039703,0.7229400277137756,-15.57251262664795,3.216947317123413,166.99008178710938,14.404963493347168,9.130997657775879,35.688255310058594,1,0.4239100515842438,0.001818896154873073,0.001493379008024931,-0.00030283283558674157,0.4239100515842438,0.001818896154873073,0.001493379008024931,-0.00030283283558674157
139286.262,-0.9570732116699219,-0.04093821346759796,0.5919498801231384,-0.9564074873924255,-0.21371957659721375,0.7209956645965576,-15.443364143371582,3.040619134902954,167.3133087158203,27.6831111907959,12.584049224853516,35.669002532958984,1,0.42495599389076233,-0.0010828529484570026,-0.00012356105435173959,-0.00030638236785307527,0.42495599389076233,-0.0010828529484570026,-0.00012356105435173959,-0.00030638236785307527
139296.122,-0.9652121067047119,-0.04171893000602722,0.5988571643829346,-0.9520915746688843,-0.23658840358257294,0.7203122973442078,-15.206472396850586,2.856750965118408,167.65188598632812,45.67900848388672,22.65542984008789,35.733131408691406,1,0.4256903827190399,-0.0026512397453188896,-0.0019389083608984947,-0.00034039857564494014,0.4256903827190399,-0.0026512397453188896,-0.0019389083608984947,-0.00034039857564494014
