timestamp,stateEstimate.x,stateEstimate.y,stateEstimate.z,stateEstimate.vx,stateEstimate.vy,stateEstimate.vz,stateEstimate.roll,stateEstimate.pitch,stateEstimate.yaw,gyro.x,gyro.y,gyro.z,ILBC.nominal_controller,ILBC.nominal_thrust,ILBC.nominal_torqueX,ILBC.nominal_torqueY,ILBC.nominal_torqueZ,ILBC.full_thrust,ILBC.full_torqueX,ILBC.full_torqueY,ILBC.full_torqueZ
52505.553,0.035950347781181335,-0.7842596769332886,0.7052322030067444,0.032195184379816055,0.08816441148519516,-0.0035415433812886477,-1.6214758157730103,0.6927005648612976,7.745967864990234,-0.47002241015434265,0.0031418551225215197,-0.1391369253396988,1,0.0,0.0,0.0,0.0,0.0,0.0,0.0,0.0
52515.405,0.036054015159606934,-0.7839697003364563,0.7052167057991028,0.032723091542720795,0.08921261131763458,-0.0037038198206573725,-1.6214455366134644,0.6927291750907898,7.745121479034424,-0.028213120996952057,0.20845676958560944,0.28965023159980774,1,0.0,0.0,0.0,0.0,0.0,0.0,0.0,0.0
52525.286,0.03593980893492699,-0.784274697303772,0.7052221894264221,0.032359782606363297,0.0882304310798645,-0.00357212801463902,-1.6236486434936523,0.693286657333374,7.7501749992370605,0.03125615790486336,-0.30235084891319275,0.08351142704486847,1,0.0,0.0,0.0,0.0,0.0,0.0,0.0,0.0
52535.131,0.03604444861412048,-0.783983051776886,0.7052077651023865,0.03257149085402489,0.08922101557254791,-0.0036102274898439646,-1.622389316558838,0.6937382221221924,7.743101596832275,0.016965486109256744,-0.27347421646118164,-0.07591236382722855,1,0.0,0.0,0.0,0.0,0.0,0.0,0.0,0.0
52544.992,0.035928938537836075,-0.7842852473258972,0.7052154541015625,0.03222222626209259,0.08833719789981842,-0.0035785508807748556,-1.6229854822158813,0.6961893439292908,7.747877597808838,0.10374826192855835,-0.13541412353515625,0.18342727422714233,1,0.0,0.0,0.0,0.0,0.0,0.0,0.0,0.0
52673.232,0.03539549931883812,-0.7841330170631409,0.7052391171455383,0.013618895784020424,0.08740074187517166,0.009012204594910145,-1.8404370546340942,0.6937909722328186,7.635142803192139,-74.16365051269531,1.5732570886611938,-6.173786640167236,1,0.6439851522445679,0.005285541992634535,0.000626677181571722,-0.00022373780666384846,0.6439851522445679,0.005285541992634535,0.000626677181571722,-0.00022373780666384846
52683.1,0.03513387218117714,-0.7843905091285706,0.7055093050003052,0.010382024571299553,0.08772765845060349,0.030054666101932526,-2.364677667617798,0.6868458390235901,7.580966472625732,-116.18006896972656,1.0801002979278564,-6.322841644287109,1,0.6403592228889465,0.005285541992634535,0.0009668733109720051,-0.00021545561321545392,0.6403592228889465,0.005285541992634535,0.0009668733109720051,-0.00021545561321545392
52692.947,0.0350353978574276,-0.784060001373291,0.7059987783432007,0.007506939582526684,0.09138775616884232,0.05822509899735451,-3.2952685356140137,0.6817620396614075,7.518356800079346,-141.4879913330078,18.823410034179688,-6.39837121963501,1,0.634924054145813,0.005285541992634535,-0.0034198667854070663,-0.0002019674429902807,0.634924054145813,0.005285541992634535,-0.0034198667854070663,-0.0002019674429902807
52702.808,0.03472059592604637,-0.7842276692390442,0.7068772912025452,0.003606420010328293,0.09619167447090149,0.0927940309047699,-4.626255989074707,0.5890555381774902,7.458080291748047,-130.43113708496094,35.59951400756836,-5.065078258514404,1,0.6278508305549622,-0.0008918656967580318,-0.00391056202352047,-0.00021190609550103545,0.6278508305549622,-0.0008918656967580318,-0.00391056202352047,-0.00021190609550103545
52712.671,0.034554000943899155,-0.7837637662887573,0.7081047892570496,3.066152930841781e-05,0.10689583420753479,0.13790762424468994,-6.010892391204834,0.31847572326660156,7.380051612854004,-102.4235610961914,35.93714904785156,-5.884275913238525,1,0.618095874786377,-0.005104716867208481,-0.0006742626428604126,-0.00018084782641381025,0.618095874786377,-0.005104716867208481,-0.0006742626428604126,-0.00018084782641381025
52722.546,0.03417511656880379,-0.7837109565734863,0.7099090218544006,-0.003979330882430077,0.11998247355222702,0.18866027891635895,-7.181217193603516,-0.03974785655736923,7.290436744689941,-84.92453002929688,14.975390434265137,-6.215632915496826,1,0.6068671345710754,-0.0034105111844837666,0.004384966101497412,-0.00016043811046984047,0.6068671345710754,-0.0034105111844837666,0.004384966101497412,-0.00016043811046984047
52732.399,0.03394768014550209,-0.7829656600952148,0.712151825428009,-0.006753337103873491,0.13790206611156464,0.24134404957294464,-8.088811874389648,-0.2784697115421295,7.198246479034424,-89.35259246826172,-5.090994358062744,-5.981115818023682,1,0.5950812101364136,0.0014085315633565187,0.004950991831719875,-0.00015511384117417037,0.5950812101364136,0.0014085315633565187,0.004950991831719875,-0.00015511384117417037
52742.253,0.03369152545928955,-0.7820736169815063,0.7148667573928833,-0.009412138722836971,0.15765595436096191,0.2923458218574524,-8.936399459838867,-0.2950694262981415,7.139507293701172,-105.89411926269531,-11.697321891784668,-4.081315040588379,1,0.583636462688446,0.004726613871753216,0.0024988045915961266,-0.00020782416686415672,0.583636462688446,0.004726613871753216,0.0024988045915961266,-0.00020782416686415672
52752.12,0.03322511538863182,-0.7814187407493591,0.7183014154434204,-0.013194970786571503,0.1786525845527649,0.34175315499305725,-9.9409818649292,-0.168605238199234,7.114315509796143,-112.85482788085938,5.637874603271484,-4.9559502601623535,1,0.5725135207176208,0.0033242120407521725,-0.002986274193972349,-0.0002423727564746514,0.5725135207176208,0.0033242120407521725,-0.002986274193972349,-0.0002423727564746514
52761.994,0.03272833302617073,-0.7805810570716858,0.7221795916557312,-0.017497673630714417,0.20144473016262054,0.3894003629684448,-11.053655624389648,-0.11153264343738556,7.079314231872559,-100.23833465576172,28.165699005126953,-4.367856502532959,1,0.5617561936378479,-0.0008575072861276567,-0.004920181818306446,-0.00023308488016482443,0.5617561936378479,-0.0008575072861276567,-0.004920181818306446,-0.00023308488016482443
52771.84,0.03236198052763939,-0.778962254524231,0.7264248728752136,-0.021400751546025276,0.2288421243429184,0.4364696443080902,-12.13187026977539,-0.2707385718822479,6.999440670013428,-76.58149719238281,35.70573043823242,-5.068902015686035,1,0.5510720610618591,-0.003774257842451334,-0.0022489402908831835,-0.00016907526878640056,0.5510720610618591,-0.003774257842451334,-0.0022489402908831835,-0.00016907526878640056
52781.712,0.03178693354129791,-0.7775973081588745,0.7312559485435486,-0.02575739473104477,0.2568926215171814,0.4826168715953827,-13.018157958984375,-0.5781676769256592,6.885334491729736,-58.645477294921875,20.377471923828125,-6.620070934295654,1,0.5405479669570923,-0.0031288694590330124,0.002900458872318268,-0.00011080405965913087,0.5405479669570923,-0.0031288694590330124,0.002900458872318268,-0.00011080405965913087
52791.563,0.031345464289188385,-0.7754071354866028,0.7364069819450378,-0.028791772201657295,0.28793981671333313,0.5242342352867126,-13.67458438873291,-0.8416988253593445,6.763036727905273,-60.1328239440918,-0.5081192851066589,-6.797440528869629,1,0.531085193157196,0.0010080066276714206,0.004784038756042719,-9.429880446987227e-05,0.531085193157196,0.0010080066276714206,0.004784038756042719,-9.429880446987227e-05
52801.433,0.030707072466611862,-0.7734674215316772,0.7420706748962402,-0.03216041997075081,0.31742340326309204,0.5615476369857788,-14.258495330810547,-0.892271101474762,6.682900905609131,-71.07913208007812,-7.239649295806885,-6.465983867645264,1,0.5226340293884277,0.003563752630725503,0.0021869984921067953,-0.00014570762868970633,0.5226340293884277,0.003563752630725503,0.0021869984921067953,-0.00014570762868970633
52811.284,0.03020750731229782,-0.7706863880157471,0.7479660511016846,-0.034774553030729294,0.34908053278923035,0.5941657423973083,-14.910483360290527,-0.8154111504554749,6.6391730308532715,-77.83502960205078,0.6816158294677734,-7.025089263916016,1,0.5152986645698547,0.00334663363173604,-0.0010755942203104496,-0.00018528471991885453,0.5152986645698547,0.00334663363173604,-0.0010755942203104496,-0.00018528471991885453
52821.143,0.02950386144220829,-0.7681364417076111,0.754296064376831,-0.03852542117238045,0.38010308146476746,0.6251904964447021,-15.669716835021973,-0.737263023853302,6.5944600105285645,-72.3570327758789,18.532642364501953,-7.158360481262207,1,0.5083121657371521,0.0010381710017099977,-0.003778451820835471,-0.0001813210838008672,0.5083121657371521,0.0010381710017099977,-0.003778451820835471,-0.0001813210838008672
52831.005,0.0289393812417984,-0.7647170424461365,0.7608100771903992,-0.04156508669257164,0.4143926799297333,0.6545624732971191,-16.433120727539062,-0.8155813813209534,6.494808197021484,-55.77218246459961,27.16377830505371,-6.388166427612305,1,0.5016918182373047,-0.0014711185358464718,-0.0023033006582409143,-0.00011441273090895265,0.5016918182373047,-0.0014711185358464718,-0.0023033006582409143,-0.00011441273090895265
52840.873,0.02833600528538227,-0.7610489130020142,0.7674732804298401,-0.04476297274231911,0.44917649030685425,0.6812618374824524,-17.0655574798584,-1.0122935771942139,6.366491794586182,-37.684814453125,22.376237869262695,-6.6158294677734375,1,0.49569442868232727,-0.0021342511754482985,0.0005295704468153417,-7.187769369920716e-05,0.49569442868232727,-0.0021342511754482985,0.0005295704468153417,-7.187769369920716e-05
52850.732,0.027533363550901413,-0.7576884627342224,0.774378776550293,-0.04844757542014122,0.4821254014968872,0.7049582600593567,-17.508012771606445,-1.2142106294631958,6.2423481941223145,-28.443599700927734,7.598165512084961,-6.408524036407471,1,0.49040645360946655,-0.00041052597225643694,0.003083703340962529,-7.3356663051527e-05,0.49040645360946655,-0.00041052597225643694,0.003083703340962529,-7.3356663051527e-05
52860.597,0.02671176567673683,-0.7538095116615295,0.7817946672439575,-0.0514298677444458,0.5161848068237305,0.72688227891922,-17.830739974975586,-1.3133437633514404,6.145881652832031,-30.386180877685547,-5.35171365737915,-4.882935047149658,1,0.4855252802371979,0.002214420586824417,0.0032064581755548716,-0.00011453104525571689,0.4855252802371979,0.002214420586824417,0.0032064581755548716,-0.00011453104525571689
52870.45,0.02603265456855297,-0.7490426301956177,0.7892818450927734,-0.053326524794101715,0.5518621802330017,0.7456163763999939,-18.122262954711914,-1.2973804473876953,6.094460964202881,-34.554649353027344,-6.086304187774658,-3.8308651447296143,1,0.4814072549343109,0.0031267725862562656,0.0007649171748198569,-0.0001759376609697938,0.4814072549343109,0.0031267725862562656,0.0007649171748198569,-0.0001759376609697938
52880.321,0.025338618084788322,-0.7440228462219238,0.7967921495437622,-0.05529363080859184,0.5873150825500488,0.7620436549186707,-18.44879150390625,-1.218109369277954,6.077372074127197,-30.395980834960938,5.244888782501221,-4.028910160064697,1,0.4778367280960083,0.0015835495432838798,-0.002115055685862899,-0.00021657963225152344,0.4778367280960083,0.0015835495432838798,-0.002115055685862899,-0.00021657963225152344
52890.18,0.024438420310616493,-0.7390329241752625,0.8048962354660034,-0.05824441835284233,0.6221531629562378,0.7792425751686096,-18.785898208618164,-1.1964917182922363,6.0448689460754395,-16.71111297607422,19.63604164123535,-4.243953704833984,1,0.47404932975769043,-0.0005866730934940279,-0.0033114685211330652,-0.0001946909469552338,0.47404932975769043,-0.0005866730934940279,-0.0033114685211330652,-0.0001946909469552338
52900.038,0.0234566368162632,-0.7328745126724243,0.81419438123703,-0.06114066392183304,0.6620364785194397,0.7983070015907288,-19.05034828186035,-1.329763412475586,5.954212665557861,0.9311797618865967,23.44222068786621,-4.739185810089111,1,0.4697709381580353,-0.00178227957803756,-0.0013767541386187077,-0.00011518179235281423,0.4697709381580353,-0.00178227957803756,-0.0013767541386187077,-0.00011518179235281423
52909.893,0.022675344720482826,-0.7267217040061951,0.8222862482070923,-0.06316594034433365,0.6987124085426331,0.8126188516616821,-19.105104446411133,-1.5303634405136108,5.837391376495361,14.263066291809082,14.2647705078125,-4.971730709075928,1,0.46664977073669434,-0.0012083498295396566,0.0015433841617777944,-7.613711932208389e-05,0.46664977073669434,-0.0012083498295396566,0.0015433841617777944,-7.613711932208389e-05
52919.769,0.02172449603676796,-0.7208833694458008,0.8305562138557434,-0.06529355049133301,0.7327283620834351,0.8254879713058472,-19.00823402404785,-1.6761583089828491,5.73695182800293,18.153247833251953,0.3055581748485565,-5.146047115325928,1,0.4638671576976776,0.0007286231266334653,0.003024826291948557,-9.110424434766173e-05,0.4638671576976776,0.0007286231266334653,0.003024826291948557,-9.110424434766173e-05
52929.62,0.020910385996103287,-0.714043140411377,0.8389089107513428,-0.06651552766561508,0.768417239189148,0.8372928500175476,-18.839841842651367,-1.706189513206482,5.674729824066162,17.646930694580078,-9.074673652648926,-3.6352150440216064,1,0.4613308906555176,0.001818896154873073,0.0024581553880125284,-0.0001467724796384573,0.4613308906555176,0.001818896154873073,0.0024581553880125284,-0.0001467724796384573
52939.485,0.01990513503551483,-0.7072008848190308,0.8479205965995789,-0.06827593594789505,0.8020646572113037,0.8505476713180542,-18.645748138427734,-1.6194559335708618,5.663563251495361,19.94550323486328,-5.953121185302734,-3.4302961826324463,1,0.45841535925865173,0.0013264263980090618,-0.00017179182032123208,-0.00021131450193934143,0.45841535925865173,0.0013264263980090618,-0.00017179182032123208,-0.00021131450193934143
52949.344,0.01906818151473999,-0.6997148990631104,0.8564849495887756,-0.06934677809476852,0.8361356258392334,0.860267698764801,-18.457942962646484,-1.534202218055725,5.656811714172363,28.46438980102539,5.531981468200684,-3.5186550617218018,1,0.4563618302345276,-0.00010226855374639854,-0.002313624368980527,-0.00021598802413791418,0.4563618302345276,-0.00010226855374639854,-0.002313624368980527,-0.00021598802413791418
52959.215,0.018047578632831573,-0.6922461986541748,0.8656854033470154,-0.07110964506864548,0.8684543967247009,0.8721431493759155,-18.196775436401367,-1.5390046834945679,5.618437767028809,40.309326171875,15.57450008392334,-4.255183219909668,1,0.4537562131881714,-0.0011107590980827808,-0.0024376693181693554,-0.00016996264457702637,0.4537562131881714,-0.0011107590980827808,-0.0024376693181693554,-0.00016996264457702637
52969.061,0.01718331314623356,-0.6841365694999695,0.8744325637817383,-0.0721249207854271,0.9012001156806946,0.8809714913368225,-17.831703186035156,-1.6468455791473389,5.539882183074951,50.77597427368164,14.5545654296875,-5.419412612915039,1,0.4518929719924927,-0.0011389878345653415,-0.0002098602126352489,-0.00010855602158699185,0.4518929719924927,-0.0011389878345653415,-0.0002098602126352489,-0.00010855602158699185
52978.925,0.016306016594171524,-0.6754643321037292,0.8836560249328613,-0.07269442826509476,0.9336028099060059,0.8915640115737915,-17.335424423217773,-1.7773805856704712,5.444731712341309,55.485435485839844,5.318888187408447,-6.042223930358887,1,0.44957658648490906,-8.646047353977337e-05,0.0017679232405498624,-7.95683081378229e-05,0.44957658648490906,-8.646047353977337e-05,0.0017679232405498624,-7.95683081378229e-05
52988.786,0.015278191305696964,-0.6674088835716248,0.8927299380302429,-0.07346241176128387,0.9620913863182068,0.8999794721603394,-16.790895462036133,-1.842293620109558,5.362514495849609,55.79481506347656,-4.748526096343994,-5.409178733825684,1,0.44778746366500854,0.000834924285300076,0.002315398771315813,-9.672431042417884e-05,0.44778746366500854,0.000834924285300076,0.002315398771315813,-9.672431042417884e-05
52998.659,0.01423560455441475,-0.6588273644447327,0.9022657871246338,-0.07401948422193527,0.9896780848503113,0.9094502329826355,-16.21518325805664,-1.8075810670852661,5.31753396987915,55.939697265625,-7.886927127838135,-5.206328392028809,1,0.44572263956069946,0.0008958983817137778,0.0010439780307933688,-0.00014263138291426003,0.44572263956069946,0.0008958983817137778,0.0010439780307933688,-0.00014263138291426003
53008.517,0.013356160372495651,-0.6496164798736572,0.9113320112228394,-0.07396629452705383,1.0174912214279175,0.9158881306648254,-15.658880233764648,-1.7178689241409302,5.288849830627441,59.361351013183594,-3.8872456550598145,-4.5573859214782715,1,0.44440019130706787,0.00013646560546476394,-0.0005500564002431929,-0.00016635397332720459,0.44440019130706787,0.00013646560546476394,-0.0005500564002431929,-0.00016635397332720459
53018.373,0.012307319790124893,-0.6405459642410278,0.9210013151168823,-0.07457128912210464,1.0426417589187622,0.9249482154846191,-15.062874794006348,-1.645512580871582,5.263693332672119,67.08541870117188,2.8295581340789795,-4.199881076812744,1,0.4424140751361847,-0.0010296216933056712,-0.001359816757030785,-0.00017232900427188724,0.4424140751361847,-0.0010296216933056712,-0.001359816757030785,-0.00017232900427188724
53028.236,0.01141984760761261,-0.6308468580245972,0.9302010536193848,-0.07469648867845535,1.0684698820114136,0.9316765666007996,-14.42713451385498,-1.6337372064590454,5.224785327911377,74.46670532226562,6.127875328063965,-5.441573143005371,1,0.4409961700439453,-0.001252386486157775,-0.0008155674440786242,-0.00014487940643448383,0.4409961700439453,-0.001252386486157775,-0.0008155674440786242,-0.00014487940643448383
53038.105,0.010527782142162323,-0.620608925819397,0.939895749092102,-0.07446538656949997,1.093489646911621,0.9405428171157837,-13.694171905517578,-1.6805777549743652,5.161362171173096,77.2929916381836,5.10582160949707,-6.275936126708984,1,0.43903493881225586,-0.0004710160428658128,6.807150202803314e-05,-0.00010595304775051773,0.43903493881225586,-0.0004710160428658128,6.807150202803314e-05,-0.00010595304775051773
53047.955,0.009507711976766586,-0.6112337708473206,0.949352502822876,-0.0745500773191452,1.1137948036193848,0.9469614028930664,-12.942501068115234,-1.7328537702560425,5.090043544769287,76.14527893066406,-1.6095165014266968,-6.440091609954834,1,0.437671035528183,0.0003205167595297098,0.0014653116231784225,-9.199161286232993e-05,0.437671035528183,0.0003205167595297098,0.0014653116231784225,-9.199161286232993e-05
53057.823,0.008484194055199623,-0.6013653874397278,0.9592946171760559,-0.07423961907625198,1.1332067251205444,0.9551866054534912,-12.164270401000977,-1.7280747890472412,5.026727676391602,73.70088958740234,-4.940032958984375,-6.419683456420898,1,0.4358470141887665,0.0006126434891484678,0.0009083189070224762,-9.950475941877812e-05,0.4358470141887665,0.0006126434891484678,0.0009083189070224762,-9.950475941877812e-05
53067.682,0.007616712246090174,-0.5908840894699097,0.9687641263008118,-0.073436439037323,1.1529408693313599,0.9607560634613037,-11.436668395996094,-1.6871567964553833,4.973835468292236,74.84141540527344,-4.345818519592285,-5.959745407104492,1,0.43467313051223755,-0.0002103441656799987,8.75896294019185e-05,-0.00011358450137777254,0.43467313051223755,-0.0002103441656799987,8.75896294019185e-05,-0.00011358450137777254
53077.552,0.006630755960941315,-0.5811967253684998,0.9782131314277649,-0.0729064792394638,1.1682970523834229,0.9653261303901672,-10.724992752075195,-1.6322002410888672,4.9240264892578125,78.06095886230469,-1.132448434829712,-6.445376873016357,1,0.4337403178215027,-0.0008368599810637534,-0.0005658644950017333,-0.00011192806414328516,0.4337403178215027,-0.0008368599810637534,-0.0005658644950017333,-0.00011192806414328516
53087.403,0.005779698956757784,-0.5704022645950317,0.9878228902816772,-0.07194417715072632,1.185230016708374,0.97139972448349,-9.969478607177734,-1.6052908897399902,4.867166996002197,81.19108581542969,2.348940134048462,-6.388850212097168,1,0.4324256479740143,-0.0010247825412079692,-0.0007694337400607765,-0.00010122036474058405,0.4324256479740143,-0.0010247825412079692,-0.0007694337400607765,-0.00010122036474058405
53097.261,0.004808241501450539,-0.5604386329650879,0.9974405765533447,-0.07132864743471146,1.1979162693023682,0.9765594601631165,-9.198731422424316,-1.612396478652954,4.805415153503418,82.9480972290039,3.4122986793518066,-6.608039379119873,1,0.4313298761844635,-0.0009283209801651537,-0.0003351956547703594,-9.10450762603432e-05,0.4313298761844635,-0.0009283209801651537,-0.0003351956547703594,-9.10450762603432e-05
53107.125,0.003977049142122269,-0.5493888854980469,1.0071929693222046,-0.07010466605424881,1.2118287086486816,0.9825061559677124,-8.380334854125977,-1.641060709953308,4.741486549377441,81.93856048583984,0.6887512803077698,-6.315035820007324,1,0.43003013730049133,-0.0004177847586106509,0.000516020692884922,-8.779136260272935e-05,0.43003013730049133,-0.0004177847586106509,0.000516020692884922,-8.779136260272935e-05
53116.996,0.003021098906174302,-0.5387361645698547,1.0176172256469727,-0.06886521726846695,1.2218859195709229,0.9910468459129333,-7.53463077545166,-1.6607547998428345,4.677687644958496,78.56170654296875,-2.4514856338500977,-6.672131061553955,1,0.42807453870773315,0.00018082499445881695,0.0007115245098248124,-8.282204362330958e-05,0.42807453870773315,0.00018082499445881695,0.0007115245098248124,-8.282204362330958e-05
53126.846,0.00215811375528574,-0.5263210535049438,1.028420090675354,-0.06700090318918228,1.2340506315231323,0.9968329668045044,-6.678678512573242,-1.6412898302078247,4.6123046875,75.89762115478516,-4.707571983337402,-5.846445560455322,1,0.42679327726364136,0.00016162947576958686,0.0006116756121627986,-8.400520891882479e-05,0.42679327726364136,0.00016162947576958686,0.0006116756121627986,-8.400520891882479e-05
53136.709,0.0012428740737959743,-0.5156458616256714,1.0388469696044922,-0.06545364111661911,1.2406877279281616,1.0044317245483398,-5.900930881500244,-1.6071367263793945,4.5598578453063965,76.12017822265625,-3.552983522415161,-5.816458225250244,1,0.4250512719154358,-0.00044730392983183265,-0.00012469019566196948,-9.814411168918014e-05,0.4250512719154358,-0.00044730392983183265,-0.00012469019566196948,-9.814411168918014e-05
53146.57,0.0004774020635522902,-0.5043439865112305,1.0487890243530273,-0.06367547065019608,1.2481919527053833,1.0092360973358154,-5.156723976135254,-1.571566104888916,4.507654666900635,78.44412994384766,-0.7699698209762573,-5.575873851776123,1,0.4239950180053711,-0.0009625180391594768,-0.000571348937228322,-9.80257973424159e-05,0.4239950180053711,-0.0009625180391594768,-0.000571348937228322,-9.80257973424159e-05
53156.436,-0.00028228361043147743,-0.49262696504592896,1.0592528581619263,-0.061799306422472,1.25496506690979,1.0167027711868286,-4.363648414611816,-1.5607974529266357,4.455185413360596,80.73348236083984,0.9917418360710144,-5.516732215881348,1,0.41759875416755676,-0.0010570439044386148,-0.0004494009190239012,-9.595524898031726e-05,0.41759875416755676,-0.0010570439044386148,-0.0004494009190239012,-9.595524898031726e-05
53166.29,-0.0011367348488420248,-0.48226216435432434,1.0694239139556885,-0.0600571446120739,1.2563953399658203,1.0220953226089478,-3.576266050338745,-1.5809085369110107,4.405846118927002,81.17769622802734,0.32748913764953613,-5.589229583740234,1,0.411812424659729,-0.0007595940260216594,5.177950515644625e-05,-9.731589670991525e-05,0.411812424659729,-0.0007595940260216594,5.177950515644625e-05,-9.731589670991525e-05
53176.146,-0.0019129067659378052,-0.4692706763744354,1.0810598134994507,-0.0576021708548069,1.2606284618377686,1.0304404497146606,-2.666785955429077,-1.5916606187820435,4.344301700592041,79.45220184326172,-2.968029499053955,-5.254589080810547,1,0.40450918674468994,-0.0002901910338550806,0.0006952325347810984,-8.199381409212947e-05,0.40450918674468994,-0.0002901910338550806,0.0006952325347810984,-8.199381409212947e-05
53186.003,-0.0027293057646602392,-0.45905134081840515,1.091220736503601,-0.05568912997841835,1.2586854696273804,1.033995270729065,-1.902609944343567,-1.5793100595474243,4.299314975738525,76.37757873535156,-4.3155436515808105,-5.771324634552002,1,0.39908015727996826,3.290659878985025e-05,0.0003513263654895127,-9.707926801638678e-05,0.39908015727996826,3.290659878985025e-05,0.0003513263654895127,-9.707926801638678e-05
53195.888,-0.003518651006743312,-0.44852861762046814,1.101934790611267,-0.05345235392451286,1.2554590702056885,1.0399186611175537,-1.1260392665863037,-1.5530368089675903,4.247052192687988,74.91571044921875,-4.449000835418701,-5.416895866394043,1,0.3927385210990906,-0.0003132579440716654,0.00010839821334229782,-8.838294161250815e-05,0.3927385210990906,-0.0003132579440716654,0.00010839821334229782,-8.838294161250815e-05
53205.728,-0.004160008393228054,-0.4372919797897339,1.1121667623519897,-0.051109470427036285,1.2539016008377075,1.04265558719635,-0.39872780442237854,-1.5175249576568604,4.19779109954834,74.93988800048828,-3.989128589630127,-5.370100975036621,1,0.3873817026615143,-0.0006636164616793394,-3.484228363959119e-05,-9.045348997460678e-05,0.3873817026615143,-0.0006636164616793394,-3.484228363959119e-05,-9.045348997460678e-05
53215.594,-0.004908121190965176,-0.4268960952758789,1.1229846477508545,-0.0489201657474041,1.2478543519973755,1.0478237867355347,0.3569371998310089,-1.4907301664352417,4.149162769317627,76.57565307617188,-3.466388463973999,-5.480844020843506,1,0.3810809850692749,-0.0011489888420328498,-7.097501656971872e-05,-8.844210969982669e-05,0.3810809850692749,-0.0011489888420328498,-7.097501656971872e-05,-8.844210969982669e-05
53225.451,-0.00550578348338604,-0.4157887101173401,1.1333054304122925,-0.04652281850576401,1.2434735298156738,1.0497738122940063,1.1013153791427612,-1.46428644657135,4.097037315368652,77.80113220214844,-2.7591497898101807,-5.589266300201416,1,0.3757810890674591,-0.0011894768103957176,-0.000143240496981889,-8.12247526482679e-05,0.3757810890674591,-0.0011894768103957176,-0.000143240496981889,-8.12247526482679e-05
53235.325,-0.0062073334120213985,-0.4055926501750946,1.1442170143127441,-0.04425448551774025,1.2344526052474976,1.0536407232284546,1.8855589628219604,-1.4535422325134277,4.0464558601379395,76.32613372802734,-3.8617048263549805,-5.455796241760254,1,0.3696638345718384,-0.0007081371732056141,0.0002605105983093381,-8.199381409212947e-05,0.3696638345718384,-0.0007081371732056141,0.0002605105983093381,-8.199381409212947e-05
53245.172,-0.006758819799870253,-0.3946635127067566,1.1545958518981934,-0.04177957400679588,1.2273921966552734,1.0534828901290894,2.626633644104004,-1.4290281534194946,3.9951515197753906,72.63727569580078,-4.357113361358643,-5.683053493499756,1,0.36476776003837585,-0.00020437579951249063,0.00015178976173046976,-7.737945270491764e-05,0.36476776003837585,-0.00020437579951249063,0.00015178976173046976,-7.737945270491764e-05
53255.033,-0.007412831299006939,-0.3847285807132721,1.1655597686767578,-0.039382487535476685,1.2153490781784058,1.0550563335418701,3.3677492141723633,-1.4080685377120972,3.9419610500335693,68.70996856689453,-5.475210189819336,-5.792621612548828,1,0.3591061532497406,-0.00013130379375070333,0.00032019411446526647,-7.205516885733232e-05,0.3591061532497406,-0.00013130379375070333,0.00032019411446526647,-7.205516885733232e-05
53264.898,-0.007917271926999092,-0.37404096126556396,1.1759570837020874,-0.03684015944600105,1.2055792808532715,1.0532037019729614,4.036805629730225,-1.3697092533111572,3.8863039016723633,65.70673370361328,-5.323522090911865,-6.160799503326416,1,0.3545364737510681,-0.00028986844699829817,5.59734835405834e-05,-6.406876491382718e-05,0.3545364737510681,-0.00028986844699829817,5.59734835405834e-05,-6.406876491382718e-05
53274.772,-0.008529268205165863,-0.36439165472984314,1.1869184970855713,-0.03451671823859215,1.1911832094192505,1.0534920692443848,4.700963020324707,-1.3371706008911133,3.827287435531616,64.20368957519531,-5.016015529632568,-5.867767810821533,1,0.34911179542541504,-0.0006644229870289564,1.435631111235125e-05,-5.957270695944317e-05,0.34911179542541504,-0.0006644229870289564,1.435631111235125e-05,-5.957270695944317e-05
53284.62,-0.008986799977719784,-0.3539889454841614,1.1972978115081787,-0.032036278396844864,1.1791404485702515,1.0496618747711182,5.325455188751221,-1.3035091161727905,3.7694599628448486,62.76383972167969,-4.468903541564941,-5.700963020324707,1,0.3449612557888031,-0.000719428644515574,-5.790916839032434e-05,-5.9809342928929254e-05,0.3449612557888031,-0.000719428644515574,-5.790916839032434e-05,-5.9809342928929254e-05
53294.473,-0.009423908777534962,-0.34338855743408203,1.2081235647201538,-0.029544178396463394,1.1666604280471802,1.0473822355270386,5.965110778808594,-1.2705732583999634,3.7071759700775146,60.88753128051758,-4.043320178985596,-6.14535665512085,1,0.34016478061676025,-0.0006600676570087671,-5.290865738061257e-05,-4.851004996453412e-05,0.34016478061676025,-0.0006600676570087671,-5.290865738061257e-05,-4.851004996453412e-05
53304.343,-0.009964529424905777,-0.33462366461753845,1.2185380458831787,-0.027394404634833336,1.1483150720596313,1.041788101196289,6.558199405670166,-1.2503682374954224,3.650726079940796,59.349578857421875,-5.545534133911133,-6.165406703948975,1,0.3363605737686157,-0.0008171806111931801,0.0003979440371040255,-5.330189742380753e-05,0.3363605737686157,-0.0008171806111931801,0.0003979440371040255,-5.330189742380753e-05
53314.205,-0.010354816913604736,-0.3243781328201294,1.229273796081543,-0.024941356852650642,1.1339415311813354,1.0373919010162354,7.164297580718994,-1.2062753438949585,3.584218740463257,56.0180778503418,-6.499037742614746,-6.153569221496582,1,0.33206337690353394,-0.0004335928533691913,0.00032761425245553255,-3.80981364287436e-05,0.33206337690353394,-0.0004335928533691913,0.00032761425245553255,-3.80981364287436e-05
53324.061,-0.01085644867271185,-0.316023588180542,1.2395933866500854,-0.022891374304890633,1.1134846210479736,1.0298982858657837,7.7148756980896,-1.1660770177841187,3.5219473838806152,52.43932342529297,-6.196629524230957,-6.1778883934021,1,0.32871013879776,-0.0003979440371040255,7.049109990475699e-05,-4.064195672981441e-05,0.32871013879776,-0.0003979440371040255,7.049109990475699e-05,-4.064195672981441e-05
53333.917,-0.01134074293076992,-0.3075440227985382,1.2502975463867188,-0.020830823108553886,1.0928369760513306,1.0238910913467407,8.250155448913574,-1.125885009765625,3.455486536026001,48.09101104736328,-5.291604042053223,-5.565979480743408,1,0.32476335763931274,-0.00022179694497026503,-7.936298061395064e-05,-3.69741246686317e-05,0.32476335763931274,-0.00022179694497026503,-7.936298061395064e-05,-3.69741246686317e-05
53343.779,-0.011677471920847893,-0.29823383688926697,1.2603685855865479,-0.018663864582777023,1.0752793550491333,1.0144660472869873,8.721729278564453,-1.0861438512802124,3.3962714672088623,45.15699005126953,-4.828299522399902,-5.264139652252197,1,0.32195132970809937,-0.0004992447211407125,-5.807047273265198e-06,-4.5670436520595104e-05,0.32195132970809937,-0.0004992447211407125,-5.807047273265198e-06,-4.5670436520595104e-05
53353.65,-0.012132348492741585,-0.29018983244895935,1.2708979845046997,-0.01686735264956951,1.0531320571899414,1.0067869424819946,9.182005882263184,-1.0511418581008911,3.336245059967041,42.98124694824219,-4.4421586990356445,-5.199807167053223,1,0.3184478282928467,-0.000715395959559828,2.419603106318391e-06,-4.259418710717e-05,0.3184478282928467,-0.000715395959559828,2.419603106318391e-06,-4.259418710717e-05
53363.503,-0.01243101991713047,-0.28130480647087097,1.2807916402816772,-0.014808001928031445,1.0342720746994019,0.9951631426811218,9.601714134216309,-1.0215336084365845,3.282503843307495,40.92780685424805,-4.723509788513184,-4.688943862915039,1,0.316214919090271,-0.0007689498597756028,0.00014985408051870763,-5.1822928071487695e-05,0.316214919090271,-0.0007689498597756028,0.00014985408051870763,-5.1822928071487695e-05
53373.36,-0.012707851827144623,-0.27231666445732117,1.2910124063491821,-0.012737090699374676,1.0154949426651,0.9851474761962891,10.019540786743164,-0.9875087141990662,3.231424331665039,37.6794319152832,-4.441713809967041,-4.292564868927002,1,0.3133944571018219,-0.0005063422722741961,2.6776939193950966e-05,-5.5845714086899534e-05,0.3133944571018219,-0.0005063422722741961,2.6776939193950966e-05,-5.5845714086899534e-05
53383.221,-0.013111640699207783,-0.26530805230140686,1.3007830381393433,-0.011102368123829365,0.9906269311904907,0.9724512100219727,10.392579078674316,-0.9649430513381958,3.1915862560272217,33.34416198730469,-4.946799278259277,-4.561342239379883,1,0.311441034078598,-0.0002714794536586851,0.00021211853891145438,-6.625762762269005e-05,0.311441034078598,-0.0002714794536586851,0.00021211853891145438,-6.625762762269005e-05
53393.093,-0.013499386608600616,-0.2582407295703888,1.310835838317871,-0.009570552036166191,0.965975284576416,0.9605445861816406,10.741291046142578,-0.9313342571258545,3.141164541244507,29.026325225830078,-5.216648101806641,-4.529807090759277,1,0.30912867188453674,-0.0002521226415410638,0.000185341588803567,-5.123134542373009e-05,0.30912867188453674,-0.0002521226415410638,0.000185341588803567,-5.123134542373009e-05
53402.944,-0.01373233925551176,-0.25026845932006836,1.3202482461929321,-0.007751156575977802,0.9450838565826416,0.9455159902572632,11.027533531188965,-0.8973281979560852,3.0920846462249756,25.58585548400879,-5.237781047821045,-4.52608060836792,1,0.3078920543193817,-0.00039278221083804965,0.0001403369678882882,-5.087639146950096e-05,0.3078920543193817,-0.00039278221083804965,0.0001403369678882882,-5.087639146950096e-05
53412.808,-0.01409594900906086,-0.24366074800491333,1.3299888372421265,-0.006411466281861067,0.9201054573059082,0.9322474598884583,11.276562690734863,-0.861449658870697,3.038172960281372,21.785371780395508,-4.445173263549805,-4.6864495277404785,1,0.3060361444950104,-0.00030164382769726217,-4.403677303344011e-05,-4.152933615841903e-05,0.3060361444950104,-0.00030164382769726217,-4.403677303344011e-05,-4.152933615841903e-05
53422.668,-0.014305202290415764,-0.23614220321178436,1.339106559753418,-0.004752854350954294,0.8988295197486877,0.9158312678337097,11.48359203338623,-0.8338966965675354,2.988138198852539,18.95857048034668,-4.150719165802002,-4.589494705200195,1,0.30525681376457214,-0.0004752100503537804,4.790813909494318e-05,-4.490137507673353e-05,0.30525681376457214,-0.0004752100503537804,4.790813909494318e-05,-4.490137507673353e-05
53432.541,-0.014648333191871643,-0.23004771769046783,1.3485254049301147,-0.0035394388251006603,0.8730428814888,0.9011266827583313,11.677519798278809,-0.810270369052887,2.941584825515747,16.287519454956055,-3.5269241333007812,-4.346383571624756,1,0.3038870692253113,-0.0005315061425790191,-3.4519667678978294e-05,-4.9042475438909605e-05,0.3038870692253113,-0.0005315061425790191,-3.4519667678978294e-05,-4.9042475438909605e-05
53442.392,-0.014831028878688812,-0.22301337122917175,1.3573276996612549,-0.0019668759778141975,0.8511610627174377,0.8837689757347107,11.838678359985352,-0.7903856039047241,2.8959288597106934,13.68420696258545,-3.2311854362487793,-4.130351543426514,1,0.3034707307815552,-0.0005300543853081763,2.1453810404636897e-05,-4.9811540520749986e-05,0.3034707307815552,-0.0005300543853081763,2.1453810404636897e-05,-4.9811540520749986e-05
53452.258,-0.015145956538617611,-0.2174033373594284,1.3663817644119263,-0.0008739064796827734,0.8250249624252319,0.8683852553367615,11.978127479553223,-0.7654858827590942,2.848581075668335,10.931907653808594,-4.35418701171875,-3.953876495361328,1,0.3024257719516754,-0.0005166658665984869,0.000362940423656255,-4.697192707681097e-05,0.3024257719516754,-0.0005166658665984869,0.000362940423656255,-4.697192707681097e-05
53462.11,-0.015299699269235134,-0.2108592987060547,1.3748526573181152,0.0006650628638453782,0.8026106953620911,0.8504947423934937,12.091011047363281,-0.7388203740119934,2.8061962127685547,6.724919319152832,-4.997611999511719,-3.439085006713867,1,0.3022834360599518,-0.00014114350778982043,0.0002959981211461127,-5.507665628101677e-05,0.3022834360599518,-0.00014114350778982043,0.0002959981211461127,-5.507665628101677e-05
53471.984,-0.015432258136570454,-0.20429262518882751,1.3835012912750244,0.0022225049324333668,0.7807960510253906,0.8341923952102661,12.170470237731934,-0.7069709897041321,2.7646987438201904,2.5165648460388184,-4.698184490203857,-3.0228800773620605,1,0.3016478419303894,-4.613376222550869e-05,9.839719132287428e-05,-5.738383697462268e-05,0.3016478419303894,-4.613376222550869e-05,9.839719132287428e-05,-5.738383697462268e-05
53481.837,-0.015714304521679878,-0.19968117773532867,1.3916537761688232,0.003129975637421012,0.7536069750785828,0.8157526850700378,12.1978120803833,-0.6704779267311096,2.7253384590148926,-1.2179447412490845,-2.987502098083496,-3.56380558013916,1,0.30178210139274597,-0.00010952736192848533,-0.000241315079620108,-5.460338434204459e-05,0.30178210139274597,-0.00010952736192848533,-0.000241315079620108,-5.460338434204459e-05
53491.694,-0.01598469540476799,-0.1950385868549347,1.39993417263031,0.004046576097607613,0.7273990511894226,0.7982965111732483,12.191572189331055,-0.6513823866844177,2.689298152923584,-4.394175052642822,-1.2826387882232666,-3.1514029502868652,1,0.3016009032726288,-0.00019792352395597845,-0.00030051468638703227,-6.016429324517958e-05,0.3016009032726288,-0.00019792352395597845,-0.00030051468638703227,-6.016429324517958e-05
53501.559,-0.016100095584988594,-0.1894318014383316,1.4076775312423706,0.005261843558400869,0.7052316069602966,0.7788376808166504,12.152934074401855,-0.6440582871437073,2.6548736095428467,-5.272040367126465,-2.3422369956970215,-2.871755361557007,1,0.30217960476875305,-0.0006863606977276504,0.00029970816103741527,-6.27672707196325e-05,0.30217960476875305,-0.0006863606977276504,0.00029970816103741527,-6.27672707196325e-05
53511.424,-0.016201281920075417,-0.18381591141223907,1.4155391454696655,0.006431404501199722,0.6841070055961609,0.760029137134552,12.099540710449219,-0.6326571106910706,2.6209027767181396,-7.131853103637695,-2.266624927520752,-3.1246230602264404,1,0.3025338649749756,-0.00046359593397937715,6.871672667330131e-05,-6.010513243381865e-05,0.3025338649749756,-0.00046359593397937715,6.871672667330131e-05,-6.010513243381865e-05
53521.279,-0.016460316255688667,-0.1801222562789917,1.422903299331665,0.007213727105408907,0.6573072075843811,0.7407176494598389,12.034317016601562,-0.6227512359619141,2.588158369064331,-10.20572280883789,-3.0104479789733887,-3.1191422939300537,1,0.3032578229904175,-0.00019969789718743414,0.0002714794536586851,-6.034177204128355e-05,0.3032578229904175,-0.00019969789718743414,0.0002714794536586851,-6.034177204128355e-05
53531.139,-0.016543282195925713,-0.17498305439949036,1.4303597211837769,0.008364319801330566,0.6363403797149658,0.7217843532562256,11.934155464172363,-0.6002622246742249,2.552283763885498,-14.143837928771973,-1.916276216506958,-3.502612590789795,1,0.30383947491645813,8.968662586994469e-05,-0.00013953042798675597,-5.223704283707775e-05,0.30383947491645813,8.968662586994469e-05,-0.00013953042798675597,-5.223704283707775e-05
53541.0,-0.01679019071161747,-0.17171844840049744,1.437308669090271,0.008952601812779903,0.6100886464118958,0.7021020650863647,11.795570373535156,-0.5846490859985352,2.516232490539551,-17.114683151245117,-2.7636115550994873,-2.735645294189453,1,0.3048589527606964,-7.403985364362597e-05,0.000295836798613891,-5.596403207164258e-05,0.3048589527606964,-7.403985364362597e-05,0.000295836798613891,-5.596403207164258e-05
53550.871,-0.017019929364323616,-0.16844439506530762,1.444318175315857,0.009567826054990292,0.5849201679229736,0.6833397746086121,11.625711441040039,-0.5626872777938843,2.483769178390503,-20.043119430541992,-3.1952083110809326,-2.1935224533081055,1,0.30561912059783936,-3.8713649701094255e-05,0.00024002463032957166,-6.294474587775767e-05,0.30561912059783936,-3.8713649701094255e-05,0.00024002463032957166,-6.294474587775767e-05
53560.727,-0.017074503004550934,-0.1638893187046051,1.4512667655944824,0.010617932304739952,0.5650998950004578,0.6647037863731384,11.419103622436523,-0.5395399928092957,2.453789472579956,-21.722745895385742,-1.766014575958252,-2.3187248706817627,1,0.30637693405151367,-0.00024034723173826933,-0.0001890516432467848,-6.395044329110533e-05,0.30637693405151367,-0.00024034723173826933,-0.0001890516432467848,-6.395044329110533e-05
53570.591,-0.01728890649974346,-0.16107207536697388,1.4578187465667725,0.011141124181449413,0.5402335524559021,0.6461353898048401,11.209815979003906,-0.5293864607810974,2.42876935005188,-22.930137634277344,-1.2075016498565674,-2.2553884983062744,1,0.30731499195098877,-0.00035535902134142816,-2.839000808307901e-05,-6.951134855626151e-05,0.30731499195098877,-0.00035535902134142816,-2.839000808307901e-05,-6.951134855626151e-05
53580.448,-0.017341503873467445,-0.15726323425769806,1.4639875888824463,0.01208449900150299,0.5195799469947815,0.6262202262878418,10.988800048828125,-0.5270565152168274,2.40647292137146,-24.782800674438477,-1.5156223773956299,-2.332157611846924,1,0.3087809085845947,-0.00017872800526674837,0.0001580807293066755,-7.146358984755352e-05,0.3087809085845947,-0.00017872800526674837,0.0001580807293066755,-7.146358984755352e-05
53590.315,-0.01755484566092491,-0.15483592450618744,1.470116138458252,0.012463010847568512,0.4957217276096344,0.6078489422798157,10.733743667602539,-0.523523211479187,2.382678270339966,-26.728286743164062,-1.2410190105438232,-2.08707594871521,1,0.309885710477829,-0.00013743345334660262,3.613273656810634e-05,-7.039873162284493e-05,0.309885710477829,-0.00013743345334660262,3.613273656810634e-05,-7.039873162284493e-05
53600.165,-0.017576778307557106,-0.15068508684635162,1.4768224954605103,0.013474280945956707,0.4755620062351227,0.5877408385276794,10.428596496582031,-0.5169859528541565,2.3575663566589355,-29.17623519897461,-0.9645553827285767,-2.1588542461395264,1,0.3111364245414734,6.210314313648269e-05,2.403472171863541e-05,-6.720416422467679e-05,0.3111364245414734,6.210314313648269e-05,2.403472171863541e-05,-6.720416422467679e-05
53610.025,-0.01761111430823803,-0.14734919369220734,1.4825788736343384,0.01427678856998682,0.45675238966941833,0.5689424276351929,10.134549140930176,-0.5090850591659546,2.3352463245391846,-31.92072868347168,-0.540848433971405,-2.3641583919525146,1,0.31253737211227417,0.00022824920597486198,-2.1615118384943344e-05,-6.832817598478869e-05,0.31253737211227417,0.00022824920597486198,-2.1615118384943344e-05,-6.832817598478869e-05
53619.886,-0.01780182123184204,-0.1450819969177246,1.4886348247528076,0.014654800295829773,0.43296223878860474,0.5485761761665344,9.768829345703125,-0.5082225203514099,2.309386730194092,-32.799354553222656,-0.15201441943645477,-2.1649670600891113,1,0.3141833543777466,-0.00014227264910005033,-2.4841257982188836e-05,-6.430539360735565e-05,0.3141833543777466,-0.00014227264910005033,-2.4841257982188836e-05,-6.430539360735565e-05
53629.766,-0.01782855950295925,-0.14218127727508545,1.4939392805099487,0.015381514094769955,0.41492339968681335,0.5301284193992615,9.436524391174316,-0.5107530355453491,2.288196325302124,-33.30144500732422,-0.392205148935318,-1.8943977355957031,1,0.3157314360141754,-0.00019356823759153485,0.00011017259384971112,-7.116779306670651e-05,0.3157314360141754,-0.00019356823759153485,0.00011017259384971112,-7.116779306670651e-05
53639.609,-0.018015554174780846,-0.14040705561637878,1.4994659423828125,0.015663862228393555,0.3915695548057556,0.5108606815338135,9.069113731384277,-0.5097724795341492,2.2714967727661133,-34.26767349243164,-0.3888857662677765,-1.8435297012329102,1,0.3173780143260956,-9.371928172186017e-05,6.678103818558156e-05,-7.643290882697329e-05,0.3173780143260956,-9.371928172186017e-05,6.678103818558156e-05,-7.643290882697329e-05
53649.47,-0.018192291259765625,-0.1417197287082672,1.4993257522583008,0.015097657218575478,0.3873380422592163,0.5106216669082642,9.069113731384277,-0.5097724795341492,2.2714967727661133,-35.623573303222656,-0.8071059584617615,-1.8470250368118286,1,0.31711748242378235,-3.5487510103848763e-06,0.000175985784153454,-9.725672862259671e-05,0.31711748242378235,-3.5487510103848763e-06,0.000175985784153454,-9.725672862259671e-05
53659.331,-0.0182151161134243,-0.13655687868595123,1.509365439414978,0.01653343439102173,0.3523675203323364,0.4737269878387451,8.316932678222656,-0.4973098337650299,2.231031656265259,-36.830291748046875,-1.1454812288284302,-1.45222806930542,1,0.32091018557548523,4.597245424520224e-05,0.00017469533486291766,-4.809593883692287e-05,0.32091018557548523,4.597245424520224e-05,0.00017469533486291766,-4.809593883692287e-05
53669.201,-0.01839541830122471,-0.13787639141082764,1.5091891288757324,0.0159731637686491,0.34794744849205017,0.47333091497421265,8.325425148010254,-0.49827075004577637,2.2331440448760986,-38.64009475708008,-0.6009142994880676,-1.875218391418457,1,0.32072028517723083,0.00019437477749306709,-1.7905062122736126e-05,-9.814411168918014e-05,0.32072028517723083,0.00019437477749306709,-1.7905062122736126e-05,-9.814411168918014e-05
53679.053,-0.018566541373729706,-0.13653883337974548,1.5141528844833374,0.01613054983317852,0.32736679911613464,0.45413172245025635,7.897192478179932,-0.49030622839927673,2.211792469024658,-38.52420425415039,-0.8566740155220032,-1.5700337886810303,1,0.3226512670516968,-0.00020469841547310352,0.00016130685980897397,-7.02804172760807e-05,0.3226512670516968,-0.00020469841547310352,0.00016130685980897397,-7.02804172760807e-05
53688.914,-0.01858748309314251,-0.13463613390922546,1.5183905363082886,0.01664632186293602,0.3116016685962677,0.4367552697658539,7.521548271179199,-0.4830808937549591,2.194888114929199,-39.29656219482422,-0.251714825630188,-1.5950448513031006,1,0.3244982361793518,2.2421656467486173e-05,-3.4519667678978294e-05,-7.495394675061107e-05,0.3244982361793518,2.2421656467486173e-05,-3.4519667678978294e-05,-7.495394675061107e-05
53698.775,-0.01877998188138008,-0.1339784413576126,1.522477388381958,0.016581334173679352,0.29307821393013,0.420240193605423,7.1252641677856445,-0.4811938405036926,2.1761980056762695,-40.07351303100586,1.003321886062622,-1.8002440929412842,1,0.326213538646698,4.5165921619627625e-05,-0.00020889237930532545,-7.051705324556679e-05,0.326213538646698,4.5165921619627625e-05,-0.00020889237930532545,-7.051705324556679e-05
53708.645,-0.018801044672727585,-0.13237932324409485,1.5263710021972656,0.01700451783835888,0.27840811014175415,0.4037816822528839,6.736792087554932,-0.4871768653392792,2.1586062908172607,-40.81956481933594,0.8507521748542786,-1.3717944622039795,1,0.32801857590675354,9.226752445101738e-05,7.984689727891237e-05,-7.42440388421528e-05,0.32801857590675354,9.226752445101738e-05,7.984689727891237e-05,-7.42440388421528e-05
53718.497,-0.01899235136806965,-0.13198919594287872,1.5300920009613037,0.016857825219631195,0.2611876130104065,0.38752132654190063,6.3229169845581055,-0.4967517852783203,2.140916347503662,-41.11745834350586,0.6689065098762512,-1.3189916610717773,1,0.329868346452713,1.3549776667787228e-05,9.791327465791255e-05,-7.377077417913824e-05,0.329868346452713,1.3549776667787228e-05,9.791327465791255e-05,-7.377077417913824e-05
53728.359,-0.019009048119187355,-0.13067194819450378,1.5336496829986572,0.0172597523778677,0.24773992598056793,0.37097638845443726,5.924975872039795,-0.5028706789016724,2.125798463821411,-42.07657241821289,0.5335166454315186,-1.3976268768310547,1,0.3318790793418884,0.0002155059773940593,9.275145566789433e-05,-7.584132254123688e-05,0.3318790793418884,0.0002155059773940593,9.275145566789433e-05,-7.584132254123688e-05
53738.22,-0.019176574423909187,-0.13031888008117676,1.5373488664627075,0.01722889393568039,0.23071904480457306,0.35330256819725037,5.469659805297852,-0.506338894367218,2.109239339828491,-41.81045150756836,0.4916267395019531,-1.1535797119140625,1,0.33410993218421936,-3.16161458613351e-05,8.081473788479343e-05,-7.513141463277861e-05,0.33410993218421936,-3.16161458613351e-05,8.081473788479343e-05,-7.513141463277861e-05
53748.095,-0.01918998919427395,-0.12928403913974762,1.5405470132827759,0.017626188695430756,0.21838383376598358,0.3381428122520447,5.066653728485107,-0.509526789188385,2.0976173877716064,-41.676883697509766,-0.15210005640983582,-0.8517948389053345,1,0.3359746038913727,2.4196029698941857e-05,0.00022760398860555142,-8.29403506941162e-05,0.3359746038913727,2.4196029698941857e-05,0.00022760398860555142,-8.29403506941162e-05
53757.943,-0.01937706209719181,-0.12939587235450745,1.543534755706787,0.01741374097764492,0.20366248488426208,0.32337722182273865,4.641204833984375,-0.509285569190979,2.0853874683380127,-41.21821975708008,-1.3894611597061157,-0.5262199640274048,1,0.3378550112247467,-4.790813909494318e-05,0.0004045576206408441,-8.406437700614333e-05,0.3378550112247467,-4.790813909494318e-05,0.0004045576206408441,-8.406437700614333e-05
53767.803,-0.019392123445868492,-0.12858283519744873,1.5464421510696411,0.01774202287197113,0.1926630288362503,0.30914774537086487,4.23767614364624,-0.4981901943683624,2.075092315673828,-42.126197814941406,-0.6913042664527893,-0.4028143882751465,1,0.3396508991718292,0.000304386077914387,-1.032363888953114e-05,-8.690397226018831e-05,0.3396508991718292,0.000304386077914387,-1.032363888953114e-05,-8.690397226018831e-05
53777.666,-0.019582360982894897,-0.1288716048002243,1.549137830734253,0.017481226474046707,0.17940956354141235,0.29519757628440857,3.806652545928955,-0.4909927248954773,2.065048933029175,-42.75551986694336,1.2246507406234741,-0.6257478594779968,1,0.3414914608001709,0.00029390110285021365,-0.0003245494153816253,-8.530670311301947e-05,0.3414914608001709,0.00029390110285021365,-0.0003245494153816253,-8.530670311301947e-05
53787.534,-0.019598446786403656,-0.12825407087802887,1.551774501800537,0.01776200346648693,0.16974444687366486,0.2819406986236572,3.390472412109375,-0.49396565556526184,2.0587544441223145,-42.67073059082031,2.1149935722351074,-0.5628601908683777,1,0.34319767355918884,0.00019598784274421632,-0.0001540480589028448,-9.015770046971738e-05,0.34319767355918884,0.00019598784274421632,-0.0001540480589028448,-9.015770046971738e-05
53797.386,-0.019794341176748276,-0.12870824337005615,1.5542017221450806,0.01741887256503105,0.15773893892765045,0.26898425817489624,2.962221622467041,-0.5119885802268982,2.054475784301758,-42.06694793701172,2.230952262878418,-0.6422805786132812,1,0.3449419140815735,9.242883970728144e-05,1.6130685764892405e-07,-9.199161286232993e-05,0.3449419140815735,9.242883970728144e-05,1.6130685764892405e-07,-9.199161286232993e-05
53807.247,-0.019816426560282707,-0.12825416028499603,1.5565801858901978,0.017644958570599556,0.1495770514011383,0.2564032971858978,2.538811206817627,-0.5325862169265747,2.0515294075012207,-41.2049560546875,0.9185669422149658,-0.19884969294071198,1,0.3466254770755768,6.403882434824482e-05,0.0003366474120412022,-9.672431042417884e-05,0.3466254770755768,6.403882434824482e-05,0.0003366474120412022,-9.672431042417884e-05
53817.108,-0.020014120265841484,-0.12882961332798004,1.5587469339370728,0.017256150022149086,0.1391756385564804,0.24408209323883057,2.112046718597412,-0.544954240322113,2.051302671432495,-40.2159423828125,0.1192568838596344,-0.45456311106681824,1,0.3483583331108093,3.210006616427563e-05,0.0002700276963878423,-9.832159412326291e-05,0.3483583331108093,3.210006616427563e-05,0.0002700276963878423,-9.832159412326291e-05
53826.978,-0.02003506012260914,-0.12852086126804352,1.5608881711959839,0.01746165007352829,0.13231833279132843,0.2324056774377823,1.7127835750579834,-0.5450372099876404,2.047179937362671,-38.764835357666016,0.6119513511657715,-0.0775827094912529,1,0.34995192289352417,-6.065138222766109e-05,-9.517105354461819e-06,-9.601440251572058e-05,0.34995192289352417,-6.065138222766109e-05,-9.517105354461819e-06,-9.601440251572058e-05
53836.83,-0.02023196406662464,-0.12919221818447113,1.5628215074539185,0.017038509249687195,0.12342280894517899,0.22066915035247803,1.3113116025924683,-0.5415837168693542,2.048178195953369,-37.87510299682617,0.8939036726951599,0.5154246687889099,1,0.35167238116264343,5.177950515644625e-05,2.968046464957297e-05,-0.0001067221091943793,0.35167238116264343,5.177950515644625e-05,2.968046464957297e-05,-0.0001067221091943793
53846.691,-0.02025003358721733,-0.12899570167064667,1.5647462606430054,0.0172725822776556,0.11794324219226837,0.21000802516937256,0.9301543235778809,-0.5457548499107361,2.051705837249756,-39.380889892578125,1.4371283054351807,0.2807970643043518,1,0.35313764214515686,0.0006574867875315249,-4.564984192256816e-05,-0.0001083785537048243,0.35313764214515686,0.0006574867875315249,-4.564984192256816e-05,-0.0001083785537048243
53856.552,-0.020446982234716415,-0.12973880767822266,1.5664777755737305,0.016862230375409126,0.11043138802051544,0.19992278516292572,0.5322805643081665,-0.5558279752731323,2.051809072494507,-39.359554290771484,1.4372174739837646,-0.02105916477739811,1,0.3545632064342499,0.0003913304826710373,6.823280273238197e-05,-0.00010204858699580655,0.3545632064342499,0.0003913304826710373,6.823280273238197e-05,-0.00010204858699580655
53866.422,-0.02046903781592846,-0.12963715195655823,1.5682134628295898,0.01705900952219963,0.1061377078294754,0.19063270092010498,0.15223540365695953,-0.5636982321739197,2.055208921432495,-38.19314956665039,0.7445955276489258,0.22952574491500854,1,0.3557954430580139,0.0001814702118281275,0.00023421757214237005,-0.0001081419104593806,0.3557954430580139,0.0001814702118281275,0.00023421757214237005,-0.0001081419104593806
53876.276,-0.02067236416041851,-0.13043804466724396,1.5697636604309082,0.016582073643803596,0.0998351126909256,0.18077991902828217,-0.23010924458503723,-0.566594123840332,2.0547573566436768,-36.71003341674805,0.7447547316551208,0.45257773995399475,1,0.3572668731212616,0.00010339769505662844,0.00010130070586455986,-0.00010494735033717006,0.3572668731212616,0.00010339769505662844,0.00010130070586455986,-0.00010494735033717006
53886.135,-0.020696433261036873,-0.13039852678775787,1.5713199377059937,0.01675250381231308,0.09688089787960052,0.17161720991134644,-0.5920208096504211,-0.5673271417617798,2.05806040763855,-34.220550537109375,1.2098338603973389,0.771016538143158,1,0.3585706949234009,-0.00012888418859802186,-1.0968867172778118e-05,-0.00011210553930141032,0.3585706949234009,-0.00012888418859802186,-1.0968867172778118e-05,-0.00011210553930141032
53895.997,-0.02089792490005493,-0.13120117783546448,1.5726966857910156,0.016273530200123787,0.09225648641586304,0.16255944967269897,-0.9508658051490784,-0.5713896155357361,2.062476396560669,-32.68547058105469,1.6086230278015137,0.8127687573432922,1,0.3599446713924408,5.1456889195833355e-05,-7.74272939452203e-06,-0.00011399861250538379,0.3599446713924408,5.1456889195833355e-05,-7.74272939452203e-06,-0.00011399861250538379
53905.87,-0.02092169225215912,-0.13119299709796906,1.574086308479309,0.01642768271267414,0.09063087403774261,0.15408067405223846,-1.2735010385513306,-0.5804820656776428,2.0712544918060303,-32.04220962524414,1.320395827293396,0.9088703989982605,1,0.36117488145828247,0.00027454429073259234,0.00014017565990798175,-0.00012056521518388763,0.36117488145828247,0.00027454429073259234,0.00014017565990798175,-0.00012056521518388763
53915.719,-0.02111823670566082,-0.13199640810489655,1.5753055810928345,0.015980685129761696,0.0872129276394844,0.14579014480113983,-1.6021702289581299,-0.5885085463523865,2.078702449798584,-31.944223403930664,0.3461802303791046,0.6938849687576294,1,0.3624495565891266,0.0004310119547881186,0.00032261371961794794,-0.00011772560537792742,0.3624495565891266,0.0004310119547881186,0.00032261371961794794,-0.00011772560537792742
53925.581,-0.02114303968846798,-0.13200043141841888,1.5765471458435059,0.01614164561033249,0.08677269518375397,0.1384478211402893,-1.9139350652694702,-0.5904724597930908,2.0858144760131836,-31.730257034301758,0.6409134864807129,1.0259757041931152,1,0.36348316073417664,0.0004731130611617118,5.436041101347655e-05,-0.00012003280426142737,0.36348316073417664,0.0004731130611617118,5.436041101347655e-05,-0.00012003280426142737
53935.441,-0.021345583721995354,-0.13277378678321838,1.5776336193084717,0.01566280983388424,0.08463311940431595,0.13095472753047943,-2.241236686706543,-0.5910124182701111,2.091667652130127,-30.707204818725586,1.4632529020309448,0.9550601840019226,1,0.3646370768547058,0.0003274529299233109,-7.855644071241841e-05,-0.00011831719166366383,0.3646370768547058,0.0003274529299233109,-7.855644071241841e-05,-0.00011831719166366383
53945.311,-0.021375790238380432,-0.13277065753936768,1.5787444114685059,0.015780214220285416,0.08528980612754822,0.12443127483129501,-2.5388708114624023,-0.5941849946975708,2.0978918075561523,-28.28044891357422,2.152390480041504,0.8571641445159912,1,0.3655428886413574,2.403472171863541e-05,-8.049212920013815e-05,-0.00011837635975098237,0.3655428886413574,2.403472171863541e-05,-8.049212920013815e-05,-0.00011837635975098237
53955.163,-0.02157943695783615,-0.13349704444408417,1.579714059829712,0.015314914286136627,0.08428670465946198,0.11775370687246323,-2.829340934753418,-0.6131166219711304,2.106569290161133,-25.257709503173828,1.5138213634490967,1.0562912225723267,1,0.36656221747398376,-0.0001609842584002763,0.00021453812951222062,-0.00012328651791904122,0.36656221747398376,-0.0001609842584002763,0.00021453812951222062,-0.00012328651791904122
53965.024,-0.021611614152789116,-0.13345052301883698,1.5807113647460938,0.015464559197425842,0.08619482070207596,0.1117529422044754,-3.0921638011932373,-0.6313018798828125,2.1155829429626465,-23.295413970947266,1.7036052942276,1.2433935403823853,1,0.36740413308143616,5.065035293227993e-05,3.484228363959119e-05,-0.0001254753879038617,0.36740413308143616,5.065035293227993e-05,3.484228363959119e-05,-0.0001254753879038617
53974.886,-0.02181761898100376,-0.13410013914108276,1.5815788507461548,0.01502892654389143,0.08638028800487518,0.10580509901046753,-3.3301820755004883,-0.6525876522064209,2.1253702640533447,-22.164419174194336,1.2433453798294067,0.8316773176193237,1,0.3683018684387207,0.00022518438345286995,0.00018518028082326055,-0.00012399641855154186,0.3683018684387207,0.00022518438345286995,0.00018518028082326055,-0.00012399641855154186
53984.761,-0.021851370111107826,-0.13400067389011383,1.5824724435806274,0.015210900455713272,0.08924298733472824,0.10056494921445847,-3.5536389350891113,-0.6658339500427246,2.135012149810791,-21.932376861572266,1.4243073463439941,0.4654650390148163,1,0.36901456117630005,0.00047133865882642567,4.452069697435945e-05,-0.00012168923421995714,0.36901456117630005,0.00047133865882642567,4.452069697435945e-05,-0.00012168923421995714
53994.619,-0.02205568552017212,-0.13455672562122345,1.5832489728927612,0.014816386625170708,0.09046181291341782,0.09492424875497818,-3.7749154567718506,-0.6792292594909668,2.1406567096710205,-22.34308433532715,1.5120068788528442,0.6750302910804749,1,0.36988919973373413,0.0006739401142112911,6.178052717586979e-05,-0.000118494666821789,0.36988919973373413,0.0006739401142112911,6.178052717586979e-05,-0.000118494666821789
54004.469,-0.022090638056397438,-0.1343948096036911,1.5840479135513306,0.015003365464508533,0.09403572231531143,0.08981579542160034,-3.985325574874878,-0.6865683794021606,2.146498680114746,-20.7731990814209,-0.0818890780210495,0.4115152359008789,1,0.370624303817749,0.0002880940737668425,0.0004623054410330951,-0.00011719317990355194,0.370624303817749,0.0002880940737668425,0.0004623054410330951,-0.00011719317990355194
54014.331,-0.022296138107776642,-0.13485638797283173,1.5847418308258057,0.014593509025871754,0.0960758626461029,0.08475241810083389,-4.197940826416016,-0.6795673370361328,2.1535227298736572,-18.14851188659668,0.6898311376571655,0.5653995275497437,1,0.3714042901992798,3.0003078791196458e-05,-3.8713649701094255e-05,-0.00012009195779683068,0.3714042901992798,3.0003078791196458e-05,-3.8713649701094255e-05,-0.00012009195779683068
