timestamp,stateEstimate.x,stateEstimate.y,stateEstimate.z,stateEstimate.vx,stateEstimate.vy,stateEstimate.vz,stateEstimate.roll,stateEstimate.pitch,stateEstimate.yaw,gyro.x,gyro.y,gyro.z,ILBC.nominal_controller,ILBC.nominal_thrust,ILBC.nominal_torqueX,ILBC.nominal_torqueY,ILBC.nominal_torqueZ,ILBC.full_thrust,ILBC.full_torqueX,ILBC.full_torqueY,ILBC.full_torqueZ
15032.264,0.03145553916692734,-0.796078622341156,0.7050067186355591,0.043347619473934174,0.08493882417678833,-0.003147548297420144,-1.4893449544906616,0.5302972197532654,0.9142113924026489,-0.12034069746732712,0.17476005852222443,0.0836821049451828,1,0.0,0.0,0.0,0.0,0.0,0.0,0.0,0.0
15042.112,0.03189739212393761,-0.7952154874801636,0.704974353313446,0.045024335384368896,0.08769268542528152,-0.003329220227897167,-1.48959219455719,0.5278024673461914,0.912820041179657,-0.12101203948259354,0.19385044276714325,0.015457302331924438,1,0.0,0.0,0.0,0.0,0.0,0.0,0.0,0.0
15051.977,0.03153504803776741,-0.7959584593772888,0.7049990892410278,0.04387804493308067,0.08540599793195724,-0.0034161158837378025,-1.5014451742172241,0.5325114727020264,0.9217607378959656,0.15459974110126495,-0.08614332973957062,-0.011495259590446949,1,0.0,0.0,0.0,0.0,0.0,0.0,0.0,0.0
15061.839,0.031681615859270096,-0.7956829071044922,0.7049859166145325,0.044190458953380585,0.08625022321939468,-0.0037236695643514395,-1.4987971782684326,0.5326312780380249,0.9200746417045593,-0.031226370483636856,0.016694732010364532,0.034276142716407776,1,0.0,0.0,0.0,0.0,0.0,0.0,0.0,0.0
15071.707,0.03155913203954697,-0.7959368228912354,0.7049923539161682,0.04361829534173012,0.08554651588201523,-0.0037716820370405912,-1.5026904344558716,0.5347353219985962,0.9223330020904541,-0.0022036945447325706,-0.05237806215882301,-0.08087638765573502,1,0.0,0.0,0.0,0.0,0.0,0.0,0.0,0.0
15209.787,0.031215474009513855,-0.795971155166626,0.7055830359458923,0.028417285531759262,0.085997074842453,0.04170887917280197,-2.563007116317749,0.5449804663658142,0.8291803598403931,-115.6470947265625,-0.4256373643875122,-2.647596836090088,1,0.6374089121818542,0.005285541992634535,-0.0007326558115892112,-2.543819618949783e-06,0.6374089121818542,0.005285541992634535,-0.0007326558115892112,-2.543819618949783e-06
15219.648,0.031198367476463318,-0.7956920862197876,0.7061790227890015,0.026080232113599777,0.09002823382616043,0.07193498313426971,-3.5955700874328613,0.5449267625808716,0.8100913763046265,-127.14004516601562,-7.840126037597656,-2.0879647731781006,1,0.6314435601234436,0.0032717871945351362,0.0015149940736591816,3.490357130431221e-06,0.6314435601234436,0.0032717871945351362,0.0015149940736591816,3.490357130431221e-06
15229.522,0.030881043523550034,-0.79581218957901,0.7072087526321411,0.022557543590664864,0.0966619923710823,0.11033423990011215,-4.8923139572143555,0.6190506815910339,0.7951257824897766,-112.33210754394531,-16.466569900512695,-2.9242334365844727,1,0.6233945488929749,-0.002315076068043709,0.002148768864572048,4.910163625027053e-06,0.6233945488929749,-0.002315076068043709,0.002148768864572048,4.910163625027053e-06
15239.371,0.03080986998975277,-0.7953827381134033,0.7085736989974976,0.019773878157138824,0.1075519472360611,0.1551666557788849,-6.07137393951416,0.7562746405601501,0.7857977747917175,-82.01782989501953,-16.67799949645996,-1.604116678237915,1,0.6136835813522339,-0.005285541992634535,0.0005105362506583333,-1.100349982152693e-05,0.6136835813522339,-0.005285541992634535,0.0005105362506583333,-1.100349982152693e-05
15249.232,0.030419940128922462,-0.7952780723571777,0.7105550169944763,0.015314403921365738,0.12105946242809296,0.20463316142559052,-7.026421546936035,0.9493967890739441,0.7850525975227356,-65.90284729003906,-7.7934675216674805,0.6848242282867432,1,0.6027499437332153,-0.00394379161298275,-0.0016038742614910007,-3.792066127061844e-05,0.6027499437332153,-0.00394379161298275,-0.0016038742614910007,-3.792066127061844e-05
15259.093,0.030268488451838493,-0.7945610880851746,0.7128905653953552,0.011477760039269924,0.13787606358528137,0.2551364600658417,-7.71558952331543,1.0587079524993896,0.7960745096206665,-73.82222747802734,-2.312286615371704,1.6367559432983398,1,0.5914841294288635,0.0013851422118023038,-0.0010870469268411398,-5.9809342928929254e-05,0.5914841294288635,0.0013851422118023038,-0.0010870469268411398,-5.9809342928929254e-05
15268.962,0.029786035418510437,-0.7942537665367126,0.7157707810401917,0.006316330283880234,0.15423327684402466,0.3055715262889862,-8.388042449951172,1.0948954820632935,0.8146219849586487,-100.49604797363281,-3.083258867263794,0.22896955907344818,1,0.5801602602005005,0.005285541992634535,0.0002519613190088421,-5.9986818087054417e-05,0.5801602602005005,0.005285541992634535,0.0002519613190088421,-5.9986818087054417e-05
15278.815,0.029550321400165558,-0.7931921482086182,0.71910560131073,0.0022351706866174936,0.17430052161216736,0.3535457253456116,-9.273160934448242,1.120466947555542,0.8281503319740295,-118.1247329711914,-8.812580108642578,1.0185902118682861,1,0.5693751573562622,0.005285541992634535,0.0015180589398369193,-5.992765727569349e-05,0.5693751573562622,0.005285541992634535,0.0015180589398369193,-5.992765727569349e-05
15288.679,0.02898021787405014,-0.7923391461372375,0.723166823387146,-0.003254337003454566,0.1961493045091629,0.40092790126800537,-10.431476593017578,1.2002805471420288,0.8488461971282959,-112.71317291259766,-13.831693649291992,0.9003869295120239,1,0.5586663484573364,0.000936708995141089,0.0016401681350544095,-6.891976954648271e-05,0.5586663484573364,0.000936708995141089,0.0016401681350544095,-6.891976954648271e-05
15298.536,0.028643613681197166,-0.7908405065536499,0.7274407744407654,-0.007882164791226387,0.22150453925132751,0.4476367235183716,-11.579564094543457,1.3254358768463135,0.8803552389144897,-86.82445526123047,-12.10102367401123,1.3987427949905396,1,0.5480550527572632,-0.003954760264605284,0.00027631866396404803,-8.725892985239625e-05,0.5480550527572632,-0.003954760264605284,0.00027631866396404803,-8.725892985239625e-05
15308.404,0.027961935847997665,-0.7894741892814636,0.7324779629707336,-0.01415698416531086,0.24909932911396027,0.49410733580589294,-12.57773494720459,1.4737954139709473,0.9191138744354248,-61.79334259033203,-6.4680914878845215,1.1368446350097656,1,0.5374336242675781,-0.00454901484772563,-0.0006507118814624846,-9.613272413844243e-05,0.5374336242675781,-0.00454901484772563,-0.0006507118814624846,-9.613272413844243e-05
15318.255,0.027509262785315514,-0.7874320149421692,0.7376466989517212,-0.019479461014270782,0.27855363488197327,0.5358573794364929,-13.264246940612793,1.5579107999801636,0.9480326771736145,-58.233909606933594,-0.8078249096870422,-0.009008447639644146,1,0.527920663356781,-0.00019614915072452277,-0.0008241167524829507,-7.70244951127097e-05,0.527920663356781,-0.00019614915072452277,-0.0008241167524829507,-7.70244951127097e-05
15328.116,0.026995396241545677,-0.7849610447883606,0.7434270977973938,-0.024891916662454605,0.3096335232257843,0.5735803246498108,-13.855093002319336,1.5949678421020508,0.9561272859573364,-75.45562744140625,-0.26958033442497253,-0.9775437712669373,1,0.5193501114845276,0.004842431750148535,0.00023373366275336593,-4.466473910724744e-05,0.5193501114845276,0.004842431750148535,0.00023373366275336593,-4.466473910724744e-05
15337.983,0.026725562289357185,-0.7817035913467407,0.7493268251419067,-0.029070978984236717,0.34227433800697327,0.6060213446617126,-14.536288261413574,1.598527193069458,0.9498936533927917,-95.20945739746094,-3.5973527431488037,-0.3168441355228424,1,0.5120409727096558,0.005285541992634535,0.0011744752991944551,-3.129489778075367e-05,0.5120409727096558,0.005285541992634535,0.0011744752991944551,-3.129489778075367e-05
15347.848,0.025144943967461586,-0.7798569202423096,0.7569056749343872,-0.038647446781396866,0.37365278601646423,0.6408529877662659,-15.586652755737305,1.669454574584961,0.9497048854827881,-94.59021759033203,-5.689512252807617,-0.0420536994934082,1,0.5040872693061829,0.002841742942109704,0.001103500253520906,-4.0760274714557454e-05,0.5040872693061829,0.002841742942109704,0.001103500253520906,-4.0760274714557454e-05
15357.699,0.02443467453122139,-0.7763529419898987,0.7637671828269958,-0.04413849860429764,0.4087589979171753,0.6696082949638367,-16.567520141601562,1.7305346727371216,0.9621792435646057,-74.03008270263672,-0.6351064443588257,0.17072144150733948,1,0.49759742617607117,-0.0015488684875890613,-0.00048456579679623246,-5.856701318407431e-05,0.49759742617607117,-0.0015488684875890613,-0.00048456579679623246,-5.856701318407431e-05
15367.56,0.02338230609893799,-0.7731993198394775,0.7708266377449036,-0.050867240875959396,0.44274890422821045,0.6974388957023621,-17.338930130004883,1.7659670114517212,0.96595698595047,-46.14253616333008,7.406668663024902,0.6586210131645203,1,0.4912954866886139,-0.0037516748998314142,-0.0013512675650417805,-5.140882058185525e-05,0.4912954866886139,-0.0037516748998314142,-0.0013512675650417805,-5.140882058185525e-05
15377.42,0.022551894187927246,-0.7690092921257019,0.7782432436943054,-0.056400660425424576,0.4803631901741028,0.7233806252479553,-17.857177734375,1.7143784761428833,0.9506056308746338,-28.634607315063477,12.129591941833496,0.9230000972747803,1,0.48542332649230957,-0.0020061733666807413,-0.0008468610467389226,-2.8869395464425907e-05,0.48542332649230957,-0.0020061733666807413,-0.0008468610467389226,-2.8869395464425907e-05
15387.29,0.02138422429561615,-0.7651731371879578,0.7857716679573059,-0.06282921135425568,0.5151045322418213,0.7454900741577148,-18.157930374145508,1.618033528327942,0.9227148294448853,-28.860883712768555,10.544842720031738,1.581471562385559,1,0.4804685115814209,0.0018689013086259365,0.0005126332398504019,-1.6801041056169197e-05,0.4804685115814209,0.0018689013086259365,0.0005126332398504019,-1.6801041056169197e-05
15397.143,0.020440561696887016,-0.7602705955505371,0.7936293482780457,-0.06772684305906296,0.5521321892738342,0.7646414637565613,-18.45220947265625,1.5193147659301758,0.901339054107666,-39.65387725830078,4.4182634353637695,2.0550835132598877,1,0.47621867060661316,0.004740485921502113,0.0016883988864719868,-2.739043156907428e-05,0.47621867060661316,0.004740485921502113,0.0016883988864719868,-2.739043156907428e-05
15407.005,0.019167955964803696,-0.7557682394981384,0.8014985918998718,-0.073433056473732,0.5861207246780396,0.7806642055511475,-18.827865600585938,1.4758070707321167,0.9023134112358093,-43.689029693603516,0.8870283365249634,3.1129651069641113,1,0.47272077202796936,0.003850072156637907,0.001346105826087296,-6.27081171842292e-05,0.47272077202796936,0.003850072156637907,0.001346105826087296,-6.27081171842292e-05
15416.875,0.018114767968654633,-0.750155508518219,0.8096807599067688,-0.07805455476045609,0.6235430240631104,0.7962440252304077,-19.270124435424805,1.4605841636657715,0.9258805513381958,-31.18558120727539,4.014039516448975,4.046207904815674,1,0.46930956840515137,0.00035713339457288384,-8.484741556458175e-05,-9.849906200543046e-05,0.46930956840515137,0.00035713339457288384,-8.484741556458175e-05,-9.849906200543046e-05
15426.739,0.01673273742198944,-0.7449644804000854,0.817822277545929,-0.08381055295467377,0.6588019132614136,0.810702383518219,-19.599815368652344,1.4310884475708008,0.9475600719451904,-4.501259803771973,14.114925384521484,3.5346057415008545,1,0.46615487337112427,-0.003274851944297552,-0.0018550290260463953,-9.347058221464977e-05,0.46615487337112427,-0.003274851944297552,-0.0018550290260463953,-9.347058221464977e-05
15436.587,0.015579324215650558,-0.738642692565918,0.8263015747070312,-0.08821740746498108,0.6973575353622437,0.8261796832084656,-19.688236236572266,1.2991653680801392,0.9386621713638306,18.691843032836914,22.270313262939453,3.509974956512451,1,0.4627244770526886,-0.0032442037481814623,-0.0017885705456137657,-5.495833829627372e-05,0.4627244770526886,-0.0032442037481814623,-0.0017885705456137657,-5.495833829627372e-05
15446.447,0.01410848367959261,-0.7327596545219421,0.8346951603889465,-0.09344211965799332,0.7326959371566772,0.8391439914703369,-19.531673431396484,1.1018075942993164,0.9057047963142395,26.654680252075195,21.98682403564453,2.85528302192688,1,0.4598979353904724,-0.00031164486426860094,-8.081473788479343e-05,-1.90490682143718e-05,0.4598979353904724,-0.00031164486426860094,-8.081473788479343e-05,-1.90490682143718e-05
15456.308,0.012871639803051949,-0.7257319688796997,0.8434380888938904,-0.09698252379894257,0.7695051431655884,0.8515927195549011,-19.261667251586914,0.8835147023200989,0.8608784079551697,18.95159339904785,14.12998104095459,3.2527973651885986,1,0.45718076825141907,0.003323727985844016,0.0017398558557033539,-5.205956313147908e-06,0.45718076825141907,0.003323727985844016,0.0017398558557033539,-5.205956313147908e-06
15466.18,0.011330540291965008,-0.719207227230072,0.8520312905311584,-0.10121254622936249,0.8023692965507507,0.8610778450965881,-19.051401138305664,0.7423622608184814,0.8449215888977051,10.073624610900879,6.581630706787109,3.923145055770874,1,0.45518428087234497,0.004077998921275139,0.0019895590376108885,-4.5197168219601735e-05,0.45518428087234497,0.004077998921275139,0.0019895590376108885,-4.5197168219601735e-05
15476.028,0.00991096906363964,-0.7106620073318481,0.8618411421775818,-0.10432044416666031,0.8409979939460754,0.871733546257019,-18.919694900512695,0.6516945958137512,0.8612512350082397,12.647995948791504,7.8017449378967285,3.8088080883026123,1,0.45288169384002686,0.0018790635513141751,0.00018501895829103887,-8.518837421434e-05,0.45288169384002686,0.0018790635513141751,0.00018501895829103887,-8.518837421434e-05
15485.893,0.008167233318090439,-0.7022830247879028,0.8719079494476318,-0.1081659123301506,0.8774895071983337,0.8828299641609192,-18.74580955505371,0.5512171983718872,0.8747013211250305,31.623348236083984,15.12934398651123,4.4628095626831055,1,0.45045337080955505,-0.0020040764939039946,-0.0013243294088169932,-8.690397226018831e-05,0.45045337080955505,-0.0020040764939039946,-0.0013243294088169932,-8.690397226018831e-05
15495.752,0.00678964052349329,-0.6939378976821899,0.8809281587600708,-0.11071178317070007,0.9117274284362793,0.8928005695343018,-18.390560150146484,0.3789544999599457,0.8635960221290588,54.58538055419922,23.755496978759766,4.930111885070801,1,0.44828933477401733,-0.0036060151178389788,-0.0019489094847813249,-5.921775664319284e-05,0.44828933477401733,-0.0036060151178389788,-0.0019489094847813249,-5.921775664319284e-05
15505.624,0.0051251803524792194,-0.6862917542457581,0.8895888328552246,-0.11402729153633118,0.9420376420021057,0.8996530175209045,-17.843753814697266,0.13927702605724335,0.8357710838317871,66.51983642578125,27.50094223022461,4.005025386810303,1,0.446888267993927,-0.001807443331927061,-0.0011396330082789063,-3.0762472306378186e-05,0.446888267993927,-0.001807443331927061,-0.0011396330082789063,-3.0762472306378186e-05
15515.481,0.0037031997926533222,-0.6773284673690796,0.8987877368927002,-0.11558312177658081,0.9738191962242126,0.9082778692245483,-17.174392700195312,-0.1327877640724182,0.7892594933509827,61.96636199951172,24.14863395690918,3.137711763381958,1,0.4450348913669586,0.0017364684026688337,0.0003806842432823032,5.324273502083088e-07,0.4450348913669586,0.0017364684026688337,0.0003806842432823032,5.324273502083088e-07
15525.336,0.001875498564913869,-0.6677194237709045,0.9091296792030334,-0.11748025566339493,1.004793643951416,0.917209267616272,-16.495952606201172,-0.3849767744541168,0.7594955563545227,51.270172119140625,16.39661979675293,3.590257406234741,1,0.4430922269821167,0.003437449224293232,0.0015485459007322788,-2.2184472982189618e-05,0.4430922269821167,0.003437449224293232,0.0015485459007322788,-2.2184472982189618e-05
15535.194,0.0004290981451049447,-0.6582324504852295,0.9184154868125916,-0.1180386170744896,1.0331600904464722,0.9238575100898743,-15.994084358215332,-0.5339727997779846,0.7581574320793152,47.26951217651367,9.370532989501953,3.6332714557647705,1,0.44170576333999634,0.002307978691533208,0.0016683968715369701,-5.773879092885181e-05,0.44170576333999634,0.002307978691533208,0.0016683968715369701,-5.773879092885181e-05
15545.071,-0.0013034807052463293,-0.6491884589195251,0.9278361797332764,-0.11935971677303314,1.0585006475448608,0.9311508536338806,-15.502857208251953,-0.6302933692932129,0.7736461758613586,57.14458465576172,10.13558578491211,3.8381290435791016,1,0.4401485323905945,-0.0008454092894680798,7.081371586536989e-05,-8.081064152065665e-05,0.4401485323905945,-0.0008454092894680798,7.081371586536989e-05,-8.081064152065665e-05
15554.913,-0.0027653281576931477,-0.6391933560371399,0.9372554421424866,-0.11942922323942184,1.0853742361068726,0.9390245079994202,-14.887018203735352,-0.7564953565597534,0.775804877281189,76.54151153564453,17.661060333251953,3.551593542098999,1,0.43843570351600647,-0.0035292329266667366,-0.001611294224858284,-6.235315959202126e-05,0.43843570351600647,-0.0035292329266667366,-0.001611294224858284,-6.235315959202126e-05
15564.774,-0.004606745671480894,-0.6286026835441589,0.9477708339691162,-0.11991502344608307,1.1112860441207886,0.948244571685791,-13.991056442260742,-0.9909796118736267,0.7599550485610962,91.45313262939453,26.43988609313965,3.427583932876587,1,0.43637529015541077,-0.0032843691296875477,-0.0022547473199665546,-3.8453086744993925e-05,0.43637529015541077,-0.0032843691296875477,-0.0022547473199665546,-3.8453086744993925e-05
15574.635,-0.0048639061860740185,-0.6294069290161133,0.9477748870849609,-0.1207297295331955,1.1085373163223267,0.947901725769043,-13.991056442260742,-0.9909796118736267,0.7599550485610962,90.48211669921875,27.705223083496094,1.4128732681274414,1,0.43668654561042786,-5.7102628488792107e-05,-0.0007837900775484741,-4.383651685202494e-05,0.43668654561042786,-5.7102628488792107e-05,-0.0007837900775484741,-4.383651685202494e-05
15584.505,-0.0077683767303824425,-0.6084175705909729,0.9668840169906616,-0.11888568848371506,1.1535731554031372,0.9617063999176025,-12.20000171661377,-1.5128881931304932,0.6933532953262329,78.83306121826172,16.979732513427734,1.337662696838379,1,0.43346932530403137,0.0024070211220532656,0.0019564907997846603,4.2239240428898484e-05,0.43346932530403137,0.0024070211220532656,0.0019564907997846603,4.2239240428898484e-05
15594.356,-0.008021127432584763,-0.6092588901519775,0.9668937921524048,-0.11968106776475906,1.1506911516189575,0.9613699316978455,-12.20000171661377,-1.5128881931304932,0.6933532953262329,65.81034851074219,8.943516731262207,1.8284882307052612,1,0.43375900387763977,0.003197263227775693,0.0017477598739787936,-4.3954838474746794e-05,0.43375900387763977,0.003197263227775693,0.0017477598739787936,-4.3954838474746794e-05
15604.221,-0.010884376242756844,-0.5875511169433594,0.9862543344497681,-0.11615878343582153,1.1889255046844482,0.9730609059333801,-10.825634002685547,-1.7293000221252441,0.6914217472076416,66.2952651977539,6.438846111297607,2.1635608673095703,1,0.4310489594936371,0.00035745601053349674,0.0006899095023982227,-4.3895681301364675e-05,0.4310489594936371,0.00035745601053349674,0.0006899095023982227,-4.3895681301364675e-05
15614.085,-0.012289218604564667,-0.5764637589454651,0.9960361123085022,-0.11399555951356888,1.2061011791229248,0.9800925254821777,-10.132115364074707,-1.8246512413024902,0.691012978553772,78.22860717773438,15.052343368530273,1.4727762937545776,1,0.4294837713241577,-0.002493481384590268,-0.0019211648032069206,-4.087858906132169e-05,0.4294837713241577,-0.002493481384590268,-0.0019211648032069206,-4.087858906132169e-05
15623.948,-0.013918161392211914,-0.5661435127258301,1.0059177875518799,-0.11239088326692581,1.2191613912582397,0.9873937964439392,-9.306343078613281,-2.014697551727295,0.6857630610466003,92.50904083251953,23.150537490844727,1.8331741094589233,1,0.427840918302536,-0.0036636015865951777,-0.0021837723907083273,-3.721075700013898e-05,0.427840918302536,-0.0036636015865951777,-0.0021837723907083273,-3.721075700013898e-05
15633.8,-0.014159289188683033,-0.5670478343963623,1.005944848060608,-0.11313853412866592,1.216202974319458,0.987031102180481,-9.312437057495117,-2.0196776390075684,0.6906492710113525,96.51531982421875,27.141948699951172,1.6033602952957153,1,0.4280989170074463,-0.001770826755091548,-0.0015122517943382263,-4.8391731979791075e-05,0.4280989170074463,-0.001770826755091548,-0.0015122517943382263,-4.8391731979791075e-05
15643.665,-0.01683632656931877,-0.5443065166473389,1.0258820056915283,-0.10707968473434448,1.2427358627319336,0.9999775290489197,-7.433483123779297,-2.5386784076690674,0.6547625064849854,86.1935806274414,21.02475929260254,0.6067605018615723,1,0.42503753304481506,0.0013107794802635908,0.0006360328989103436,1.0766865671030246e-05,0.42503753304481506,0.0013107794802635908,0.0006360328989103436,1.0766865671030246e-05
15653.525,-0.017066307365894318,-0.5452520847320557,1.0259183645248413,-0.1077190488576889,1.239630103111267,0.9996681213378906,-7.438933849334717,-2.5454156398773193,0.6577529311180115,71.66204833984375,10.401477813720703,0.25651684403419495,1,0.42526349425315857,0.002718827221542597,0.0019782674498856068,-3.514020863804035e-05,0.42526349425315857,0.002718827221542597,0.0019782674498856068,-3.514020863804035e-05
15663.393,-0.019606851041316986,-0.5221925973892212,1.046112298965454,-0.09983070939779282,1.2589962482452393,1.0110806226730347,-5.948667049407959,-2.8054845333099365,0.6493118405342102,64.96337127685547,3.387171983718872,0.5312854647636414,1,0.4225659966468811,0.0014482131227850914,0.0014498260570690036,-2.2539425117429346e-05,0.4225659966468811,0.0014482131227850914,0.0014498260570690036,-2.2539425117429346e-05
15673.243,-0.01983736641705036,-0.5231742262840271,1.0461630821228027,-0.10053060203790665,1.2557933330535889,1.0108369588851929,-5.954677581787109,-2.810950994491577,0.6539639830589294,70.57566833496094,6.084749698638916,0.10009998083114624,1,0.422759085893631,-0.0012875513639301062,-0.0006108690868131816,-3.596842725528404e-05,0.422759085893631,-0.0012875513639301062,-0.0006108690868131816,-3.596842725528404e-05
15683.104,-0.02222198247909546,-0.49991169571876526,1.0666269063949585,-0.09176641702651978,1.2700680494308472,1.024540662765503,-4.552963733673096,-2.9436709880828857,0.656143307685852,83.45259094238281,13.880074501037598,-0.08452283591032028,1,0.41091132164001465,-0.0032427518162876368,-0.002015045378357172,-3.1649848097003996e-05,0.41091132164001465,-0.0032427518162876368,-0.002015045378357172,-3.1649848097003996e-05
15692.964,-0.022448796778917313,-0.5009388327598572,1.0666941404342651,-0.09241314977407455,1.2666362524032593,1.0244395732879639,-4.555429935455322,-2.950800895690918,0.6612038016319275,91.8944091796875,20.63863182067871,0.11801202595233917,1,0.4115046262741089,-0.002722214674577117,-0.002075857948511839,-3.691496385727078e-05,0.4115046262741089,-0.002722214674577117,-0.002075857948511839,-3.691496385727078e-05
15702.839,-0.024651862680912018,-0.4775935411453247,1.0874621868133545,-0.08273345977067947,1.2752206325531006,1.0382722616195679,-2.7789885997772217,-3.3356754779815674,0.6458229422569275,88.3750228881836,18.201969146728516,-0.48922210931777954,1,0.39827194809913635,-0.0002653497795108706,-0.0002545422175899148,-6.566604042745894e-06,0.39827194809913635,-0.0002653497795108706,-0.0002545422175899148,-6.566604042745894e-06
15712.686,-0.02487511746585369,-0.47865885496139526,1.0875375270843506,-0.0833975076675415,1.2717148065567017,1.0382075309753418,-2.7829980850219727,-3.342404365539551,0.6521622538566589,75.95316314697266,10.068719863891602,-0.4600790739059448,1,0.3987500071525574,0.0019985921680927277,0.0012259321520105004,-3.407535041333176e-05,0.3987500071525574,0.0019985921680927277,0.0012259321520105004,-3.407535041333176e-05
15722.55,-0.02687857113778591,-0.4553747773170471,1.108564853668213,-0.07249012589454651,1.2732830047607422,1.0481184720993042,-1.2350481748580933,-3.5771546363830566,0.6458907723426819,64.70513153076172,1.2583690881729126,-0.05236809328198433,1,0.38626357913017273,0.0021342511754482985,0.0016156495548784733,-2.1060459403088316e-05,0.38626357913017273,0.0021342511754482985,0.0016156495548784733,-2.1060459403088316e-05
15732.41,-0.02779991365969181,-0.4437761902809143,1.1191518306732178,-0.06681108474731445,1.271916151046753,1.052204966545105,-0.6099759936332703,-3.579799175262451,0.6494545936584473,63.027984619140625,-1.6204127073287964,-0.25667986273765564,1,0.38035106658935547,0.00025567138800397515,0.0005100523121654987,-3.19456412398722e-05,0.38035106658935547,0.00025567138800397515,0.0005100523121654987,-3.19456412398722e-05
15742.277,-0.028886929154396057,-0.43337470293045044,1.1298751831054688,-0.06174762174487114,1.2657274007797241,1.056264042854309,0.039458297193050385,-3.5829532146453857,0.65928715467453,71.9360122680664,2.1872832775115967,-0.012784531340003014,1,0.37432917952537537,-0.0023053977638483047,-0.0010120392544195056,-4.194344364805147e-05,0.37432917952537537,-0.0023053977638483047,-0.0010120392544195056,-4.194344364805147e-05
15752.129,-0.02910238690674305,-0.4345114529132843,1.1299681663513184,-0.062378935515880585,1.2620937824249268,1.0563054084777832,0.03286134824156761,-3.588581085205078,0.6638609766960144,82.73925018310547,8.700342178344727,0.6194829344749451,1,0.37457767128944397,-0.0031580657232552767,-0.0018167991656810045,-4.010952761746012e-05,0.37457767128944397,-0.0031580657232552767,-0.0018167991656810045,-4.010952761746012e-05
15761.994,-0.030655503273010254,-0.41168642044067383,1.151365876197815,-0.05076304078102112,1.253228783607483,1.0622286796569824,1.6361347436904907,-3.748675584793091,0.6901535391807556,85.78951263427734,10.8627347946167,1.1877527236938477,1,0.36270585656166077,-0.0018855159869417548,-0.0011233410332351923,-7.22918048268184e-05,0.36270585656166077,-0.0018855159869417548,-0.0011233410332351923,-7.22918048268184e-05
15771.859,-0.030867086723446846,-0.4128749668598175,1.1514708995819092,-0.05134667083621025,1.2492878437042236,1.0624377727508545,1.635491132736206,-3.7556827068328857,0.6956593990325928,77.16574096679688,6.717997074127197,0.9230021238327026,1,0.36281219124794006,0.0007773378165438771,0.00031793583184480667,-4.484221790335141e-05,0.36281219124794006,0.0007773378165438771,0.00031793583184480667,-4.484221790335141e-05
15781.721,-0.032191723585128784,-0.3904319405555725,1.1729375123977661,-0.03934628143906593,1.2348310947418213,1.0627007484436035,3.1931076049804688,-3.905076742172241,0.7276483774185181,64.1246109008789,-2.1092960834503174,0.27951833605766296,1,0.35222312808036804,0.002001172862946987,0.0015204785158857703,-7.45398283470422e-05,0.35222312808036804,0.002001172862946987,0.0015204785158857703,-7.45398283470422e-05
15791.583,-0.03276676684617996,-0.3793756663799286,1.1836649179458618,-0.033281128853559494,1.2256087064743042,1.0609225034713745,3.796495199203491,-3.8696322441101074,0.7343888282775879,55.345977783203125,-7.141539096832275,0.16011790931224823,1,0.3474257290363312,0.0014290174003690481,0.0009354185312986374,-4.265335155650973e-05,0.3474257290363312,0.0014290174003690481,0.0009354185312986374,-4.265335155650973e-05
15801.433,-0.033498089760541916,-0.3696950078010559,1.1944767236709595,-0.02790725603699684,1.2116050720214844,1.0588276386260986,4.335163593292236,-3.8026959896087646,0.739695131778717,56.61991882324219,-7.640757083892822,0.2816363275051117,1,0.34262481331825256,-0.000746366917155683,3.290659878985025e-05,-4.194344364805147e-05,0.34262481331825256,-0.000746366917155683,3.290659878985025e-05,-4.194344364805147e-05
15811.297,-0.03395581245422363,-0.3589227795600891,1.205168604850769,-0.02203398384153843,1.2003666162490845,1.0559861660003662,4.9292755126953125,-3.745387315750122,0.7415099143981934,65.19342803955078,-3.005239248275757,0.5166699886322021,1,0.3380298316478729,-0.0026465614791959524,-0.0012073818361386657,-3.939962334698066e-05,0.3380298316478729,-0.0026465614791959524,-0.0012073818361386657,-3.939962334698066e-05
15821.165,-0.034570805728435516,-0.34959936141967773,1.2159423828125,-0.01695416495203972,1.1841332912445068,1.052215337753296,5.605195999145508,-3.7388858795166016,0.7573275566101074,71.78199768066406,-0.26345640420913696,1.160590410232544,1,0.33358699083328247,-0.002663821680471301,-0.0009605824016034603,-6.205736281117424e-05,0.33358699083328247,-0.002663821680471301,-0.0009605824016034603,-6.205736281117424e-05
15831.018,-0.03492014855146408,-0.33913320302963257,1.226549506187439,-0.011364537291228771,1.1712020635604858,1.0465054512023926,6.318539142608643,-3.7509353160858154,0.7735047340393066,69.60189056396484,0.42510300874710083,1.000267505645752,1,0.3296734392642975,-0.0009352571796625853,-0.0006103851483203471,-6.211652362253517e-05,0.3296734392642975,-0.0009352571796625853,-0.0006103851483203471,-6.211652362253517e-05
15840.883,-0.03541898354887962,-0.3301736116409302,1.237209439277649,-0.006327452138066292,1.1529372930526733,1.0397210121154785,6.972472667694092,-3.757326126098633,0.7917680144309998,59.094791412353516,-3.33196759223938,0.6755684614181519,1,0.3259672522544861,0.0010049417614936829,0.00040875159902498126,-6.318138184724376e-05,0.3259672522544861,0.0010049417614936829,0.00040875159902498126,-6.318138184724376e-05
15850.738,-0.0356224849820137,-0.33150482177734375,1.237322449684143,-0.0068625351414084435,1.148579478263855,1.0401504039764404,6.972958564758301,-3.7634544372558594,0.796011209487915,48.13829040527344,-9.391161918640137,0.954395592212677,1,0.32570359110832214,0.0014945081202313304,0.0011212440440431237,-4.797762449015863e-05,0.32570359110832214,0.0014945081202313304,0.0011212440440431237,-4.797762449015863e-05
15860.609,-0.036059048026800156,-0.31152957677841187,1.2581785917282104,0.00402566883713007,1.1175367832183838,1.022741675376892,7.968620777130127,-3.6127967834472656,0.7980830073356628,41.030094146728516,-12.167889595031738,0.47497260570526123,1,0.3195159435272217,0.000817019259557128,0.000546023715287447,-4.194344364805147e-05,0.3195159435272217,0.000817019259557128,0.000546023715287447,-4.194344364805147e-05
15870.459,-0.036199115216732025,-0.30180761218070984,1.2684673070907593,0.009253337979316711,1.1010935306549072,1.012947916984558,8.38014030456543,-3.498776912689209,0.7916826605796814,43.41013717651367,-10.284737586975098,0.9980964660644531,1,0.3166535496711731,-0.001274646958336234,-0.0004721451841760427,-3.490357266855426e-05,0.3166535496711731,-0.001274646958336234,-0.0004721451841760427,-3.490357266855426e-05
15880.321,-0.03649568557739258,-0.29368555545806885,1.2787697315216064,0.013778715394437313,1.0795435905456543,1.0031226873397827,8.82650089263916,-3.4188971519470215,0.7978466749191284,48.183998107910156,-6.382234573364258,1.0967029333114624,1,0.3137650489807129,-0.0020927952136844397,-0.0010423649800941348,-5.146798139321618e-05,0.3137650489807129,-0.0020927952136844397,-0.0010423649800941348,-5.146798139321618e-05
15890.191,-0.03654038906097412,-0.28438839316368103,1.2888567447662354,0.018644090741872787,1.06172776222229,0.9921570420265198,9.32079792022705,-3.369948387145996,0.8035600781440735,50.477779388427734,-3.8591742515563965,1.4365160465240479,1,0.3112415075302124,-0.0018037334084510803,-0.0008852521423250437,-5.359768692869693e-05,0.3112415075302124,-0.0018037334084510803,-0.0008852521423250437,-5.359768692869693e-05
15900.05,-0.036756355315446854,-0.28594550490379333,1.2887436151504517,0.018044374883174896,1.0569969415664673,0.9915786981582642,9.308614730834961,-3.375688076019287,0.8080593347549438,45.71932601928711,-5.006748676300049,1.5367275476455688,1,0.31120365858078003,-0.00023712110123597085,-9.51710608205758e-05,-5.306525781634264e-05,0.31120365858078003,-0.00023712110123597085,-9.51710608205758e-05,-5.306525781634264e-05
15909.908,-0.036729078739881516,-0.268278568983078,1.3081121444702148,0.027246816083788872,1.0195447206497192,0.9634448289871216,10.201461791992188,-3.278467893600464,0.8199918270111084,35.96788024902344,-9.657943725585938,1.020264744758606,1,0.308298796415329,0.0009307406144216657,0.0007647558231838048,-5.915859583183192e-05,0.308298796415329,0.0009307406144216657,0.0007647558231838048,-5.915859583183192e-05
15919.762,-0.03694285452365875,-0.26983511447906494,1.3080416917800903,0.026682160794734955,1.0147168636322021,0.9631586074829102,10.193694114685059,-3.2837207317352295,0.8217256665229797,26.157608032226562,-14.165752410888672,0.8371210098266602,1,0.3081311583518982,0.0012909388169646263,0.0009226752445101738,-4.525632903096266e-05,0.3081311583518982,0.0012909388169646263,0.0009226752445101738,-4.525632903096266e-05
15929.623,-0.03707323595881462,-0.26286637783050537,1.3174911737442017,0.03063434176146984,0.9903157353401184,0.9473820924758911,10.50298023223877,-3.1823346614837646,0.8156411051750183,22.534603118896484,-15.874091148376465,0.2856694757938385,1,0.3070683777332306,4.984382394468412e-05,0.0004305280453991145,-3.1413215765496716e-05,0.3070683777332306,4.984382394468412e-05,0.0004305280453991145,-3.1413215765496716e-05
15939.502,-0.03715714439749718,-0.2558123767375946,1.3271876573562622,0.03440307453274727,0.966277003288269,0.933127760887146,10.742837905883789,-3.0436017513275146,0.7971503138542175,24.942584991455078,-13.76324462890625,0.7020717263221741,1,0.3054872751235962,-0.0013838517479598522,-0.00041117120417766273,-1.8161688785767183e-05,0.3054872751235962,-0.0013838517479598522,-0.00041117120417766273,-1.8161688785767183e-05
15949.344,-0.03696034476161003,-0.24672438204288483,1.3374478816986084,0.03899956867098808,0.9444888830184937,0.916607141494751,10.9969482421875,-2.884394407272339,0.7732508182525635,28.999277114868164,-10.502816200256348,0.8761159181594849,1,0.304171085357666,-0.001966975862160325,-0.0007655623485334218,-1.1713402273016982e-05,0.304171085357666,-0.001966975862160325,-0.0007655623485334218,-1.1713402273016982e-05
15959.205,-0.036916475743055344,-0.2389782816171646,1.3480732440948486,0.042630236595869064,0.9187168478965759,0.9016891717910767,11.304429054260254,-2.7555675506591797,0.7553288340568542,29.188358306884766,-7.647854804992676,1.449228286743164,1,0.30225494503974915,-0.0013356208801269531,-0.0007897584000602365,-2.2421108951675706e-05,0.30225494503974915,-0.0013356208801269531,-0.0007897584000602365,-2.2421108951675706e-05
15969.065,-0.03668590635061264,-0.23140396177768707,1.3570098876953125,0.04623350501060486,0.8976610898971558,0.8844216465950012,11.60264778137207,-2.676178216934204,0.7518841028213501,23.188199996948242,-8.527587890625,1.6173166036605835,1,0.3017479479312897,4.226239980198443e-05,-7.0975020207697526e-06,-4.14701753470581e-05,0.3017479479312897,4.226239980198443e-05,-7.0975020207697526e-06,-4.14701753470581e-05
15978.938,-0.03661693260073662,-0.2251502424478531,1.3662705421447754,0.04915495961904526,0.872697651386261,0.8687108159065247,11.86760425567627,-2.602412223815918,0.7557327151298523,13.269556999206543,-11.090360641479492,1.6942286491394043,1,0.30067965388298035,0.0010899505577981472,0.0004350445815362036,-5.129050259711221e-05,0.30067965388298035,0.0010899505577981472,0.0004350445815362036,-5.129050259711221e-05
15988.799,-0.03633060306310654,-0.21803289651870728,1.3748375177383423,0.05243219807744026,0.8513014912605286,0.8500105738639832,12.026782035827637,-2.507659435272217,0.7543548941612244,5.026760101318359,-13.793442726135254,1.6183964014053345,1,0.3006891906261444,0.0010005864314734936,0.0005723167560063303,-4.4191470806254074e-05,0.3006891906261444,0.0010005864314734936,0.0005723167560063303,-4.4191470806254074e-05
15998.649,-0.03616305813193321,-0.21148978173732758,1.3844592571258545,0.05535111948847771,0.8241620063781738,0.8308691382408142,12.107381820678711,-2.3676934242248535,0.7461232542991638,2.570512056350708,-15.321870803833008,1.1354725360870361,1,0.3002738654613495,-0.00017372748698107898,0.00041278425487689674,-3.19456412398722e-05,0.3002738654613495,-0.00017372748698107898,0.00041278425487689674,-3.19456412398722e-05
16008.51,-0.03582529351115227,-0.20492017269134521,1.3925800323486328,0.05827545002102852,0.802207887172699,0.8112852573394775,12.131787300109863,-2.2233686447143555,0.7309301495552063,3.9605040550231934,-12.961295127868652,1.06039559841156,1,0.3007082939147949,-0.0010673674987629056,-0.00045214311103336513,-2.21253158088075e-05,0.3007082939147949,-0.0010673674987629056,-0.00045214311103336513,-2.21253158088075e-05
16018.386,-0.03566872701048851,-0.19977794587612152,1.400895595550537,0.06028803065419197,0.7761463522911072,0.7940598726272583,12.162969589233398,-2.088083267211914,0.7107939124107361,6.318421363830566,-10.774333953857422,0.9177261590957642,1,0.30045264959335327,-0.001464182510972023,-0.0004852110578212887,-1.4138904589344747e-05,0.30045264959335327,-0.001464182510972023,-0.0004852110578212887,-1.4138904589344747e-05
16028.23,-0.03529202938079834,-0.19369947910308838,1.4086428880691528,0.06274764984846115,0.7539235949516296,0.774462103843689,12.225791931152344,-1.9830377101898193,0.6989017724990845,5.153133869171143,-9.46292495727539,0.6076598167419434,1,0.3010641932487488,-0.0007868549437262118,-0.00035503640538081527,-2.165204750781413e-05,0.3010641932487488,-0.0007868549437262118,-0.00035503640538081527,-2.165204750781413e-05
16038.091,-0.03510653227567673,-0.18904314935207367,1.4165334701538086,0.06433852761983871,0.7279119491577148,0.7562758922576904,12.282051086425781,-1.8843481540679932,0.6862807273864746,0.6056755185127258,-9.712909698486328,1.1133373975753784,1,0.3012491464614868,-3.9842798287281767e-05,-1.7098529497161508e-05,-2.384091385465581e-05,0.3012491464614868,-3.9842798287281767e-05,-1.7098529497161508e-05,-2.384091385465581e-05
16047.955,-0.034697432070970535,-0.18342751264572144,1.4238784313201904,0.0664343610405922,0.705980122089386,0.7353427410125732,12.296276092529297,-1.7972195148468018,0.6815794110298157,-7.539544582366943,-11.713797569274902,1.7862825393676758,1,0.3023865520954132,0.0009429999045096338,0.0004206883313599974,-3.827561522484757e-05,0.3023865520954132,0.0009429999045096338,0.0004206883313599974,-3.827561522484757e-05
16057.824,-0.034486014395952225,-0.17926722764968872,1.431329369544983,0.06773791462182999,0.6798243522644043,0.7164408564567566,12.237634658813477,-1.6887093782424927,0.6725696325302124,-14.27374267578125,-13.18977165222168,1.6187807321548462,1,0.3029649257659912,0.0008342791115865111,0.00039181439206004143,-3.13540585921146e-05,0.3029649257659912,0.0008342791115865111,0.00039181439206004143,-3.13540585921146e-05
16067.684,-0.03404562920331955,-0.17413835227489471,1.438269019126892,0.06960846483707428,0.6576876044273376,0.6955459713935852,12.114672660827637,-1.5650113821029663,0.6592265367507935,-17.470640182495117,-13.321595191955566,1.8100706338882446,1,0.30429336428642273,0.00020582755678333342,0.00014082089182920754,-2.6798843464348465e-05,0.30429336428642273,0.00020582755678333342,0.00014082089182920754,-2.6798843464348465e-05
16077.539,-0.03381805866956711,-0.1704578548669815,1.4452725648880005,0.0705094113945961,0.6317811608314514,0.6761791706085205,11.944583892822266,-1.4329133033752441,0.6483848094940186,-16.56354331970215,-11.143146514892578,1.966628074645996,1,0.3052108585834503,-0.0007315266411751509,-0.0003874590911436826,-3.0584993510274217e-05,0.3052108585834503,-0.0007315266411751509,-0.0003874590911436826,-3.0584993510274217e-05
16087.394,-0.03335994854569435,-0.16578933596611023,1.4517983198165894,0.07198682427406311,0.6099917888641357,0.6558330059051514,11.777944564819336,-1.3228635787963867,0.6420044898986816,-14.525633811950684,-9.214601516723633,2.018592119216919,1,0.3066113293170929,-0.0010796268470585346,-0.00040197669295594096,-3.620506322477013e-05,0.3066113293170929,-0.0010796268470585346,-0.00040197669295594096,-3.620506322477013e-05
16097.269,-0.03312463313341141,-0.16257306933403015,1.4583560228347778,0.07243145257234573,0.5845174789428711,0.6365426778793335,11.626602172851562,-1.2239346504211426,0.6407485604286194,-15.144219398498535,-7.438094139099121,2.079246759414673,1,0.30773547291755676,-0.0006008680793456733,-0.00042375316843390465,-4.300830187276006e-05,0.30773547291755676,-0.0006008680793456733,-0.00042375316843390465,-4.300830187276006e-05
16107.126,-0.03265940770506859,-0.15836217999458313,1.4644725322723389,0.07351310551166534,0.5632488131523132,0.6156032681465149,11.486417770385742,-1.1508562564849854,0.6456087827682495,-18.775102615356445,-8.7308988571167,2.0893571376800537,1,0.30949297547340393,0.00010597860818961635,0.000253090460319072,-5.087639146950096e-05,0.30949297547340393,0.00010597860818961635,0.000253090460319072,-5.087639146950096e-05
16116.985,-0.032419197261333466,-0.15559089183807373,1.4705772399902344,0.07368075847625732,0.5382243394851685,0.5961725115776062,11.311046600341797,-1.0669879913330078,0.65004962682724,-24.462392807006836,-9.576910972595215,1.7594571113586426,1,0.31088560819625854,0.0006721657700836658,0.00021469942294061184,-4.821425682166591e-05,0.31088560819625854,0.0006721657700836658,0.00021469942294061184,-4.821425682166591e-05
16126.839,-0.03194621950387955,-0.15181849896907806,1.4762765169143677,0.07456351071596146,0.5173658132553101,0.5755490064620972,11.089798927307129,-0.9766955375671387,0.6508317589759827,-29.2724666595459,-11.84257698059082,1.7924902439117432,1,0.3127819299697876,0.0006603903020732105,0.0006042555323801935,-4.3954838474746794e-05,0.3127819299697876,0.0006603903020732105,0.0006042555323801935,-4.3954838474746794e-05
16136.709,-0.03171209245920181,-0.14947760105133057,1.4819329977035522,0.07446322590112686,0.49287980794906616,0.5561747550964355,10.80673599243164,-0.8620966672897339,0.6467039585113525,-29.873517990112305,-12.314746856689453,1.8299123048782349,1,0.31439483165740967,-0.0002171190280932933,0.0002892232150770724,-3.797981844400056e-05,0.31439483165740967,-0.0002171190280932933,0.0002892232150770724,-3.797981844400056e-05
16146.56,-0.031240958720445633,-0.14612405002117157,1.4872242212295532,0.0750017762184143,0.472701758146286,0.5363487005233765,10.51288890838623,-0.7454836964607239,0.6372120380401611,-29.512170791625977,-9.396888732910156,1.8233520984649658,1,0.3163081407546997,-0.000438270770246163,-0.0004913407028652728,-3.088078665314242e-05,0.3163081407546997,-0.000438270770246163,-0.0004913407028652728,-3.088078665314242e-05
16156.421,-0.031011903658509254,-0.14417530596256256,1.4924455881118774,0.0745992511510849,0.44911542534828186,0.5176871418952942,10.211613655090332,-0.6436470150947571,0.6301762461662292,-28.258142471313477,-6.6150221824646,2.171030044555664,1,0.31797316670417786,-0.0007176542421802878,-0.0005505403387360275,-3.61459024134092e-05,0.31797316670417786,-0.0007176542421802878,-0.0005505403387360275,-3.61459024134092e-05
16166.283,-0.030543802306056023,-0.14122353494167328,1.4973459243774414,0.07483301311731339,0.42976003885269165,0.4986487329006195,9.931903839111328,-0.571678102016449,0.6350312232971191,-29.896984100341797,-5.022555351257324,2.1934866905212402,1,0.3198985457420349,-8.452479960396886e-05,-0.0003640696231741458,-5.129050259711221e-05,0.3198985457420349,-8.452479960396886e-05,-0.0003640696231741458,-5.129050259711221e-05
16176.161,-0.03032531403005123,-0.13964299857616425,1.502145528793335,0.074106864631176,0.4073081612586975,0.4799931049346924,9.628641128540039,-0.5143553614616394,0.643700897693634,-33.217472076416016,-5.82794189453125,2.3691463470458984,1,0.32178646326065063,0.0003429384087212384,0.00016840438183862716,-5.7679633755469695e-05,0.32178646326065063,0.0003429384087212384,0.00016840438183862716,-5.7679633755469695e-05
16186.004,-0.02987123839557171,-0.13706843554973602,1.5066581964492798,0.07405520230531693,0.38896146416664124,0.46099400520324707,9.305182456970215,-0.456540584564209,0.6574196815490723,-37.09865951538086,-7.951601982116699,2.1418867111206055,1,0.32391107082366943,0.0006092560361139476,0.0005297317402437329,-6.294474587775767e-05,0.32391107082366943,0.0006092560361139476,0.0005297317402437329,-6.294474587775767e-05
16195.87,-0.029676640406250954,-0.1358446329832077,1.5110467672348022,0.0730961486697197,0.36729881167411804,0.4432373046875,8.944357872009277,-0.3803675174713135,0.6686126589775085,-38.90290069580078,-9.274428367614746,1.84031081199646,1,0.3257969319820404,0.00023276581487152725,0.00044520694063976407,-5.815290569444187e-05,0.3257969319820404,0.00023276581487152725,0.00044520694063976407,-5.815290569444187e-05
16205.738,-0.029237233102321625,-0.13363105058670044,1.5151888132095337,0.07285002619028091,0.34984779357910156,0.42535942792892456,8.55905532836914,-0.28565406799316406,0.6747823357582092,-38.93659210205078,-9.00705623626709,1.8562730550765991,1,0.32784420251846313,-0.00010968866990879178,0.00013436861627269536,-5.235535718384199e-05,0.32784420251846313,-0.00010968866990879178,0.00013436861627269536,-5.235535718384199e-05
16215.604,-0.02906796522438526,-0.1327289640903473,1.5191895961761475,0.07156051695346832,0.32946228981018066,0.4083883762359619,8.15771770477295,-0.18879440426826477,0.6775282025337219,-38.07801818847656,-6.247130870819092,1.6407595872879028,1,0.3297448456287384,-0.00034116406459361315,-0.000448433100245893,-4.667613757192157e-05,0.3297448456287384,-0.00034116406459361315,-0.000448433100245893,-4.667613757192157e-05
16225.448,-0.02865130454301834,-0.13085700571537018,1.522985577583313,0.07102860510349274,0.3129754364490509,0.3917446434497833,7.786133289337158,-0.11435519903898239,0.6826847195625305,-37.21299743652344,-4.314992427825928,1.9045697450637817,1,0.3316745162010193,-0.0003663279057946056,-0.00034229314769618213,-5.1763774536084384e-05,0.3316745162010193,-0.0003663279057946056,-0.00034229314769618213,-5.1763774536084384e-05
16235.306,-0.028507808223366737,-0.1302613466978073,1.5266269445419312,0.06946957111358643,0.293704092502594,0.37592241168022156,7.407452583312988,-0.0633741170167923,0.6957125067710876,-37.74923324584961,-3.329838514328003,2.104898452758789,1,0.33348509669303894,-8.178258576663211e-05,-0.0001696948311291635,-6.3595492974855e-05,0.33348509669303894,-8.178258576663211e-05,-0.0001696948311291635,-6.3595492974855e-05
16245.168,-0.02811773493885994,-0.12869615852832794,1.5300928354263306,0.06868840008974075,0.2784712314605713,0.3597293198108673,7.037694931030273,-0.025354161858558655,0.707179844379425,-41.062538146972656,-3.080493927001953,1.348385214805603,1,0.33548396825790405,0.000626677181571722,-2.1292506062309258e-05,-5.679225068888627e-05,0.33548396825790405,0.000626677181571722,-2.1292506062309258e-05,-5.679225068888627e-05
16255.039,-0.028003906831145287,-0.12837591767311096,1.533388376235962,0.06697382777929306,0.2604755461215973,0.34422171115875244,6.628800392150879,0.010579153895378113,0.7155302166938782,-43.77695083618164,-4.0361480712890625,1.4841867685317993,1,0.3374062776565552,0.0006084495107643306,0.00027938347193412483,-5.424843402579427e-05,0.3374062776565552,0.0006084495107643306,0.00027938347193412483,-5.424843402579427e-05
16264.888,-0.027640465646982193,-0.1271059364080429,1.5365405082702637,0.06610596925020218,0.24628189206123352,0.32898715138435364,6.212072372436523,0.05315409600734711,0.723980188369751,-43.83705520629883,-5.693508625030518,2.032628059387207,1,0.3393411338329315,0.00010517208283999935,0.0005003738915547729,-5.868532753083855e-05,0.3393411338329315,0.00010517208283999935,0.0005003738915547729,-5.868532753083855e-05
16274.749,-0.027562526986002922,-0.12703891098499298,1.5395135879516602,0.06423286348581314,0.22952435910701752,0.31448230147361755,5.769898891448975,0.10653547942638397,0.7360497713088989,-42.646175384521484,-6.147156238555908,1.9808071851730347,1,0.3411925137042999,-0.0001893742592073977,0.00030148253426887095,-6.329969619400799e-05,0.3411925137042999,-0.0001893742592073977,0.00030148253426887095,-6.329969619400799e-05
16284.611,-0.027230285108089447,-0.12602269649505615,1.5423719882965088,0.06317991018295288,0.21673375368118286,0.30049195885658264,5.347322940826416,0.17348971962928772,0.7466430068016052,-42.25706100463867,-3.9177401065826416,1.1230123043060303,1,0.3429816961288452,-7.0975020207697526e-06,-0.00030922525911591947,-5.590487489826046e-05,0.3429816961288452,-7.0975020207697526e-06,-0.00030922525911591947,-5.590487489826046e-05
16294.482,-0.027192628011107445,-0.12616734206676483,1.5450502634048462,0.061014313250780106,0.2015436738729477,0.2871153950691223,4.915927410125732,0.22778452932834625,0.7526767253875732,-41.606082916259766,-1.4639983177185059,1.6774816513061523,1,0.34471631050109863,-7.629814354004338e-05,-0.00042601145105436444,-5.442590918391943e-05,0.34471631050109863,-7.629814354004338e-05,-0.00042601145105436444,-5.442590918391943e-05
16304.334,-0.026876773685216904,-0.1253700852394104,1.5476360321044922,0.06001943349838257,0.19028139114379883,0.2739028334617615,4.501412868499756,0.2408229112625122,0.7684023976325989,-42.58400344848633,1.0064126253128052,1.5857489109039307,1,0.34646451473236084,0.0003326147561892867,-0.0005227955407463014,-6.649426359217614e-05,0.34646451473236084,0.0003326147561892867,-0.0005227955407463014,-6.649426359217614e-05
16314.194,-0.0268255528062582,-0.1256849616765976,1.5500322580337524,0.05847661942243576,0.1767747849225998,0.2611512541770935,4.061131954193115,0.21018598973751068,0.7920622229576111,-43.353485107421875,0.3799187242984772,1.2194807529449463,1,0.34820088744163513,0.00034229314769618213,0.00012952940596733242,-7.483562512788922e-05,0.34820088744163513,0.00034229314769618213,0.00012952940596733242,-7.483562512788922e-05
16324.064,-0.02656407654285431,-0.1251116544008255,1.5523693561553955,0.05714486911892891,0.1665899157524109,0.24861887097358704,3.6468026638031006,0.2107507735490799,0.800021767616272,-43.812255859375,-1.0353502035140991,0.502781093120575,1,0.34992069005966187,0.00034358364064246416,0.0003518102748785168,-5.058059832663275e-05,0.34992069005966187,0.00034358364064246416,0.0003518102748785168,-5.058059832663275e-05
16333.93,-0.02660875953733921,-0.12562930583953857,1.55451500415802,0.05476715788245201,0.1539587825536728,0.23705369234085083,3.2193121910095215,0.22735625505447388,0.8033153414726257,-42.96817398071289,-2.450345277786255,0.0854516476392746,1,0.35150331258773804,6.742627010680735e-05,0.00042972146184183657,-4.2002604459412396e-05,0.35150331258773804,6.742627010680735e-05,0.00042972146184183657,-4.2002604459412396e-05
16343.78,-0.026386963203549385,-0.1252356469631195,1.5566192865371704,0.05335669964551926,0.1450883448123932,0.22639785706996918,2.802626609802246,0.25614386796951294,0.8005905151367188,-41.92899703979492,-1.6701432466506958,0.07964503765106201,1,0.3528875708580017,3.8068421417847276e-05,-3.01643849525135e-05,-3.4371147194178775e-05,0.3528875708580017,3.8068421417847276e-05,-3.01643849525135e-05,-3.4371147194178775e-05
16353.641,-0.026423713192343712,-0.12575674057006836,1.5587412118911743,0.05082992836833,0.13354387879371643,0.21495099365711212,2.3449270725250244,0.29152587056159973,0.7928107976913452,-41.34511184692383,-0.5434581637382507,0.09519559890031815,1,0.35446685552597046,0.00014098219980951399,-0.00011952838394790888,-2.7922857043449767e-05,0.35446685552597046,0.00014098219980951399,-0.00011952838394790888,-2.7922857043449767e-05
16363.496,-0.026246165856719017,-0.12552297115325928,1.5606191158294678,0.0492837019264698,0.12621204555034637,0.20502755045890808,1.9425551891326904,0.3062138855457306,0.7900267243385315,-41.44602584838867,0.9704274535179138,0.753728985786438,1,0.3557957708835602,0.0003390670462977141,-0.00024696081527508795,-3.868972635245882e-05,0.3557957708835602,0.0003390670462977141,-0.00024696081527508795,-3.868972635245882e-05
16373.368,-0.026378147304058075,-0.1262773871421814,1.5623060464859009,0.04674533009529114,0.11698020994663239,0.19500990211963654,1.518255352973938,0.30871549248695374,0.7842992544174194,-41.58503723144531,1.9269365072250366,1.1304832696914673,1,0.3572501540184021,0.0003906852216459811,-0.0001545319682918489,-3.744739296962507e-05,0.3572501540184021,0.0003906852216459811,-0.0001545319682918489,-3.744739296962507e-05
16383.232,-0.02623819373548031,-0.12616248428821564,1.5639960765838623,0.04519529640674591,0.11102761328220367,0.18561747670173645,1.1174042224884033,0.2928738296031952,0.7880450487136841,-40.645973205566406,2.3455052375793457,1.2352728843688965,1,0.35855427384376526,0.00019824615446850657,-5.823177707497962e-05,-5.016649083700031e-05,0.35855427384376526,0.00019824615446850657,-5.823177707497962e-05,-5.016649083700031e-05
16393.081,-0.02640489861369133,-0.1269962638616562,1.5654973983764648,0.042786601930856705,0.10316434502601624,0.17629189789295197,0.7105732560157776,0.2673588693141937,0.7996944785118103,-39.989341735839844,2.3355400562286377,1.2661302089691162,1,0.3599424660205841,0.0002701889898162335,4.016541060991585e-05,-6.075587953091599e-05,0.3599424660205841,0.0002701889898162335,4.016541060991585e-05,-6.075587953091599e-05
16402.939,-0.02628643997013569,-0.12686672806739807,1.5671130418777466,0.04131656885147095,0.09945127367973328,0.16822552680969238,0.29276809096336365,0.2505040168762207,0.8035098314285278,-39.291927337646484,2.5286636352539062,1.2295374870300293,1,0.36096644401550293,0.0003150323173031211,-4.1939788388845045e-06,-5.0935552280861884e-05,0.36096644401550293,0.0003150323173031211,-4.1939788388845045e-06,-5.0935552280861884e-05
16412.81,-0.026501575484871864,-0.1277463138103485,1.5684372186660767,0.03883826360106468,0.09312988072633743,0.15967975556850433,-0.10683088004589081,0.23335392773151398,0.814675509929657,-38.32268142700195,2.5400209426879883,1.119369387626648,1,0.36226046085357666,0.0002700276963878423,4.661768252844922e-05,-5.9809342928929254e-05,0.36226046085357666,0.0002700276963878423,4.661768252844922e-05,-5.9809342928929254e-05
16422.67,-0.026420366019010544,-0.12768730521202087,1.56988525390625,0.037412360310554504,0.09075646847486496,0.1523069590330124,-0.5051119923591614,0.21617454290390015,0.8184223771095276,-37.25782775878906,2.732814311981201,1.0745214223861694,1,0.36320656538009644,0.00029164282022975385,6.452275101764826e-06,-5.0462283979868516e-05,0.36320656538009644,0.00029164282022975385,6.452275101764826e-06,-5.0462283979868516e-05
16432.534,-0.026366984471678734,-0.1276889443397522,1.5712223052978516,0.03593713045120239,0.08868270367383957,0.14477746188640594,-0.8779222965240479,0.19736485183238983,0.824893057346344,-35.571319580078125,3.4463160037994385,1.6222598552703857,1,0.3642515540122986,0.00017727624799590558,-0.0001229158224305138,-5.803458043374121e-05,0.3642515540122986,0.00017727624799590558,-0.0001229158224305138,-5.803458043374121e-05
16442.382,-0.026674527674913406,-0.12868905067443848,1.5722439289093018,0.03324531018733978,0.0836346447467804,0.13636565208435059,-1.206990122795105,0.17910194396972656,0.82997727394104,-34.504215240478516,5.863335132598877,1.8578001260757446,1,0.36567947268486023,0.000297449849313125,-0.0005474755307659507,-5.821205922984518e-05,0.36567947268486023,0.000297449849313125,-0.0005474755307659507,-5.821205922984518e-05
16452.253,-0.0269815344363451,-0.12960274517536163,1.5732609033584595,0.030679339542984962,0.0798892006278038,0.1286046952009201,-1.5502204895019531,0.14033842086791992,0.8419265747070312,-33.527896881103516,5.280460357666016,2.2790169715881348,1,0.366955041885376,0.00032729163649491966,9.146099910140038e-05,-7.02804172760807e-05,0.366955041885376,0.00032729163649491966,9.146099910140038e-05,-7.02804172760807e-05
16462.106,-0.026982035487890244,-0.12960682809352875,1.5744012594223022,0.029375502839684486,0.08003769814968109,0.12202093005180359,-1.9043012857437134,0.09232809394598007,0.8591793179512024,-32.02665328979492,3.362891912460327,2.121802568435669,1,0.3678818941116333,0.00024905780446715653,0.0004350445815362036,-7.649206963833421e-05,0.3678818941116333,0.00024905780446715653,0.0004350445815362036,-7.649206963833421e-05
16471.968,-0.02733089029788971,-0.13050130009651184,1.5752837657928467,0.026898764073848724,0.07755277305841446,0.11495295912027359,-2.2226924896240234,0.07216646522283554,0.8754881620407104,-30.84014320373535,2.99432373046875,2.2229673862457275,1,0.3690629303455353,0.0003176132158841938,0.00015324151900131255,-7.678785914322361e-05,0.3690629303455353,0.0003176132158841938,0.00015324151900131255,-7.678785914322361e-05
16481.84,-0.027344653382897377,-0.13043493032455444,1.576398491859436,0.025687962770462036,0.07896356284618378,0.1082572489976883,-2.5630650520324707,0.03996869549155235,0.8990182876586914,-29.553579330444336,4.80713415145874,1.6769245862960815,1,0.37004122138023376,0.00033922833972610533,-0.0003590690903365612,-8.28811971587129e-05,0.37004122138023376,0.00033922833972610533,-0.0003590690903365612,-8.28811971587129e-05
16491.696,-0.027737058699131012,-0.13130664825439453,1.5771434307098389,0.023326337337493896,0.0775747299194336,0.10153327137231827,-2.854952096939087,-0.0031466735526919365,0.9115528464317322,-27.81698989868164,7.06505012512207,1.8460254669189453,1,0.37121614813804626,0.00023212058295030147,-0.0005306995590217412,-7.099031790858135e-05,0.37121614813804626,0.00023212058295030147,-0.0005306995590217412,-7.099031790858135e-05
16501.549,-0.02781747281551361,-0.131294384598732,1.5780171155929565,0.02220204658806324,0.07979723066091537,0.0961921289563179,-3.139131546020508,-0.0715479850769043,0.9256477952003479,-25.610118865966797,6.891579627990723,1.5177650451660156,1,0.37198808789253235,0.00013259424304123968,-4.226239980198443e-05,-7.122695387806743e-05,0.37198808789253235,0.00013259424304123968,-4.226239980198443e-05,-7.122695387806743e-05
16511.417,-0.028245946392416954,-0.13209788501262665,1.5786643028259277,0.01994825154542923,0.07960033416748047,0.09054652601480484,-3.3925893306732178,-0.13303926587104797,0.9389482140541077,-23.889667510986328,5.840071678161621,1.7583051919937134,1,0.3729529082775116,0.0002137315896106884,0.0001816315489122644,-7.25875943317078e-05,0.3729529082775116,0.0002137315896106884,0.0001816315489122644,-7.25875943317078e-05
16521.277,-0.0283800195902586,-0.1321142166852951,1.5793784856796265,0.018866173923015594,0.0822237879037857,0.08549237251281738,-3.6203885078430176,-0.18367895483970642,0.9500619769096375,-22.682659149169922,4.607048034667969,1.3869035243988037,1,0.3737417161464691,0.00034148662234656513,0.00026438196073286235,-6.773659697500989e-05,0.3737417161464691,0.00034148662234656513,0.00026438196073286235,-6.773659697500989e-05
16531.138,-0.028514787554740906,-0.132041335105896,1.5800882577896118,0.017941666767001152,0.08577942103147507,0.08110624551773071,-3.8549578189849854,-0.2289590835571289,0.9590252041816711,-21.705467224121094,4.094555854797363,1.664280891418457,1,0.3743700683116913,0.00042972146184183657,0.0001363042974844575,-6.744080019416288e-05,0.3743700683116913,0.00042972146184183657,0.0001363042974844575,-6.744080019416288e-05
16540.996,-0.028979331254959106,-0.1327047348022461,1.5806379318237305,0.016001582145690918,0.08710789680480957,0.07643129676580429,-4.068123817443848,-0.27045321464538574,0.9716591238975525,-20.963701248168945,5.302532196044922,1.9267337322235107,1,0.37515348196029663,0.0005015030619688332,-0.0002513160870876163,-7.442151400027797e-05,0.37515348196029663,0.0005015030619688332,-0.0002513160870876163,-7.442151400027797e-05
16550.85,-0.02946249581873417,-0.13331803679466248,1.5811458826065063,0.014080289751291275,0.08898119628429413,0.07207855582237244,-4.284646511077881,-0.32351839542388916,0.9875863790512085,-19.526851654052734,7.106963157653809,2.1083240509033203,1,0.3758813738822937,0.0003624565142672509,-0.00043939988245256245,-8.051484473980963e-05,0.3758813738822937,0.0003624565142672509,-0.00043939988245256245,-8.051484473980963e-05
16560.722,-0.029631763696670532,-0.13310010731220245,1.5817618370056152,0.013437466695904732,0.09400179237127304,0.06869637966156006,-4.491349220275879,-0.39492934942245483,1.0040531158447266,-16.953550338745117,7.779547214508057,2.257080316543579,1,0.3763169050216675,0.00011501179687911645,-0.0002500256523489952,-8.299951150547713e-05,0.3763169050216675,0.00011501179687911645,-0.0002500256523489952,-8.299951150547713e-05
