timestamp,stateEstimate.x,stateEstimate.y,stateEstimate.z,stateEstimate.vx,stateEstimate.vy,stateEstimate.vz,stateEstimate.roll,stateEstimate.pitch,stateEstimate.yaw,gyro.x,gyro.y,gyro.z,ILBC.nominal_controller,ILBC.nominal_thrust,ILBC.nominal_torqueX,ILBC.nominal_torqueY,ILBC.nominal_torqueZ,ILBC.full_thrust,ILBC.full_torqueX,ILBC.full_torqueY,ILBC.full_torqueZ
18732.706,0.029969170689582825,-0.7855255007743835,0.7053110003471375,0.0479399710893631,0.08311127126216888,-6.120412308519008e-06,-1.4147758483886719,0.608320415019989,-2.7596347332000732,0.12332639843225479,0.26560381054878235,-0.001605771598406136,1,0.0,0.0,0.0,0.0,0.0,0.0,0.0,0.0
18742.56,0.030113840475678444,-0.7852733731269836,0.705310583114624,0.04854033514857292,0.08377817273139954,-0.00016193160263355821,-1.4167612791061401,0.6069862842559814,-2.7626450061798096,0.07812406867742538,-0.10480468720197678,-0.007693225517868996,1,0.0,0.0,0.0,0.0,0.0,0.0,0.0,0.0
18752.41,0.029953036457300186,-0.7855482697486877,0.705310583114624,0.048041146248579025,0.08299538493156433,-0.00025353662203997374,-1.414231300354004,0.6072006821632385,-2.7598533630371094,-0.20114384591579437,0.2723037004470825,0.10967525839805603,1,0.0,0.0,0.0,0.0,0.0,0.0,0.0,0.0
18762.276,0.030098751187324524,-0.7852950692176819,0.7053084373474121,0.0484544076025486,0.0837954506278038,-0.0003933188272640109,-1.413936972618103,0.6051269769668579,-2.757233142852783,-0.274494469165802,0.2820552587509155,-0.0844932571053505,1,0.0,0.0,0.0,0.0,0.0,0.0,0.0,0.0
18772.143,0.029938045889139175,-0.7855685949325562,0.7053058743476868,0.04797953739762306,0.08284321427345276,-0.0004811574181076139,-1.4130256175994873,0.6032789349555969,-2.755486011505127,0.062108442187309265,0.04520435258746147,0.18239058554172516,1,0.0,0.0,0.0,0.0,0.0,0.0,0.0,0.0
18900.375,0.029788440093398094,-0.7854554057121277,0.7054504752159119,0.03662661090493202,0.08255068957805634,0.02260507270693779,-1.9718022346496582,0.6142786145210266,-2.902393102645874,-84.25553131103516,-1.886523962020874,-3.780298948287964,1,0.640546441078186,0.005285541992634535,-0.0002714794536586851,0.00019475010049063712,0.640546441078186,0.005285541992634535,-0.0002714794536586851,0.00019475010049063712
18910.23,0.029510853812098503,-0.7856811285018921,0.7058591842651367,0.03346060961484909,0.08414367586374283,0.04894106090068817,-2.7434182167053223,0.6371078491210938,-2.944307804107666,-119.10074615478516,-15.139238357543945,-3.69352388381958,1,0.6355798840522766,0.005285541992634535,0.0023634680546820164,0.0002055169752566144,0.6355798840522766,0.005285541992634535,0.0023634680546820164,0.0002055169752566144
18920.098,0.029513204470276833,-0.7853986024856567,0.7065374851226807,0.031273845583200455,0.08897747099399567,0.08250191062688828,-3.8476946353912354,0.7538150548934937,-2.9791979789733887,-137.0928955078125,-33.63873291015625,-2.2473318576812744,1,0.6287720203399658,0.005047130398452282,0.004205915145576,0.00018812435155268759,0.6287720203399658,0.005047130398452282,0.004205915145576,0.00018812435155268759
18929.964,0.029179885983467102,-0.7854790687561035,0.707676351070404,0.027662061154842377,0.0967273935675621,0.12306588888168335,-5.231046676635742,1.078216552734375,-2.9888558387756348,-121.61397552490234,-40.4920654296875,0.06984615325927734,1,0.6201671957969666,-0.0019895590376108885,0.002241681329905987,0.00014079746324568987,0.6201671957969666,-0.0019895590376108885,0.002241681329905987,0.00014079746324568987
18939.82,0.02914401888847351,-0.7847679257392883,0.7094339728355408,0.02375626750290394,0.11248042434453964,0.17663338780403137,-6.620169639587402,1.5314401388168335,-2.952857732772827,-84.76889038085938,-30.748517990112305,2.5859858989715576,1,0.6082584261894226,-0.005285541992634535,-0.0013512675650417805,6.477866554632783e-05,0.6082584261894226,-0.005285541992634535,-0.0013512675650417805,6.477866554632783e-05
18949.673,0.028707370162010193,-0.7846077680587769,0.7116125226020813,0.018097979947924614,0.12773101031780243,0.22951678931713104,-7.465178489685059,1.8317375183105469,-2.906096935272217,-60.890316009521484,-11.966071128845215,3.9950876235961914,1,0.5964405536651611,-0.005285541992634535,-0.003807971253991127,3.9458784158341587e-05,0.5964405536651611,-0.005285541992634535,-0.003807971253991127,3.9458784158341587e-05
18959.54,0.028545672073960304,-0.7837039232254028,0.7143204212188721,0.013065009377896786,0.14695729315280914,0.28133371472358704,-8.098152160644531,1.9561446905136108,-2.857902765274048,-62.62522506713867,-7.602910041809082,2.796032667160034,1,0.5848100185394287,-0.0002166351187042892,-0.0010015543084591627,4.4191470806254074e-05,0.5848100185394287,-0.0002166351187042892,-0.0010015543084591627,4.4191470806254074e-05
18969.402,0.028001707047224045,-0.7832008004188538,0.7175484895706177,0.006848222576081753,0.1649969220161438,0.32934457063674927,-8.74416446685791,2.047408103942871,-2.8307015895843506,-89.2037124633789,-17.318578720092773,2.2729074954986572,1,0.5740518569946289,0.005285541992634535,0.0023057202342897654,7.288339111255482e-05,0.5740518569946289,0.005285541992634535,0.0023057202342897654,7.288339111255482e-05
18979.262,0.027721084654331207,-0.7818960547447205,0.7212585210800171,0.0015032897936180234,0.1871064305305481,0.3747745454311371,-9.678820610046387,2.232802391052246,-2.783337354660034,-112.50115966796875,-30.187841415405273,2.531053304672241,1,0.5638660192489624,0.005285541992634535,0.003558751894161105,4.401399928610772e-05,0.5638660192489624,0.005285541992634535,0.003558751894161105,4.401399928610772e-05
18989.117,0.02704380266368389,-0.7809906005859375,0.7254253625869751,-0.005511010996997356,0.20911873877048492,0.4206008315086365,-10.788670539855957,2.534532070159912,-2.717381477355957,-111.8561019897461,-29.32539176940918,3.8099136352539062,1,0.553513765335083,0.0019519744673743844,0.000899285776540637,9.110423889069352e-06,0.553513765335083,0.0019519744673743844,0.000899285776540637,9.110423889069352e-06
18998.986,0.026615943759679794,-0.7792039513587952,0.7300838232040405,-0.012193933129310608,0.2369251251220703,0.46622705459594727,-11.927555084228516,2.82722544670105,-2.625250816345215,-89.52594757080078,-18.341386795043945,4.845583438873291,1,0.5431432723999023,-0.0030407956801354885,-0.0014432126190513372,-3.4607779525686055e-05,0.5431432723999023,-0.0030407956801354885,-0.0014432126190513372,-3.4607779525686055e-05
19008.846,0.025782769545912743,-0.7777786254882812,0.7351655960083008,-0.020393623039126396,0.26409444212913513,0.5096049904823303,-12.804609298706055,3.004584550857544,-2.5545153617858887,-64.05751037597656,-3.4981000423431396,4.337810516357422,1,0.5332656502723694,-0.004487073048949242,-0.0026983413845300674,-7.39482447897899e-06,0.5332656502723694,-0.004487073048949242,-0.0026983413845300674,-7.39482447897899e-06
19018.708,0.02520512044429779,-0.7754315137863159,0.7407129406929016,-0.02745523303747177,0.29508671164512634,0.549347460269928,-13.463372230529785,3.041351795196533,-2.5079517364501953,-54.21967697143555,-0.783399760723114,3.7563185691833496,1,0.5242303609848022,-0.0015722580719739199,-0.0002868036099243909,2.4728293283260427e-05,0.5242303609848022,-0.0015722580719739199,-0.0002868036099243909,2.4728293283260427e-05
19028.56,0.02421131171286106,-0.7734577655792236,0.7465786337852478,-0.035652950406074524,0.3236181437969208,0.5849695801734924,-13.999754905700684,3.0600619316101074,-2.483325958251953,-66.10478973388672,-7.558209419250488,2.9545657634735107,1,0.5161637663841248,0.003498423146083951,0.001980203203856945,5.667393634212203e-05,0.5161637663841248,0.003498423146083951,0.001980203203856945,5.667393634212203e-05
19038.419,0.023479633033275604,-0.7705060839653015,0.7528583407402039,-0.04244500398635864,0.35582807660102844,0.6173527240753174,-14.696786880493164,3.1372859477996826,-2.438891887664795,-83.3234634399414,-15.308438301086426,3.9494547843933105,1,0.5088521242141724,0.005285541992634535,0.0025780063588172197,2.3190172214526683e-05,0.5088521242141724,0.005285541992634535,0.0025780063588172197,2.3190172214526683e-05
19048.29,0.022333692759275436,-0.7679465413093567,0.7593544721603394,-0.050543542951345444,0.38578343391418457,0.64622962474823,-15.516119003295898,3.2891743183135986,-2.3733904361724854,-84.44409942626953,-16.0369873046875,4.934688568115234,1,0.5023669600486755,0.0028215795755386353,0.0013131991727277637,-1.271909786737524e-05,0.5023669600486755,0.0028215795755386353,0.0013131991727277637,-1.271909786737524e-05
19058.151,0.02137502282857895,-0.763947606086731,0.7669085264205933,-0.05841296538710594,0.4238516092300415,0.6764375567436218,-16.449953079223633,3.4437549114227295,-2.2810542583465576,-68.37417602539062,-5.091285705566406,4.892601013183594,1,0.49550676345825195,-0.0008296011947095394,-0.001359171699732542,-4.963406172464602e-05,0.49550676345825195,-0.0008296011947095394,-0.001359171699732542,-4.963406172464602e-05
19068.006,0.020056581124663353,-0.7607917189598083,0.7738769054412842,-0.06697864085435867,0.456143856048584,0.7014768719673157,-17.072439193725586,3.470616340637207,-2.234846591949463,-42.527828216552734,8.585744857788086,6.0755228996276855,1,0.4898909628391266,-0.0034932615235447884,-0.002370565664023161,-2.662136694198125e-06,0.4898909628391266,-0.0034932615235447884,-0.002370565664023161,-2.662136694198125e-06
19077.863,0.019002601504325867,-0.7565303444862366,0.7812581062316895,-0.07395915687084198,0.4924149215221405,0.7247887849807739,-17.481828689575195,3.3613288402557373,-2.2118403911590576,-25.784549713134766,15.047900199890137,6.159396171569824,1,0.4846687912940979,-0.0020113352220505476,-0.0011333420407027006,2.4550816306145862e-05,0.4846687912940979,-0.0020113352220505476,-0.0011333420407027006,2.4550816306145862e-05
19087.734,0.017875846475362778,-0.7520220279693604,0.7887081503868103,-0.08058515936136246,0.5277926325798035,0.7442900538444519,-17.734010696411133,3.201763153076172,-2.198688507080078,-24.450212478637695,11.772845268249512,6.929958343505859,1,0.4803624749183655,0.0013209418393671513,0.0009907467756420374,3.0762472306378186e-05,0.4803624749183655,0.0013209418393671513,0.0009907467756420374,3.0762472306378186e-05
19097.591,0.016328763216733932,-0.7478018999099731,0.7964443564414978,-0.08810394257307053,0.5604172945022583,0.7616899609565735,-17.97817611694336,3.0920679569244385,-2.169640064239502,-33.466487884521484,3.4546306133270264,7.464588165283203,1,0.4765513241291046,0.004035252146422863,0.002396858762949705,6.034177204128355e-06,0.4765513241291046,0.004035252146422863,0.002396858762949705,6.034177204128355e-06
19107.446,0.015059711411595345,-0.7426518201828003,0.8042381405830383,-0.09422671794891357,0.5951979160308838,0.7772848606109619,-18.311067581176758,3.051629066467285,-2.105534553527832,-37.71440505981445,-1.0985695123672485,8.576319694519043,1,0.47316452860832214,0.0035463315434753895,0.0018851932836696506,-4.803678166354075e-05,0.47316452860832214,0.0035463315434753895,0.0018851932836696506,-4.803678166354075e-05
19117.312,0.013374440371990204,-0.7377747297286987,0.8122746348381042,-0.10153194516897202,0.6285814046859741,0.792503297328949,-18.669109344482422,3.0414650440216064,-2.0243077278137207,-26.484773635864258,4.226621150970459,9.426029205322266,1,0.46984848380088806,0.0002711568376980722,-0.00023792762658558786,-7.879924669396132e-05,0.46984848380088806,0.0002711568376980722,-0.00023792762658558786,-7.879924669396132e-05
19127.18,0.011642581783235073,-0.7326827049255371,0.8202829360961914,-0.10864846408367157,0.6619585752487183,0.8064906001091003,-18.8946533203125,2.9637644290924072,-1.9559553861618042,-4.685773849487305,17.21262550354004,9.670145034790039,1,0.46681690216064453,-0.0024746085982769728,-0.0022434559650719166,-6.744080019416288e-05,0.46681690216064453,-0.0024746085982769728,-0.0022434559650719166,-6.744080019416288e-05
19137.031,0.010173071175813675,-0.7264026999473572,0.8286824822425842,-0.11429683119058609,0.6988053321838379,0.8214936256408691,-18.90875244140625,2.757805347442627,-1.9231696128845215,16.121337890625,26.729873657226562,9.626703262329102,1,0.4635111093521118,-0.002881747204810381,-0.0019116477342322469,-2.4314182155649178e-05,0.4635111093521118,-0.002881747204810381,-0.0019116477342322469,-2.4314182155649178e-05
19146.902,0.00831833016127348,-0.720656156539917,0.8369484543800354,-0.12081417441368103,0.7320184111595154,0.8337907195091248,-18.728652954101562,2.48388671875,-1.9205583333969116,23.93999481201172,27.00714111328125,9.172425270080566,1,0.46085798740386963,-0.0004161717079114169,-5.371518273022957e-05,1.6209454770432785e-05,0.46085798740386963,-0.0004161717079114169,-5.371518273022957e-05,1.6209454770432785e-05
19156.752,0.006739417091012001,-0.7137126326560974,0.8456118702888489,-0.12538066506385803,0.767014741897583,0.8460941314697266,-18.481508255004883,2.208453893661499,-1.9141943454742432,19.382923126220703,18.935710906982422,9.744185447692871,1,0.45818495750427246,0.0024212158750742674,0.0019479417242109776,7.276507403730648e-06,0.45818495750427246,0.0024212158750742674,0.0019479417242109776,7.276507403730648e-06
19166.624,0.004792286083102226,-0.7073484063148499,0.8540859222412109,-0.13071288168430328,0.7981125116348267,0.8550057411193848,-18.304189682006836,2.0179479122161865,-1.8733645677566528,11.195700645446777,11.902286529541016,11.1101713180542,1,0.4563397467136383,0.003637792309746146,0.002047306625172496,-4.6912766265450045e-05,0.4563397467136383,0.003637792309746146,0.002047306625172496,-4.6912766265450045e-05
19176.483,0.0031128935515880585,-0.6997501850128174,0.8629446029663086,-0.13451538980007172,0.8317230939865112,0.8647505640983582,-18.191402435302734,1.8768846988677979,-1.8024572134017944,13.591979026794434,12.19172477722168,11.56139850616455,1,0.45427343249320984,0.0015938732540234923,0.0005860278033651412,-9.051265806192532e-05,0.45427343249320984,0.0015938732540234923,0.0005860278033651412,-9.051265806192532e-05
19186.336,0.0010789602529257536,-0.6928191184997559,0.8715909719467163,-0.13934274017810822,0.8616074919700623,0.8731359243392944,-18.031774520874023,1.7211730480194092,-1.731810450553894,29.29634666442871,20.20751190185547,12.030904769897461,1,0.45253169536590576,-0.0015717740170657635,-0.001263839309103787,-9.654683526605368e-05,0.45253169536590576,-0.0015717740170657635,-0.001263839309103787,-9.654683526605368e-05
19196.196,-0.0006788524915464222,-0.6846014857292175,0.8806385397911072,-0.14264948666095734,0.8948813676834106,0.8840107917785645,-17.71096420288086,1.4778398275375366,-1.6820231676101685,49.57369613647461,29.951000213623047,12.540862083435059,1,0.4501565098762512,-0.0031816165428608656,-0.002010044874623418,-7.637374801561236e-05,0.4501565098762512,-0.0031816165428608656,-0.002010044874623418,-7.637374801561236e-05
19206.067,-0.0027825329452753067,-0.6770819425582886,0.8894556760787964,-0.14688071608543396,0.9239314794540405,0.8924051523208618,-17.20418930053711,1.1578294038772583,-1.6512556076049805,61.68272399902344,34.04767608642578,12.622858047485352,1,0.44838395714759827,-0.0019658466335386038,-0.0010533338645473123,-5.460338434204459e-05,0.44838395714759827,-0.0019658466335386038,-0.0010533338645473123,-5.460338434204459e-05
19215.918,-0.004597126506268978,-0.6683040261268616,0.8987017869949341,-0.14906267821788788,0.9544075131416321,0.9024091362953186,-16.567983627319336,0.7939879894256592,-1.626883864402771,60.36457824707031,29.792831420898438,12.236763000488281,1,0.4461973309516907,0.0008297624881379306,0.0007594326743856072,-4.4960535888094455e-05,0.4461973309516907,0.0008297624881379306,0.0007594326743856072,-4.4960535888094455e-05
19225.791,-0.006744521204382181,-0.6602894067764282,0.9076823592185974,-0.15197961032390594,0.9803014993667603,0.9092660546302795,-15.982324600219727,0.49257710576057434,-1.5849416255950928,51.744049072265625,21.67006492614746,12.570643424987793,1,0.4447808563709259,0.0026714031118899584,0.0018485765904188156,-7.093115709722042e-05,0.4447808563709259,0.0026714031118899584,0.0018485765904188156,-7.093115709722042e-05
19235.64,-0.008604217320680618,-0.6509590148925781,0.917083203792572,-0.15310774743556976,1.0082284212112427,0.9175765514373779,-15.468365669250488,0.25324153900146484,-1.5150495767593384,46.57923126220703,15.938344955444336,13.334954261779785,1,0.44299158453941345,0.0022360356524586678,0.001582097727805376,-0.00011405778059270233,0.44299158453941345,0.0022360356524586678,0.001582097727805376,-0.00011405778059270233
19245.511,-0.010769780725240707,-0.6424875855445862,0.9262079000473022,-0.15500396490097046,1.0315338373184204,0.9236462712287903,-15.00370979309082,0.06274508684873581,-1.4279054403305054,52.13080596923828,20.54940414428711,12.921988487243652,1,0.4417489469051361,-0.00011178565910086036,-0.0006865219329483807,-0.00013630140165332705,0.4417489469051361,-0.00011178565910086036,-0.0006865219329483807,-0.00013630140165332705
19255.362,-0.012657053768634796,-0.6326718330383301,0.9357593655586243,-0.1555406153202057,1.0577456951141357,0.9328393340110779,-14.446366310119629,-0.18345241248607635,-1.350021243095398,66.95073699951172,29.126583099365234,13.506658554077148,1,0.439718097448349,-0.002548486925661564,-0.0018561581382527947,-0.00013227862655185163,0.439718097448349,-0.002548486925661564,-0.0018561581382527947,-0.00013227862655185163
19265.225,-0.014840217307209969,-0.6237788796424866,0.9450360536575317,-0.15685120224952698,1.0792975425720215,0.9401158690452576,-13.759998321533203,-0.5025879144668579,-1.2891335487365723,80.2795639038086,35.612548828125,13.257270812988281,1,0.4381517171859741,-0.0028177083004266024,-0.0017325971275568008,-0.0001119872322306037,0.4381517171859741,-0.0028177083004266024,-0.0017325971275568008,-0.0001119872322306037
19275.085,-0.016722584143280983,-0.6135416030883789,0.9547639489173889,-0.15627062320709229,1.102673053741455,0.9493878483772278,-12.938586235046387,-0.8890190124511719,-1.2376946210861206,82.89209747314453,34.41748046875,12.96654224395752,1,0.43607667088508606,-0.0008168580243363976,-0.00020373056759126484,-0.00010039214248536155,0.43607667088508606,-0.0008168580243363976,-0.00020373056759126484,-0.00010039214248536155
19284.956,-0.018585598096251488,-0.6032635569572449,0.9643535614013672,-0.15508200228214264,1.123996376991272,0.9568479657173157,-12.119281768798828,-1.242323398590088,-1.1857659816741943,75.63789367675781,27.514249801635742,12.458785057067871,1,0.43443986773490906,0.0013993370812386274,0.0011615707771852612,-9.962308104149997e-05,0.43443986773490906,0.0013993370812386274,0.0011615707771852612,-9.962308104149997e-05
19294.816,-0.020747050642967224,-0.5936782360076904,0.9740700125694275,-0.15452097356319427,1.1407678127288818,0.9634222388267517,-11.384522438049316,-1.5288361310958862,-1.1060848236083984,66.0043716430664,20.7447566986084,13.027239799499512,1,0.4330129325389862,0.0021966767963021994,0.001367236953228712,-0.00014156651741359383,0.4330129325389862,0.0021966767963021994,0.001367236953228712,-0.00014156651741359383
19304.678,-0.02287137322127819,-0.5841341018676758,0.9836327433586121,-0.15355722606182098,1.1556483507156372,0.9686471819877625,-10.747559547424316,-1.750246286392212,-1.0069550275802612,63.669647216796875,18.80486488342285,12.461369514465332,1,0.43191275000572205,0.0007610457250848413,0.0004434325674083084,-0.00016593986947555095,0.43191275000572205,0.0007610457250848413,0.0004434325674083084,-0.00016593986947555095
19314.528,-0.024703633040189743,-0.5732184648513794,0.9936482906341553,-0.1510460376739502,1.172934651374817,0.9768276810646057,-10.089449882507324,-1.9701632261276245,-0.9087203145027161,71.55500030517578,23.46926498413086,12.109329223632812,1,0.4300675690174103,-0.0016677515814080834,-0.0011180178262293339,-0.00016653144848532975,0.4300675690174103,-0.0016677515814080834,-0.0011180178262293339,-0.00016653144848532975
19324.4,-0.02676902338862419,-0.5634408593177795,1.0033584833145142,-0.1492004543542862,1.1853951215744019,0.9831531047821045,-9.375109672546387,-2.230416774749756,-0.819321870803833,82.08817291259766,29.393653869628906,11.85609245300293,1,0.4286729693412781,-0.0027217306196689606,-0.0016582346288487315,-0.00015759849338792264,0.4286729693412781,-0.0027217306196689606,-0.0016582346288487315,-0.00015759849338792264
19334.254,-0.028531022369861603,-0.5522847771644592,1.0135374069213867,-0.1456230729818344,1.199955940246582,0.9921857714653015,-8.527705192565918,-2.5512969493865967,-0.74262535572052,87.19823455810547,30.75063705444336,10.872407913208008,1,0.4265936315059662,-0.0019505226518958807,-0.0008689601090736687,-0.0001381353213218972,0.4265936315059662,-0.0019505226518958807,-0.0008689601090736687,-0.0001381353213218972
19344.116,-0.030517226085066795,-0.5423303842544556,1.023400068283081,-0.14270582795143127,1.2092195749282837,0.9978116154670715,-7.67965841293335,-2.8653030395507812,-0.6668701767921448,81.24063873291016,26.94124984741211,10.125920295715332,1,0.42535072565078735,0.0004621441476047039,0.00025696182274259627,-0.0001349407684756443,0.42535072565078735,0.0004621441476047039,0.00025696182274259627,-0.0001349407684756443
19353.975,-0.032200589776039124,-0.5309808850288391,1.0337204933166504,-0.1381172388792038,1.2204023599624634,1.0050297975540161,-6.8635172843933105,-3.139625310897827,-0.5898051857948303,71.58106994628906,18.730497360229492,10.135687828063965,1,0.4237021505832672,0.0016087132971733809,0.0014027244178578258,-0.00013996924099046737,0.4237021505832672,0.0016087132971733809,0.0014027244178578258,-0.00013996924099046737
19363.849,-0.03408673033118248,-0.5209222435951233,1.043715476989746,-0.1341560035943985,1.2261394262313843,1.0091862678527832,-6.175963401794434,-3.3277394771575928,-0.4980023503303528,64.09512329101562,13.356673240661621,10.044787406921387,1,0.42280665040016174,0.0014670859090983868,0.0010012317216023803,-0.00016156212950590998,0.42280665040016174,0.0014670859090983868,0.0010012317216023803,-0.00016156212950590998
19373.699,-0.03568374738097191,-0.5094541311264038,1.0541561841964722,-0.12893332540988922,1.2344342470169067,1.0164361000061035,-5.5186944007873535,-3.4764935970306396,-0.4044061005115509,65.91301727294922,13.612869262695312,9.878922462463379,1,0.4181566834449768,-0.0004474652523640543,-0.00019260038970969617,-0.00016664975555613637,0.4181566834449768,-0.0004474652523640543,-0.00019260038970969617,-0.00016664975555613637
19383.56,-0.03745391219854355,-0.4993377923965454,1.06427800655365,-0.12422975897789001,1.2377212047576904,1.021475911140442,-4.865880489349365,-3.6328983306884766,-0.30611860752105713,74.04761505126953,19.628183364868164,9.642024040222168,1,0.4124998152256012,-0.002061340492218733,-0.0016437170561403036,-0.00017505028517916799,0.4124998152256012,-0.002061340492218733,-0.0016437170561403036,-0.00017505028517916799
19393.416,-0.03893335908651352,-0.48780378699302673,1.0748538970947266,-0.11836719512939453,1.2435694932937622,1.0291413068771362,-4.094298839569092,-3.8477864265441895,-0.21434710919857025,82.84635162353516,24.13766098022461,9.179009437561035,1,0.40591391921043396,-0.0025597787462174892,-0.001595163717865944,-0.00016759629943408072,0.40591391921043396,-0.0025597787462174892,-0.001595163717865944,-0.00016759629943408072
19403.289,-0.04058268666267395,-0.4776979386806488,1.0851117372512817,-0.11305683106184006,1.2439793348312378,1.033804178237915,-3.2822141647338867,-4.09468936920166,-0.12906113266944885,82.4854736328125,23.43206024169922,8.042463302612305,1,0.40018317103385925,-0.0007686272147111595,-0.0005915123037993908,-0.00015511384117417037,0.40018317103385925,-0.0007686272147111595,-0.0005915123037993908,-0.00015511384117417037
19413.144,-0.04193489998579025,-0.4661581218242645,1.0958107709884644,-0.10643259435892105,1.2467433214187622,1.0398054122924805,-2.454528570175171,-4.325076103210449,-0.051630888134241104,74.33268737792969,15.682405471801758,7.208255767822266,1,0.393850713968277,0.0010896279709413648,0.001058011781424284,-0.0001428088580723852,0.393850713968277,0.0010896279709413648,0.001058011781424284,-0.0001428088580723852
19423.001,-0.04344296455383301,-0.45611417293548584,1.1061747074127197,-0.10031502693891525,1.2439324855804443,1.0422070026397705,-1.7543648481369019,-4.470324516296387,0.02918696403503418,66.1490249633789,6.9907355308532715,6.623819351196289,1,0.38853269815444946,0.0013646562583744526,0.0015414482913911343,-0.00014635837578680366,0.38853269815444946,0.0013646562583744526,0.0015414482913911343,-0.00014635837578680366
19432.861,-0.044659607112407684,-0.4446350932121277,1.1169625520706177,-0.09312841296195984,1.2436919212341309,1.0469794273376465,-1.083676815032959,-4.532630443572998,0.09968424588441849,63.34455871582031,2.7884809970855713,6.02399206161499,1,0.3823668956756592,0.00037197364144958556,0.0007592714391648769,-0.00013227862655185163,0.3823668956756592,0.00037197364144958556,0.0007592714391648769,-0.00013227862655185163
19442.732,-0.04602331295609474,-0.434719055891037,1.1274144649505615,-0.08663663268089294,1.2380833625793457,1.048997163772583,-0.4579121172428131,-4.566195964813232,0.17251698672771454,68.22441864013672,5.310085296630859,5.535345554351807,1,0.3770063817501068,-0.0014367602998390794,-0.0007323332247324288,-0.00013488160038832575,0.3770063817501068,-0.0014367602998390794,-0.0007323332247324288,-0.00013488160038832575
19452.583,-0.04709506407380104,-0.4233488142490387,1.1382739543914795,-0.07931357622146606,1.2354686260223389,1.0532803535461426,0.2628500461578369,-4.636662006378174,0.23833465576171875,76.34001922607422,10.657437324523926,5.864710330963135,1,0.37083256244659424,-0.002468317747116089,-0.0015708061400800943,-0.00013133208267390728,0.37083256244659424,-0.002468317747116089,-0.0015708061400800943,-0.00013133208267390728
19462.446,-0.04808691516518593,-0.41221511363983154,1.1489200592041016,-0.07198852300643921,1.2314257621765137,1.0551782846450806,1.034137487411499,-4.759843349456787,0.3057611882686615,78.82809448242188,14.527548789978027,5.788929462432861,1,0.365310937166214,-0.0015101548051461577,-0.0014970890479162335,-0.00013570982264354825,0.365310937166214,-0.0015101548051461577,-0.0014970890479162335,-0.00013570982264354825
19472.306,-0.049231987446546555,-0.4023962616920471,1.159688949584961,-0.06518667191267014,1.2221388816833496,1.0562396049499512,1.8126249313354492,-4.908055782318115,0.37807586789131165,73.79393005371094,12.613386154174805,5.025084018707275,1,0.359891414642334,8.404087566304952e-05,-0.00032293633557856083,-0.0001394959690514952,0.359891414642334,8.404087566304952e-05,-0.00032293633557856083,-0.0001394959690514952
19482.175,-0.05007212236523628,-0.39144936203956604,1.1703516244888306,-0.05755181983113289,1.21542489528656,1.0554864406585693,2.526495933532715,-5.015000820159912,0.4402506649494171,65.38948059082031,5.196014404296875,5.002292156219482,1,0.35493314266204834,0.001022846787236631,0.0010186528088524938,-0.0001294390094699338,0.35493314266204834,0.001022846787236631,0.0010186528088524938,-0.0001294390094699338
19492.027,-0.051106471568346024,-0.38069093227386475,1.1821714639663696,-0.049617502838373184,1.2029560804367065,1.0534533262252808,3.218430519104004,-5.049371242523193,0.5054228901863098,58.66615295410156,-2.4954659938812256,4.1421332359313965,1,0.34967389702796936,0.0008437962387688458,0.0013359435833990574,-0.00012985311332158744,0.34967389702796936,0.0008437962387688458,0.0013359435833990574,-0.00012985311332158744
19501.895,-0.05204952135682106,-0.36987072229385376,1.1942862272262573,-0.04160601273179054,1.1895267963409424,1.0522780418395996,3.870676040649414,-5.006260871887207,0.5557202696800232,58.84859848022461,-7.003362655639648,3.545093297958374,1,0.3440086543560028,-0.0006631325231865048,0.0008462158148176968,-0.00010932509030681103,0.3440086543560028,-0.0006631325231865048,0.0008462158148176968,-0.00010932509030681103
19511.749,-0.05226681008934975,-0.371103972196579,1.1944688558578491,-0.04222961515188217,1.1854913234710693,1.0529532432556152,3.870676040649414,-5.006260871887207,0.5557202696800232,62.816680908203125,-2.553981304168701,3.06602144241333,1,0.34380245208740234,-0.0016262958524748683,-0.0011331808054819703,-4.3481570173753425e-05,0.34380245208740234,-0.0016262958524748683,-0.0011331808054819703,-4.3481570173753425e-05
19521.621,-0.052860889583826065,-0.3607112169265747,1.2049267292022705,-0.03454182296991348,1.1749176979064941,1.0485916137695312,4.465577602386475,-4.951010704040527,0.588752806186676,67.00537109375,2.7093818187713623,3.804269313812256,1,0.33971408009529114,-0.0019232617923989892,-0.00153967400547117,-9.116339788306504e-05,0.33971408009529114,-0.0019232617923989892,-0.00153967400547117,-9.116339788306504e-05
19531.471,-0.053588248789310455,-0.3518711030483246,1.2153112888336182,-0.027640871703624725,1.1591280698776245,1.042838454246521,5.088281631469727,-4.959473133087158,0.6354207992553711,65.5766830444336,4.961014747619629,4.48981237411499,1,0.3359740376472473,-0.0008739606128074229,-0.0010630122851580381,-0.00011500431719468907,0.3359740376472473,-0.0008739606128074229,-0.0010630122851580381,-0.00011500431719468907
19541.338,-0.05440652742981911,-0.3315112888813019,1.2364617586135864,-0.012695339508354664,1.1335283517837524,1.031477928161621,6.4037089347839355,-5.038479804992676,0.7420046329498291,59.5853385925293,0.9820798635482788,4.652690887451172,1,0.3282150626182556,5.903830970055424e-05,0.00024518644204363227,-0.00019522335787769407,0.3282150626182556,5.903830970055424e-05,0.00024518644204363227,-0.00019522335787769407
19551.194,-0.05461059510707855,-0.33281388878822327,1.2366489171981812,-0.013268056325614452,1.1292423009872437,1.032294750213623,6.4037089347839355,-5.038479804992676,0.7420046329498291,51.66750717163086,-5.566057205200195,4.0477190017700195,1,0.3278326690196991,0.0007241065613925457,0.0010325252078473568,-5.8507856010692194e-05,0.3278326690196991,0.0007241065613925457,0.0010325252078473568,-5.8507856010692194e-05
19561.064,-0.05491068959236145,-0.3230728507041931,1.2468924522399902,-0.005819512531161308,1.1146438121795654,1.0237010717391968,6.954619884490967,-5.022374153137207,0.7895296812057495,46.048927307128906,-10.804608345031738,2.6716578006744385,1,0.3247680366039276,0.0003827811742667109,0.0009388059843331575,-0.00010985750850522891,0.3247680366039276,0.0003827811742667109,0.0009388059843331575,-0.00010985750850522891
19570.915,-0.05533791705965996,-0.3134942650794983,1.2586201429367065,0.001789306290447712,1.0940884351730347,1.0158182382583618,7.502397060394287,-4.934237003326416,0.8253641724586487,44.96807098388672,-10.883892059326172,3.038970708847046,1,0.3207552134990692,-0.0006308711599558592,-0.00012001231516478583,-9.950475941877812e-05,0.3207552134990692,-0.0006308711599558592,-0.00012001231516478583,-9.950475941877812e-05
19580.782,-0.05548631772398949,-0.30421337485313416,1.268614411354065,0.009044887498021126,1.0775963068008423,1.0048630237579346,7.948855876922607,-4.8272271156311035,0.8438271880149841,47.03067398071289,-8.15800952911377,2.972287654876709,1,0.3183397054672241,-0.0014456321951001883,-0.0008142770384438336,-7.826682849554345e-05,0.3183397054672241,-0.0014456321951001883,-0.0008142770384438336,-7.826682849554345e-05
19590.637,-0.05577220395207405,-0.29622289538383484,1.2790417671203613,0.015450810082256794,1.0565404891967773,0.9962037801742554,8.41922378540039,-4.728503227233887,0.8641562461853027,49.601295471191406,-5.546169757843018,2.5093884468078613,1,0.3151107132434845,-0.0017997006652876735,-0.0009104159544222057,-7.820766768418252e-05,0.3151107132434845,-0.0017997006652876735,-0.0009104159544222057,-7.820766768418252e-05
19600.508,-0.05579383298754692,-0.2873340845108032,1.288828730583191,0.0222465880215168,1.0388933420181274,0.9844226837158203,8.891169548034668,-4.664671897888184,0.8875732421875,47.5685920715332,-6.32917594909668,3.225844383239746,1,0.3129512369632721,-0.0009067058563232422,-0.00022260347031988204,-8.814630564302206e-05,0.3129512369632721,-0.0009067058563232422,-0.00022260347031988204,-8.814630564302206e-05
19610.364,-0.055940959602594376,-0.2798055410385132,1.2990224361419678,0.02833087369799614,1.016507625579834,0.9739681482315063,9.381299018859863,-4.6034932136535645,0.9089183807373047,40.54336929321289,-8.722505569458008,3.1098363399505615,1,0.3102352023124695,0.00021679642668459564,0.0001763084001140669,-8.57208069646731e-05,0.3102352023124695,0.00021679642668459564,0.0001763084001140669,-8.57208069646731e-05
19620.226,-0.056028470396995544,-0.2726772129535675,1.30886709690094,0.03430010378360748,0.9928410053253174,0.9615354537963867,9.823775291442871,-4.536612510681152,0.9379374384880066,32.124656677246094,-12.13197135925293,2.731884002685547,1,0.308161199092865,0.0006703913095407188,0.0004981156089343131,-9.382553253090009e-05,0.308161199092865,0.0006703913095407188,0.0004981156089343131,-9.382553253090009e-05
19630.09,-0.05585520714521408,-0.2643158733844757,1.3184897899627686,0.04062025249004364,0.9736160039901733,0.9471558928489685,10.181614875793457,-4.434314727783203,0.9516521096229553,26.17475700378418,-14.664984703063965,2.7279651165008545,1,0.3066621720790863,0.0003082574112340808,0.0004068159032613039,-7.542721141362563e-05,0.3066621720790863,0.0003082574112340808,0.0004068159032613039,-7.542721141362563e-05
19639.958,-0.0558282695710659,-0.25765177607536316,1.328031063079834,0.04615243151783943,0.9490989446640015,0.9326983094215393,10.457231521606445,-4.300761699676514,0.9597747921943665,24.92447853088379,-15.030601501464844,2.567683219909668,1,0.30520543456077576,-0.0007262034923769534,-1.6775915355538018e-05,-6.773659697500989e-05,0.30520543456077576,-0.0007262034923769534,-1.6775915355538018e-05,-6.773659697500989e-05
19649.804,-0.05554097890853882,-0.24975012242794037,1.337349772453308,0.052010681480169296,0.929006040096283,0.9173816442489624,10.706695556640625,-4.148093223571777,0.956088125705719,24.789133071899414,-13.624452590942383,2.6176044940948486,1,0.3040568232536316,-0.0010355900740250945,-0.0004332702374085784,-5.324274025042541e-05,0.3040568232536316,-0.0010355900740250945,-0.0004332702374085784,-5.324274025042541e-05
19659.665,-0.055402226746082306,-0.24358299374580383,1.3465752601623535,0.0571356900036335,0.9034199714660645,0.9026470184326172,10.955629348754883,-4.011046409606934,0.9643496870994568,25.013530731201172,-12.040939331054688,2.9769809246063232,1,0.30279427766799927,-0.0012617423199117184,-0.0005326352547854185,-7.104947144398466e-05,0.30279427766799927,-0.0012617423199117184,-0.0005326352547854185,-7.104947144398466e-05
19669.531,-0.055008482187986374,-0.2361491471529007,1.3555755615234375,0.06257115304470062,0.8827404379844666,0.8865551352500916,11.206684112548828,-3.8827438354492188,0.9653840065002441,21.87689208984375,-11.93046760559082,3.1376523971557617,1,0.301967054605484,-0.0005577991250902414,-0.0002474447537679225,-6.329969619400799e-05,0.301967054605484,-0.0005577991250902414,-0.0002474447537679225,-6.329969619400799e-05
19679.396,-0.05477050319314003,-0.2304624617099762,1.3644559383392334,0.0672365352511406,0.8568308353424072,0.870093047618866,11.43442153930664,-3.7670984268188477,0.9709234237670898,15.216768264770508,-13.390951156616211,2.818612813949585,1,0.30127912759780884,0.00027422167477197945,0.0001250128261744976,-6.690837471978739e-05,0.30127912759780884,0.00027422167477197945,0.0001250128261744976,-6.690837471978739e-05
19689.251,-0.054281748831272125,-0.22351977229118347,1.3731157779693604,0.0722278505563736,0.8355540633201599,0.852665364742279,11.616371154785156,-3.6400935649871826,0.9763717651367188,8.622618675231934,-16.0721378326416,3.2217581272125244,1,0.300930380821228,0.0004347219946794212,0.0004735969705507159,-6.992545968387276e-05,0.300930380821228,0.0004347219946794212,0.0004735969705507159,-6.992545968387276e-05
19699.11,-0.05395425111055374,-0.21832050383090973,1.38162362575531,0.07646734267473221,0.8091257214546204,0.8349778056144714,11.730414390563965,-3.4920639991760254,0.9770835638046265,4.037386894226074,-18.479446411132812,2.994922399520874,1,0.30071279406547546,8.678308950038627e-05,0.0005229568341746926,-6.247148121474311e-05,0.30071279406547546,8.678308950038627e-05,0.0005229568341746926,-6.247148121474311e-05
19708.97,-0.05337849259376526,-0.2118520587682724,1.3899121284484863,0.08101252466440201,0.7875694632530212,0.8168379068374634,11.788158416748047,-3.31797194480896,0.9718077778816223,2.9343860149383545,-18.36359977722168,3.3759267330169678,1,0.3007090091705322,-0.0006403882289305329,1.7905062122736126e-05,-5.756131940870546e-05,0.3007090091705322,-0.0006403882289305329,1.7905062122736126e-05,-5.756131940870546e-05
19718.845,-0.05277007073163986,-0.20574454963207245,1.3978497982025146,0.08539559692144394,0.7655540108680725,0.7975319027900696,11.82313060760498,-3.136399269104004,0.9660211205482483,3.1078548431396484,-17.255945205688477,3.363382577896118,1,0.3011643588542938,-0.0009763904963620007,-0.00021566728537436575,-5.661478280671872e-05,0.3011643588542938,-0.0009763904963620007,-0.00021566728537436575,-5.661478280671872e-05
19728.698,-0.05231882259249687,-0.20113115012645721,1.4059292078018188,0.08880195021629333,0.7394689917564392,0.7799837589263916,11.852015495300293,-2.9566962718963623,0.9602800607681274,2.490975856781006,-15.289642333984375,3.7247812747955322,1,0.3011063039302826,-0.0009052541572600603,-0.00044956221245229244,-5.898112431168556e-05,0.3011063039302826,-0.0009052541572600603,-0.00044956221245229244,-5.898112431168556e-05
19738.554,-0.051642708480358124,-0.19548195600509644,1.4134821891784668,0.09259267151355743,0.7176675200462341,0.7602351903915405,11.878286361694336,-2.796539306640625,0.9619529247283936,-0.8519769310951233,-14.521872520446777,3.7557241916656494,1,0.30185315012931824,-0.0002948689507320523,-0.00023099142708815634,-6.856481195427477e-05,0.30185315012931824,-0.0002948689507320523,-0.00023099142708815634,-6.856481195427477e-05
19748.416,-0.05112846568226814,-0.19136002659797668,1.4211434125900269,0.09549266844987869,0.6916183233261108,0.7415847778320312,11.887174606323242,-2.644641160964966,0.9696344137191772,-6.259215831756592,-15.755913734436035,4.471327304840088,1,0.3022700250148773,0.00022566829284187406,0.00023631457588635385,-8.146138134179637e-05,0.3022700250148773,0.00022566829284187406,0.00023631457588635385,-8.146138134179637e-05
19758.286,-0.050603218376636505,-0.1875748634338379,1.4284316301345825,0.09807933866977692,0.6652330160140991,0.7220678329467773,11.851929664611816,-2.488759756088257,0.9787630438804626,-12.2431001663208,-18.008342742919922,4.274838447570801,1,0.303085595369339,0.0004747261118609458,0.0005497338133864105,-8.228961087297648e-05,0.303085595369339,0.0004747261118609458,0.0005497338133864105,-8.228961087297648e-05
19768.138,-0.04983293265104294,-0.18252748250961304,1.4355313777923584,0.10111109167337418,0.6439633369445801,0.7017436027526855,11.756099700927734,-2.3147695064544678,0.9863442778587341,-16.29298210144043,-18.791961669921875,4.151247024536133,1,0.3041955828666687,0.00020066574506927282,0.00030067600891925395,-7.986410491866991e-05,0.3041955828666687,0.00020066574506927282,0.00030067600891925395,-7.986410491866991e-05
19777.998,-0.04926367476582527,-0.17918187379837036,1.4423866271972656,0.10332076996564865,0.6179602146148682,0.6818056106567383,11.61353588104248,-2.130474090576172,0.9889909625053406,-16.967315673828125,-17.170658111572266,3.9384348392486572,1,0.3053322732448578,-0.0005381196970120072,-0.0002232486876891926,-7.235096563817933e-05,0.3053322732448578,-0.0005381196970120072,-0.0002232486876891926,-7.235096563817933e-05
19787.86,-0.04844764992594719,-0.17458882927894592,1.4490723609924316,0.10590073466300964,0.5968592762947083,0.662509560585022,11.442858695983887,-1.948042869567871,0.9924965500831604,-16.398548126220703,-15.12743854522705,4.057100296020508,1,0.3063947260379791,-0.0008462158148176968,-0.00037132840952835977,-7.442151400027797e-05,0.3063947260379791,-0.0008462158148176968,-0.00037132840952835977,-7.442151400027797e-05
19797.731,-0.047626689076423645,-0.17031006515026093,1.4554312229156494,0.1082354336977005,0.5756750702857971,0.6427348852157593,11.278768539428711,-1.785123348236084,0.9983568787574768,-17.10378074645996,-14.253332138061523,4.137600421905518,1,0.3077408969402313,-0.0006011906662024558,-0.0001545319682918489,-7.820766768418252e-05,0.3077408969402313,-0.0006011906662024558,-0.0001545319682918489,-7.820766768418252e-05
19807.59,-0.04699454456567764,-0.16750790178775787,1.4617891311645508,0.10962610691785812,0.5508492588996887,0.62445467710495,11.1068754196167,-1.6378751993179321,1.0135239362716675,-20.352323532104492,-13.95901870727539,4.212057590484619,1,0.3087176978588104,-3.548750828485936e-05,-2.8551314244396053e-05,-9.098592272493988e-05,0.3087176978588104,-3.548750828485936e-05,-2.8551314244396053e-05,-9.098592272493988e-05
19817.442,-0.04614406079053879,-0.1636606603860855,1.467758297920227,0.1114298403263092,0.5302839279174805,0.6044901609420776,10.922159194946289,-1.4917021989822388,1.0275840759277344,-25.044281005859375,-16.294836044311523,4.240303039550781,1,0.31030964851379395,0.0004084290121681988,0.0006110303802415729,-9.045348997460678e-05,0.31030964851379395,0.0004084290121681988,0.0006110303802415729,-9.045348997460678e-05
19827.307,-0.04548772796988487,-0.16127774119377136,1.4736888408660889,0.11235341429710388,0.5061995387077332,0.5854982733726501,10.68974494934082,-1.3327250480651855,1.04048752784729,-28.761173248291016,-16.511783599853516,3.986638307571411,1,0.3116830885410309,0.00029841772629879415,0.00021969994122628123,-8.779136260272935e-05,0.3116830885410309,0.00029841772629879415,0.00021969994122628123,-8.779136260272935e-05
19837.174,-0.044613659381866455,-0.15785513818264008,1.4792637825012207,0.11382699012756348,0.4860580265522003,0.5660119652748108,10.425538063049316,-1.173155426979065,1.0486351251602173,-30.962146759033203,-15.89230728149414,3.9481046199798584,1,0.31336110830307007,6.242575909709558e-05,4.677899050875567e-05,-8.199381409212947e-05,0.31336110830307007,6.242575909709558e-05,4.677899050875567e-05,-8.199381409212947e-05
19847.029,-0.04384235665202141,-0.15544259548187256,1.4852917194366455,0.11447269469499588,0.46093258261680603,0.5457863807678223,10.094033241271973,-0.9890801906585693,1.058730959892273,-31.32435417175293,-14.267867088317871,3.822683811187744,1,0.31500256061553955,-0.0003387444303371012,-0.0001875998714240268,-8.400520891882479e-05,0.31500256061553955,-0.0003387444303371012,-0.0001875998714240268,-8.400520891882479e-05
19856.89,-0.04296893998980522,-0.1524556428194046,1.4904370307922363,0.11531022191047668,0.441605806350708,0.5272172093391418,9.780956268310547,-0.8348145484924316,1.0699231624603271,-31.190645217895508,-12.109904289245605,3.6697607040405273,1,0.3166770339012146,-0.00045182049507275224,-0.0003592304128687829,-8.483342389808968e-05,0.3166770339012146,-0.00045182049507275224,-0.0003592304128687829,-8.483342389808968e-05
19866.749,-0.04232175648212433,-0.1509198546409607,1.495478630065918,0.11519268900156021,0.41886571049690247,0.5092310309410095,9.47119140625,-0.6996171474456787,1.0858639478683472,-31.85335922241211,-11.40480899810791,3.5640852451324463,1,0.3182638883590698,-0.00031132224830798805,-6.710366142215207e-05,-9.069013322005048e-05,0.3182638883590698,-0.00031132224830798805,-6.710366142215207e-05,-9.069013322005048e-05
19876.617,-0.04153217747807503,-0.14901238679885864,1.5009477138519287,0.11506451666355133,0.3961202800273895,0.4894990921020508,9.109480857849121,-0.566985011100769,1.099753737449646,-33.660343170166016,-11.851827621459961,3.4418907165527344,1,0.32007792592048645,-3.74231931346003e-05,0.00020856977789662778,-8.790967694949359e-05,0.32007792592048645,-3.74231931346003e-05,0.00020856977789662778,-8.790967694949359e-05
19886.468,-0.040650300681591034,-0.14655110239982605,1.5055798292160034,0.11535937339067459,0.3784347176551819,0.4713684022426605,8.780556678771973,-0.4480188190937042,1.1107174158096313,-36.77117156982422,-12.51744556427002,3.456482172012329,1,0.32191741466522217,0.0003508424269966781,0.000297449849313125,-8.489259198540822e-05,0.32191741466522217,0.0003508424269966781,0.000297449849313125,-8.489259198540822e-05
19896.331,-0.03973725065588951,-0.14411042630672455,1.5102031230926514,0.11550650000572205,0.36208611726760864,0.4540596306324005,8.404994010925293,-0.3186243176460266,1.1207345724105835,-40.283958435058594,-12.99302864074707,3.4341228008270264,1,0.32356366515159607,0.000593286647927016,0.00029954686760902405,-8.400520891882479e-05,0.32356366515159607,0.000593286647927016,0.00029954686760902405,-8.400520891882479e-05
19906.191,-0.03912927955389023,-0.1433274894952774,1.5143696069717407,0.11452101171016693,0.3410307466983795,0.4367625117301941,8.011799812316895,-0.18499423563480377,1.1222681999206543,-41.85929870605469,-12.669862747192383,3.177807569503784,1,0.3254415690898895,0.00024212159041780978,0.0001592098706169054,-7.175937935244292e-05,0.3254415690898895,0.00024212159041780978,0.0001592098706169054,-7.175937935244292e-05
19916.071,-0.03823329880833626,-0.14124159514904022,1.5186272859573364,0.11423633247613907,0.32560259103775024,0.4205706715583801,7.585821151733398,-0.05365361273288727,1.133899211883545,-41.70792007446289,-11.489166259765625,3.28125,1,0.3270062804222107,-7.839514000806957e-05,-3.661666050902568e-05,-8.554333180654794e-05,0.3270062804222107,-7.839514000806957e-05,-3.661666050902568e-05,-8.554333180654794e-05
19925.913,-0.0376502126455307,-0.14077065885066986,1.5224336385726929,0.1128612533211708,0.305704265832901,0.4039226770401001,7.1749491691589355,0.06278785318136215,1.147883653640747,-39.706581115722656,-10.326616287231445,3.117021322250366,1,0.32891643047332764,-0.0005489272880367935,-4.75855304102879e-05,-8.79688304848969e-05,0.32891643047332764,-0.0005489272880367935,-4.75855304102879e-05,-8.79688304848969e-05
19935.774,-0.03678041324019432,-0.13901276886463165,1.5263450145721436,0.1121654361486435,0.2914083003997803,0.3886832892894745,6.765166759490967,0.17322061955928802,1.1631343364715576,-38.91666030883789,-8.728642463684082,3.5094752311706543,1,0.3304312229156494,-0.000304386077914387,-0.0001777601573849097,-9.29973175516352e-05,0.3304312229156494,-0.000304386077914387,-0.0001777601573849097,-9.29973175516352e-05
19945.635,-0.03623936325311661,-0.13881930708885193,1.5298091173171997,0.11030440032482147,0.2727392911911011,0.3727664351463318,6.384464740753174,0.2647452652454376,1.1837550401687622,-39.5443000793457,-8.20639419555664,3.7028653621673584,1,0.332344651222229,-1.3388469596975483e-05,4.742421879200265e-05,-0.00010198942618444562,0.332344651222229,-1.3388469596975483e-05,4.742421879200265e-05,-0.00010198942618444562
19955.51,-0.03529621660709381,-0.1371096521615982,1.5337517261505127,0.10924652218818665,0.2585257291793823,0.3567551076412201,5.944055557250977,0.36363014578819275,1.2110658884048462,-41.98171615600586,-8.064464569091797,3.344027519226074,1,0.3340511620044708,0.0004895663005299866,0.0001392078265780583,-0.0001089109864551574,0.3340511620044708,0.0004895663005299866,0.0001392078265780583,-0.0001089109864551574
19965.357,-0.03481185436248779,-0.13720962405204773,1.536832571029663,0.10700217634439468,0.24103231728076935,0.3412391245365143,5.532926559448242,0.4452754259109497,1.2313075065612793,-44.54594039916992,-8.086568832397461,3.259204149246216,1,0.33607199788093567,0.0006103851483203471,0.00020373056759126484,-0.00010045129602076486,0.33607199788093567,0.0006103851483203471,0.00020373056759126484,-0.00010045129602076486
19975.219,-0.0343109592795372,-0.13729074597358704,1.5398917198181152,0.10471369326114655,0.22495774924755096,0.3267808258533478,5.078051567077637,0.532305121421814,1.2455743551254272,-45.22575378417969,-8.029990196228027,3.283139228820801,1,0.3378496766090393,0.0002690598485060036,0.0002174416440539062,-9.38846860663034e-05,0.3378496766090393,0.0002690598485060036,0.0002174416440539062,-9.38846860663034e-05
19985.079,-0.03357749804854393,-0.13636508584022522,1.5428489446640015,0.1031353697180748,0.21298947930335999,0.31261518597602844,4.631225109100342,0.6132670640945435,1.265315294265747,-44.144775390625,-7.113829612731934,3.3986477851867676,1,0.3396136462688446,-8.307303505716845e-05,2.968046464957297e-05,-0.00010234436922473833,0.3396136462688446,-8.307303505716845e-05,2.968046464957297e-05,-0.00010234436922473833
19994.95,-0.03282914683222771,-0.13545477390289307,1.5457919836044312,0.10152930021286011,0.20228730142116547,0.299686074256897,4.17872953414917,0.684320330619812,1.2885900735855103,-43.10027313232422,-5.081130027770996,3.3598008155822754,1,0.3410845100879669,-6.274836778175086e-05,-0.0002576070837676525,-0.00010755032417364419,0.3410845100879669,-6.274836778175086e-05,-0.0002576070837676525,-0.00010755032417364419
20004.801,-0.03243683651089668,-0.13596615195274353,1.548291802406311,0.09869427233934402,0.18750274181365967,0.28585314750671387,3.767883062362671,0.7363013029098511,1.3079264163970947,-41.61087417602539,-3.497931718826294,3.3814125061035156,1,0.34300899505615234,-0.00020921499526593834,-0.00020308535022195429,-0.00010364585614297539,0.34300899505615234,-0.00020921499526593834,-0.00020308535022195429,-0.00010364585614297539
20014.662,-0.031739745289087296,-0.13527950644493103,1.5509617328643799,0.09680633246898651,0.17801734805107117,0.2738581597805023,3.3519091606140137,0.7740294337272644,1.3397935628890991,-41.29684829711914,-3.2572739124298096,3.189257860183716,1,0.3443995714187622,6.58131975797005e-05,7.178155647125095e-05,-0.00011926372826565057,0.3443995714187622,6.58131975797005e-05,7.178155647125095e-05,-0.00011926372826565057
20024.527,-0.031410060822963715,-0.13595682382583618,1.5532026290893555,0.09367264062166214,0.16456502676010132,0.26110491156578064,2.9613890647888184,0.811029851436615,1.3642373085021973,-41.85439682006836,-3.7723774909973145,3.4743502140045166,1,0.34620004892349243,0.0002687372325453907,0.0002719633630476892,-0.0001131703975261189,0.34620004892349243,0.0002687372325453907,0.0002719633630476892,-0.0001131703975261189
20034.395,-0.0307740718126297,-0.13545948266983032,1.5556206703186035,0.09157650917768478,0.15635161101818085,0.2501522898674011,2.541213035583496,0.8500648140907288,1.3957760334014893,-43.395931243896484,-3.794034242630005,2.806230306625366,1,0.3474718928337097,0.0005873183254152536,0.0001898581685964018,-0.00011861298844451085,0.3474718928337097,0.0005873183254152536,0.0001898581685964018,-0.00011861298844451085
20044.255,-0.03050990402698517,-0.1362551897764206,1.5576250553131104,0.08825404942035675,0.14456315338611603,0.2379215955734253,2.1191089153289795,0.8895449638366699,1.4175089597702026,-42.97880172729492,-4.639822483062744,3.066007137298584,1,0.3492751717567444,0.00019711698405444622,0.00042004307033494115,-0.0001092659222194925,0.3492751717567444,0.00019711698405444622,0.00042004307033494115,-0.0001092659222194925
20054.107,-0.03024311736226082,-0.13699637353420258,1.5596100091934204,0.0849776640534401,0.13423365354537964,0.22675125300884247,1.6806055307388306,0.932289183139801,1.4430975914001465,-41.6113166809082,-3.132662296295166,2.82138729095459,1,0.35083284974098206,-1.4678924344480038e-05,-8.500871626893058e-05,-0.00011346619430696592,0.35083284974098206,-1.4678924344480038e-05,-8.500871626893058e-05,-0.00011346619430696592
20063.969,-0.029731448739767075,-0.1367991864681244,1.5615853071212769,0.08248596638441086,0.12758196890354156,0.21617412567138672,1.2745999097824097,0.966437041759491,1.454557180404663,-39.99268341064453,-0.8372595310211182,2.734478235244751,1,0.35225528478622437,-7.000718323979527e-05,-0.0003176132158841938,-9.583693463355303e-05,0.35225528478622437,-7.000718323979527e-05,-0.0003176132158841938,-9.583693463355303e-05
20073.839,-0.02952863834798336,-0.13762278854846954,1.5633492469787598,0.07895907014608383,0.11886890232563019,0.20559599995613098,0.8645732402801514,0.9812104105949402,1.473371982574463,-39.23336410522461,0.5685077905654907,2.5504255294799805,1,0.3537905514240265,0.00010936605394817889,-0.00016985612455755472,-0.00010453324648551643,0.3537905514240265,0.00010936605394817889,-0.00016985612455755472,-0.00010453324648551643
20083.698,-0.029074152931571007,-0.13751770555973053,1.5651216506958008,0.07637599110603333,0.11387500166893005,0.19571319222450256,0.4712427258491516,0.9744815826416016,1.505588412284851,-38.845008850097656,1.231980800628662,3.1389942169189453,1,0.35515597462654114,0.00023518542002420872,-3.661666050902568e-05,-0.00012677688209805638,0.35515597462654114,0.00023518542002420872,-3.661666050902568e-05,-0.00012677688209805638
20093.551,-0.028933115303516388,-0.1383979469537735,1.5666871070861816,0.07279743254184723,0.10675377398729324,0.18603330850601196,0.06444785743951797,0.9603371620178223,1.5424189567565918,-39.25873947143555,1.2097086906433105,2.730825185775757,1,0.3565810024738312,0.0004592406330630183,0.00012162537313997746,-0.00013121377560310066,0.3565810024738312,0.0004592406330630183,0.00012162537313997746,-0.00013121377560310066
20103.412,-0.02855110540986061,-0.1383862942457199,1.5682709217071533,0.07008001953363419,0.10284706950187683,0.17699210345745087,-0.312504380941391,0.9552953839302063,1.5631465911865234,-38.46654510498047,0.34717726707458496,2.820326566696167,1,0.35784485936164856,0.00025276787346228957,0.00033826049184426665,-0.00011281544720986858,0.35784485936164856,0.00025276787346228957,0.00033826049184426665,-0.00011281544720986858
20113.283,-0.02848784439265728,-0.13931113481521606,1.5696552991867065,0.0663590133190155,0.09699534624814987,0.16815263032913208,-0.7031224966049194,0.9569600224494934,1.5921869277954102,-36.854637145996094,0.3347891569137573,2.7619991302490234,1,0.35916435718536377,7.16202484909445e-05,0.00019227777374908328,-0.00012399641855154186,0.35916435718536377,7.16202484909445e-05,0.00019227777374908328,-0.00012399641855154186
20123.135,-0.028171924874186516,-0.13934047520160675,1.5710735321044922,0.06358793377876282,0.09464234113693237,0.15982046723365784,-1.0685510635375977,0.9601516723632812,1.609394907951355,-35.25905990600586,1.8548113107681274,2.581792116165161,1,0.3603472113609314,8.549263293389231e-05,-0.0001625973090995103,-0.00010879266483243555,0.3603472113609314,8.549263293389231e-05,-0.0001625973090995103,-0.00010879266483243555
20132.996,-0.02785087376832962,-0.1393326371908188,1.5724799633026123,0.061016764491796494,0.09325741976499557,0.1518159955739975,-1.4224672317504883,0.9426971077919006,1.6338133811950684,-33.67073059082031,3.662994146347046,2.3626301288604736,1,0.36146003007888794,0.00010130070586455986,-0.000284867943264544,-0.00011731149425031617,0.36146003007888794,0.00010130070586455986,-0.000284867943264544,-0.00011731149425031617
20142.858,-0.02791195921599865,-0.1403503566980362,1.5735546350479126,0.05715688318014145,0.08876261115074158,0.14322493970394135,-1.7409589290618896,0.9171487092971802,1.6465768814086914,-32.730777740478516,4.840213775634766,2.3208937644958496,1,0.3628906309604645,0.00023324972426053137,-0.000185341588803567,-0.00010311343794455752,0.3628906309604645,0.00023324972426053137,-0.000185341588803567,-0.00010311343794455752
20152.732,-0.027973953634500504,-0.14125840365886688,1.5746276378631592,0.05345302075147629,0.08576810359954834,0.13545414805412292,-2.075657606124878,0.8708048462867737,1.6647965908050537,-32.28438186645508,5.693249225616455,2.357692003250122,1,0.3641250431537628,0.00036842492409050465,-0.00014082089182920754,-0.00011098152754129842,0.3641250431537628,0.00036842492409050465,-0.00014082089182920754,-0.00011098152754129842
20162.578,-0.02777654118835926,-0.141323983669281,1.5757488012313843,0.050778813660144806,0.08580483496189117,0.12879152595996857,-2.387237787246704,0.8208900094032288,1.683042287826538,-30.890628814697266,5.355194568634033,2.3444623947143555,1,0.36506548523902893,0.00019760090799536556,0.00011533440556377172,-0.00011175059626111761,0.36506548523902893,0.00019760090799536556,0.00011533440556377172,-0.00011175059626111761
20172.452,-0.027896998450160027,-0.14219802618026733,1.5766929388046265,0.04722142592072487,0.08396787941455841,0.12183276563882828,-2.6977667808532715,0.7667973637580872,1.7023029327392578,-29.3028507232666,4.422852516174316,2.2099034786224365,1,0.3661729395389557,0.0001496927725384012,0.00028454529820010066,-0.00011293376155663282,0.3661729395389557,0.0001496927725384012,0.00028454529820010066,-0.00011293376155663282
20182.301,-0.027759749442338943,-0.14222785830497742,1.5776935815811157,0.04468122497200966,0.08539863675832748,0.11584401875734329,-2.993927240371704,0.7262150049209595,1.7184057235717773,-27.431921005249023,3.9286129474639893,2.113515853881836,1,0.3670159876346588,9.8881107987836e-05,0.00022082909708842635,-0.00010908845433732495,0.3670159876346588,9.8881107987836e-05,0.00022082909708842635,-0.00010908845433732495
20192.171,-0.027626758441329002,-0.14218869805335999,1.5786875486373901,0.042323626577854156,0.08765442669391632,0.11015114933252335,-3.2767739295959473,0.6878606677055359,1.7372781038284302,-26.285228729248047,5.169094562530518,2.5972962379455566,1,0.3677925765514374,0.00028309354092925787,-0.0001748566428432241,-0.000116838222311344,0.3677925765514374,0.00028309354092925787,-0.0001748566428432241,-0.000116838222311344
20202.023,-0.027859536930918694,-0.1430230438709259,1.5794185400009155,0.03880443051457405,0.08726157993078232,0.10357305407524109,-3.5343730449676514,0.640650749206543,1.758349061012268,-24.842144012451172,7.145480155944824,2.970769166946411,1,0.3689252734184265,0.00021728033607359976,-0.0003889108484145254,-0.0001231682108482346,0.3689252734184265,0.00021728033607359976,-0.0003889108484145254,-0.0001231682108482346
20211.884,-0.02781721204519272,-0.14300808310508728,1.5802311897277832,0.03637457638978958,0.0900115892291069,0.09777022898197174,-3.7784714698791504,0.5789088606834412,1.7800099849700928,-23.602773666381836,7.732316017150879,2.9720282554626465,1,0.36982983350753784,0.000286480993963778,-0.00013291684444993734,-0.00012488379434216768,0.36982983350753784,0.000286480993963778,-0.00013291684444993734,-0.00012488379434216768
20221.747,-0.02809882164001465,-0.14373548328876495,1.580873727798462,0.03306104987859726,0.09081844240427017,0.09174977242946625,-4.014668941497803,0.4991162121295929,1.804618239402771,-21.498979568481445,7.9257707595825195,2.916055202484131,1,0.37087833881378174,8.307303505716845e-05,-5.645740020554513e-05,-0.00012926153431180865,0.37087833881378174,8.307303505716845e-05,-5.645740020554513e-05,-0.00012926153431180865
20231.614,-0.02807467430830002,-0.14356930553913116,1.5816493034362793,0.03105601668357849,0.09497343748807907,0.08681934326887131,-4.230123996734619,0.4195811450481415,1.8283988237380981,-20.401432037353516,7.580623626708984,2.378598690032959,1,0.37159407138824463,0.0003232589515391737,5.855439303559251e-05,-0.0001254753879038617,0.37159407138824463,0.0003232589515391737,5.855439303559251e-05,-0.0001254753879038617
20241.469,-0.02839963324368,-0.14418062567710876,1.5822086334228516,0.027984844520688057,0.09689583629369736,0.08149673044681549,-4.438663482666016,0.34953320026397705,1.8444877862930298,-18.233734130859375,6.084722995758057,2.183746099472046,1,0.37251925468444824,7.726598414592445e-05,0.00035729468800127506,-0.00011530010669957846,0.37251925468444824,7.726598414592445e-05,0.00035729468800127506,-0.00011530010669957846
20251.33,-0.028449419885873795,-0.14400199055671692,1.5828405618667603,0.02600891888141632,0.10144941508769989,0.07690604031085968,-4.620989799499512,0.2902182340621948,1.8612089157104492,-17.185144424438477,6.275142192840576,2.3880932331085205,1,0.3732304871082306,0.0003368087636772543,7.74272939452203e-06,-0.00011831719166366383,0.3732304871082306,0.0003368087636772543,7.74272939452203e-06,-0.00011831719166366383
