timestamp,stateEstimate.x,stateEstimate.y,stateEstimate.z,stateEstimate.vx,stateEstimate.vy,stateEstimate.vz,stateEstimate.roll,stateEstimate.pitch,stateEstimate.yaw,gyro.x,gyro.y,gyro.z,ILBC.nominal_controller,ILBC.nominal_thrust,ILBC.nominal_torqueX,ILBC.nominal_torqueY,ILBC.nominal_torqueZ,ILBC.full_thrust,ILBC.full_torqueX,ILBC.full_torqueY,ILBC.full_torqueZ
19138.556,0.06348872184753418,-0.7573866844177246,0.7061764597892761,0.08089975267648697,0.03945685923099518,0.0006933684926480055,-0.42010003328323364,0.35197752714157104,-42.7965087890625,0.05617856979370117,-0.13738813996315002,-0.06271080672740936,1,0.0,0.0,0.0,0.0,0.0,0.0,0.0,0.0
19148.42,0.06378238648176193,-0.7572451829910278,0.7061736583709717,0.08192447572946548,0.03998503088951111,0.0004793076077476144,-0.4193700850009918,0.35341402888298035,-42.779842376708984,0.06277082860469818,0.08672117441892624,-0.031763188540935516,1,0.0,0.0,0.0,0.0,0.0,0.0,0.0,0.0
19158.271,0.06350366026163101,-0.757385790348053,0.7061628699302673,0.08125926554203033,0.039389800280332565,0.0005732401623390615,-0.4200459122657776,0.3517949879169464,-42.79169464111328,-0.05722585320472717,-0.004457118920981884,0.01353389024734497,1,0.0,0.0,0.0,0.0,0.0,0.0,0.0,0.0
19168.149,0.06380165368318558,-0.7572442889213562,0.7061618566513062,0.08236464112997055,0.0398879237473011,0.0005981943104416132,-0.4202706813812256,0.35260486602783203,-42.77619934082031,-0.022600211203098297,0.038933802396059036,-0.05987220257520676,1,0.0,0.0,0.0,0.0,0.0,0.0,0.0,0.0
19177.99,0.0636022761464119,-0.7573434114456177,0.7061541080474854,0.08180002123117447,0.03963622823357582,0.00034190641599707305,-0.41954606771469116,0.35315534472465515,-42.792755126953125,-0.1844547539949417,-0.12585079669952393,-0.2804991602897644,1,0.0,0.0,0.0,0.0,0.0,0.0,0.0,0.0
19325.955,0.06327147036790848,-0.7569949626922607,0.7080011963844299,0.06098662689328194,0.04661666601896286,0.10621809214353561,-2.151989459991455,2.3144335746765137,-41.691871643066406,-121.95397186279297,-99.74626159667969,16.915700912475586,1,0.6227601170539856,0.005285541992634535,0.003597626928240061,0.0014095127116888762,0.6227601170539856,0.005285541992634535,0.003597626928240061,0.0014095127116888762
19335.803,0.06279896199703217,-0.7569983005523682,0.7092729210853577,0.05675441399216652,0.05244789272546768,0.1386440098285675,-3.366062641143799,3.3073203563690186,-41.50925064086914,-152.75830078125,-127.29463958740234,21.1144962310791,1,0.6161501407623291,0.005285541992634535,0.005285541992634535,0.0014196879928931594,0.6161501407623291,0.005285541992634535,0.005285541992634535,0.0014196879928931594
19345.664,0.06285470724105835,-0.7565745115280151,0.7108945250511169,0.05459310859441757,0.06440459936857224,0.16989745199680328,-4.951218128204346,4.598122596740723,-41.21400451660156,-167.61111450195312,-141.57289123535156,31.138322830200195,1,0.6097843050956726,0.005285541992634535,0.004630152136087418,0.0011969557963311672,0.6097843050956726,0.005285541992634535,0.004630152136087418,0.0011969557963311672
19355.524,0.06233033910393715,-0.7562898993492126,0.7128537893295288,0.05039846897125244,0.07913196086883545,0.2034839540719986,-6.610097408294678,5.952254295349121,-40.807743072509766,-159.2490692138672,-130.93556213378906,41.39495849609375,1,0.6027899980545044,0.0012822281569242477,-0.0004910181160084903,0.0009697277564555407,0.6027899980545044,0.0012822281569242477,-0.0004910181160084903,0.0009697277564555407
19365.398,0.06232428923249245,-0.7554910182952881,0.7151945233345032,0.048205580562353134,0.10225745290517807,0.24097101390361786,-8.283233642578125,7.215412139892578,-40.23576354980469,-129.7998504638672,-97.96184539794922,50.21516418457031,1,0.5947727560997009,-0.0037458681035786867,-0.005285541992634535,0.0006776617374271154,0.5947727560997009,-0.0037458681035786867,-0.005285541992634535,0.0006776617374271154
19375.246,0.062284618616104126,-0.7544922232627869,0.7178921699523926,0.04613175243139267,0.12985220551490784,0.281634122133255,-9.642142295837402,8.096034049987793,-39.605125427246094,-88.8428955078125,-73.29867553710938,55.19731140136719,1,0.585907518863678,-0.005285541992634535,-0.005127461161464453,0.0005432533798739314,0.585907518863678,-0.005285541992634535,-0.005127461161464453,0.0005432533798739314
19385.109,0.06169987469911575,-0.7533375024795532,0.7210947275161743,0.042174533009529114,0.1605839878320694,0.3230513632297516,-10.59701919555664,8.741758346557617,-38.97420883178711,-69.6549301147461,-73.21331787109375,54.837276458740234,1,0.5767936706542969,-0.0035413310397416353,-2.0969891920685768e-05,0.0005192941753193736,0.5767936706542969,-0.0035413310397416353,-2.0969891920685768e-05,0.0005192941753193736
19394.971,0.06108811870217323,-0.7518848180770874,0.7246295213699341,0.03808137774467468,0.19318954646587372,0.3618375360965729,-11.371395111083984,9.380891799926758,-38.343406677246094,-79.3052978515625,-94.51177215576172,54.389732360839844,1,0.5682744979858398,0.0028519053012132645,0.005285541992634535,0.0004963998217135668,0.5682744979858398,0.0028519053012132645,0.005285541992634535,0.0004963998217135668
19404.85,0.06096549332141876,-0.7498382329940796,0.7285962104797363,0.03540725260972977,0.22964751720428467,0.39829114079475403,-12.316889762878418,10.237855911254883,-37.60740661621094,-105.07328796386719,-118.77088928222656,54.92843246459961,1,0.5602794289588928,0.005285541992634535,0.005285541992634535,0.00033116983831860125,0.5602794289588928,0.005285541992634535,0.005285541992634535,0.00033116983831860125
19414.692,0.06028861179947853,-0.747674822807312,0.7328638434410095,0.030284930020570755,0.2672351598739624,0.43371307849884033,-13.477859497070312,11.266451835632324,-36.85618591308594,-117.91514587402344,-116.38841247558594,54.899017333984375,1,0.5524874925613403,0.005285541992634535,0.0018845481099560857,0.00028106250101700425,0.5524874925613403,0.005285541992634535,0.0018845481099560857,0.00028106250101700425
19424.55,0.06007663905620575,-0.744819700717926,0.737562358379364,0.026267170906066895,0.310959130525589,0.46866148710250854,-14.834726333618164,12.271584510803223,-36.031272888183594,-106.20597839355469,-91.77169036865234,55.112911224365234,1,0.5447610020637512,0.0004965025000274181,-0.0033427623566240072,0.00015339824312832206,0.5447610020637512,0.0004965025000274181,-0.0033427623566240072,0.00015339824312832206
19434.411,0.05929660052061081,-0.7417828440666199,0.7425222992897034,0.019964924082159996,0.35648128390312195,0.5028159618377686,-16.007219314575195,13.01218032836914,-35.2996826171875,-73.4038314819336,-65.37333679199219,54.753265380859375,1,0.5371806025505066,-0.0047887167893350124,-0.0044277124106884,0.00024130793462973088,0.5371806025505066,-0.0047887167893350124,-0.0044277124106884,0.00024130793462973088
19444.285,0.05895346775650978,-0.7382513880729675,0.7476029992103577,0.01520824246108532,0.40406298637390137,0.5340015292167664,-16.84895896911621,13.482393264770508,-34.622562408447266,-42.99720001220703,-59.902950286865234,53.10087203979492,1,0.530289888381958,-0.005129396915435791,-3.758450111490674e-05,0.0002924209402408451,0.530289888381958,-0.005129396915435791,-3.758450111490674e-05,0.0002924209402408451
19454.132,0.058067455887794495,-0.7342398762702942,0.7531991004943848,0.008422947488725185,0.4527074098587036,0.5616149306297302,-17.423370361328125,13.926939964294434,-33.96788787841797,-37.70070266723633,-72.56175994873047,53.01844787597656,1,0.5242438316345215,9.791327465791255e-05,0.004532238934189081,0.0002935449592769146,0.5242438316345215,9.791327465791255e-05,0.004532238934189081,0.0002935449592769146
19463.997,0.057622309774160385,-0.7294706702232361,0.7591538429260254,0.0028043934144079685,0.5025015473365784,0.5844720005989075,-18.00133514404297,14.483409881591797,-33.21501541137695,-53.961509704589844,-84.32097625732422,56.35637283325195,1,0.5193432569503784,0.005285541992634535,0.005261023994535208,0.00011630581138888374,0.5193432569503784,0.005285541992634535,0.005261023994535208,0.00011630581138888374
19473.856,0.05661359801888466,-0.7245117425918579,0.7651864886283875,-0.005098662339150906,0.5511602163314819,0.6036918759346008,-18.7340030670166,15.113783836364746,-32.4354248046875,-72.26319885253906,-77.93826293945312,58.450347900390625,1,0.5153158903121948,0.005285541992634535,0.0018113149562850595,3.549515895429067e-05,0.5153158903121948,0.005285541992634535,0.0018113149562850595,3.549515895429067e-05
19483.73,0.05602189525961876,-0.7187161445617676,0.7715346813201904,-0.01219302136451006,0.6035743951797485,0.6216330528259277,-19.682851791381836,15.670930862426758,-31.59774398803711,-67.74266815185547,-50.49900817871094,59.09351348876953,1,0.5115788578987122,0.002819482469931245,-0.0030888651963323355,-7.643290882697329e-05,0.5115788578987122,0.002819482469931245,-0.0030888651963323355,-7.643290882697329e-05
19493.577,0.054841939359903336,-0.7127415537834167,0.7778995037078857,-0.021462151780724525,0.6564024686813354,0.63895183801651,-20.524826049804688,15.953495979309082,-30.88766098022461,-41.81940841674805,-21.100990295410156,60.180328369140625,1,0.5079704523086548,-0.002054888289421797,-0.004283181391656399,4.448726758710109e-05,0.5079704523086548,-0.002054888289421797,-0.004283181391656399,4.448726758710109e-05
19503.436,0.05409158021211624,-0.7058930993080139,0.7845942378044128,-0.028860580176115036,0.7120151519775391,0.655889093875885,-21.11701202392578,15.941110610961914,-30.22836685180664,-10.689245223999023,-4.928652763366699,60.19200897216797,1,0.504431426525116,-0.003913788590580225,-0.001965524163097143,7.986410491866991e-05,0.504431426525116,-0.003913788590580225,-0.001965524163097143,7.986410491866991e-05
19513.3,0.052754808217287064,-0.6988559365272522,0.7912570834159851,-0.037958674132823944,0.7664321064949036,0.6703587174415588,-21.37602996826172,15.804619789123535,-29.66065788269043,7.279204845428467,-8.583222389221191,60.06864929199219,1,0.5014827847480774,-0.0016309735365211964,0.0024550906382501125,0.0001707908813841641,0.5014827847480774,-0.0016309735365211964,0.0024550906382501125,0.0001707908813841641
19523.167,0.051831286400556564,-0.6909341216087341,0.798254668712616,-0.04540697857737541,0.8212832808494568,0.6842721700668335,-21.470211029052734,15.68825912475586,-29.03851318359375,5.987581729888916,-21.17875099182129,61.845863342285156,1,0.49865126609802246,0.0026334961876273155,0.005039548967033625,6.448286876548082e-05,0.49865126609802246,0.0026334961876273155,0.005039548967033625,6.448286876548082e-05
19533.02,0.0503254197537899,-0.682909369468689,0.8051697015762329,-0.05481138452887535,0.8738064169883728,0.6956621408462524,-21.578733444213867,15.68298053741455,-28.390254974365234,-2.690927028656006,-23.331045150756836,64.87725830078125,1,0.49642860889434814,0.004795491695404053,0.003327437909319997,-1.6623565898044035e-05,0.49642860889434814,0.004795491695404053,0.003327437909319997,-1.6623565898044035e-05
19542.881,0.049221694469451904,-0.6739211678504944,0.8124045729637146,-0.0630192756652832,0.9277925491333008,0.7070590257644653,-21.792898178100586,15.662664413452148,-27.677227020263672,0.2694263756275177,-7.775497913360596,65.2071762084961,1,0.49418726563453674,0.002697534626349807,-0.0005739298067055643,-0.0001294390094699338,0.49418726563453674,0.002697534626349807,-0.0005739298067055643,-0.0001294390094699338
19552.745,0.04804413020610809,-0.6645339727401733,0.8195944428443909,-0.07133223116397858,0.9817600846290588,0.717847466468811,-21.959930419921875,15.48521614074707,-27.03772735595703,19.64933967590332,22.73813247680664,65.2756118774414,1,0.4920807182788849,-0.001039300113916397,-0.004573372192680836,-6.548856617882848e-05,0.4920807182788849,-0.001039300113916397,-0.004573372192680836,-6.548856617882848e-05
19562.62,0.046258896589279175,-0.6548437476158142,0.8269681930541992,-0.08147337287664413,1.0348432064056396,0.7295069694519043,-21.884092330932617,15.039560317993164,-26.519939422607422,47.30413818359375,46.89954376220703,65.49958801269531,1,0.48974084854125977,-0.0035422989167273045,-0.004082676954567432,6.241232040338218e-05,0.48974084854125977,-0.0035422989167273045,-0.004082676954567432,6.241232040338218e-05
19572.467,0.04438532888889313,-0.6447942852973938,0.8342647552490234,-0.09166602790355682,1.0870704650878906,0.7400310635566711,-21.524986267089844,14.4075288772583,-26.088645935058594,68.11347198486328,50.068275451660156,64.66455078125,1,0.4876668155193329,-0.002798190340399742,0.00015420936688315123,0.00015783513663336635,0.4876668155193329,-0.002798190340399742,0.00015420936688315123,0.00015783513663336635
19582.322,0.042926255613565445,-0.6337527632713318,0.8419516086578369,-0.09953108429908752,1.138318419456482,0.7520416378974915,-20.945775985717773,13.70966911315918,-25.64490509033203,69.69163513183594,38.03147506713867,65.43943786621094,1,0.48520639538764954,0.001170281320810318,0.003804583800956607,0.00011837635975098237,0.48520639538764954,0.001170281320810318,0.003804583800956607,0.00011837635975098237
19592.192,0.040902867913246155,-0.6227875351905823,0.8494423627853394,-0.10875934362411499,1.1862714290618896,0.7607485055923462,-20.39092445373535,13.159605979919434,-25.159442901611328,61.80537796020508,26.403676986694336,68.54232025146484,1,0.48355215787887573,0.003587464801967144,0.004327540751546621,2.4195865989895537e-05,0.48355215787887573,0.003587464801967144,0.004327540751546621,2.4195865989895537e-05
19602.057,0.039251409471035004,-0.6108061671257019,0.8573294281959534,-0.11669255048036575,1.2332595586776733,0.7712103724479675,-19.88874626159668,12.668993949890137,-24.582307815551758,57.836578369140625,32.91680908203125,70.1756362915039,1,0.4814471900463104,0.003212103620171547,0.0005434428458102047,-0.000125534541439265,0.4814471900463104,0.003212103620171547,0.0005434428458102047,-0.000125534541439265
19611.909,0.037041354924440384,-0.5990421772003174,0.8650017380714417,-0.12625755369663239,1.2775293588638306,0.7802485227584839,-19.43439292907715,12.141423225402832,-24.028898239135742,70.24679565429688,52.96997833251953,71.2047348022461,1,0.4796818494796753,-0.0003448740753810853,-0.0028701333794742823,-0.00012659939238801599,0.4796818494796753,-0.0003448740753810853,-0.0028701333794742823,-0.00012659939238801599
19621.776,0.03523242101073265,-0.5861809253692627,0.8730921745300293,-0.13395391404628754,1.3225806951522827,0.7929994463920593,-18.80820083618164,11.374407768249512,-23.5164852142334,93.41417694091797,78.04312133789062,71.28203582763672,1,0.47697684168815613,-0.003219200996682048,-0.004843884147703648,-9.77300078375265e-05,0.47697684168815613,-0.003219200996682048,-0.004843884147703648,-9.77300078375265e-05
19631.63,0.03267785906791687,-0.5717799067497253,0.8823628425598145,-0.14379775524139404,1.3687878847122192,0.8099433779716492,-17.791349411010742,10.259880065917969,-23.019569396972656,113.69068908691406,89.61357116699219,70.13610076904297,1,0.4732069969177246,-0.0033030807971954346,-0.002600105246528983,-9.122255141846836e-05,0.4732069969177246,-0.0033030807971954346,-0.002600105246528983,-9.122255141846836e-05
19641.498,0.03071906790137291,-0.5581528544425964,0.8906691074371338,-0.15016786754131317,1.4091293811798096,0.823826789855957,-16.713726043701172,9.196023941040039,-22.601276397705078,117.96256256103516,82.57845306396484,69.11427307128906,1,0.4701753556728363,-0.0001398530584992841,0.0013878842582926154,-3.7861500459257513e-06,0.4701753556728363,-0.0001398530584992841,0.0013878842582926154,-3.7861500459257513e-06
19651.349,0.02800654247403145,-0.5430662035942078,0.9000926613807678,-0.15837310254573822,1.4486472606658936,0.8395876288414001,-15.516368865966797,8.151474952697754,-22.083152770996094,108.80154418945312,66.3199691772461,68.8380126953125,1,0.4666547179222107,0.0030288591515272856,0.0038786237128078938,-0.0001476598554290831,0.4666547179222107,0.0030288591515272856,0.0038786237128078938,-0.0001476598554290831
19661.209,0.025899991393089294,-0.5288063883781433,0.9086031913757324,-0.16361971199512482,1.4823379516601562,0.8522987365722656,-14.544707298278809,7.378420829772949,-21.558975219726562,100.40300750732422,57.06776809692383,69.06944274902344,1,0.46387141942977905,0.0033330838195979595,0.0028348069172352552,-0.00017889559967443347,0.46387141942977905,0.0033330838195979595,0.0028348069172352552,-0.00017889559967443347
19671.071,0.023060588166117668,-0.5131973028182983,0.9181658029556274,-0.17070208489894867,1.5154480934143066,0.866980791091919,-13.518702507019043,6.578623294830322,-20.9532527923584,106.908935546875,65.11492919921875,67.52165985107422,1,0.4605775475502014,0.00018179285689257085,-0.0009762291447259486,-0.00029484645347110927,0.4605775475502014,0.00018179285689257085,-0.0009762291447259486,-0.00029484645347110927
19680.94,0.022576788440346718,-0.5137390494346619,0.918160617351532,-0.17240236699581146,1.5138376951217651,0.8664551973342896,-13.530303001403809,6.581638813018799,-20.943246841430664,126.934814453125,84.18446350097656,67.1535415649414,1,0.46105536818504333,-0.00336066703312099,-0.003954760264605284,0.0004477714537642896,0.46105536818504333,-0.00336066703312099,-0.003954760264605284,0.0004477714537642896
19690.792,0.018088005483150482,-0.48404213786125183,0.9357544779777527,-0.18089421093463898,1.5684257745742798,0.8960860967636108,-11.164847373962402,4.688929080963135,-19.965124130249023,146.26651000976562,102.10166931152344,67.02531433105469,1,0.4540114402770996,-0.003924435004591942,-0.0046107955276966095,-0.0007955647888593376,0.4540114402770996,-0.003924435004591942,-0.0046107955276966095,-0.0007955647888593376
19700.652,0.01761232502758503,-0.48465099930763245,0.935745358467102,-0.18255412578582764,1.5666881799697876,0.895413339138031,-11.18150806427002,4.691525459289551,-19.953805923461914,152.62237548828125,102.90596771240234,69.67921447753906,1,0.45448264479637146,-0.0015767746372148395,-0.001184153719805181,0.0003865422622766346,0.45448264479637146,-0.0015767746372148395,-0.001184153719805181,0.0003865422622766346
19710.523,0.012949088588356972,-0.454195111989975,0.953934371471405,-0.18825829029083252,1.608196496963501,0.9259045124053955,-8.282724380493164,2.498265027999878,-18.932233810424805,142.1937713623047,85.384521484375,63.859004974365234,1,0.4471811056137085,0.002126347040757537,0.0029194927774369717,-0.0008706371299922466,0.4471811056137085,0.002126347040757537,0.0029194927774369717,-0.0008706371299922466
19720.387,0.012484579347074032,-0.45488327741622925,0.9539192914962769,-0.18986965715885162,1.6062411069869995,0.9251213669776917,-8.303143501281738,2.498004198074341,-18.917957305908203,126.86129760742188,69.06438446044922,66.08531188964844,1,0.4476354420185089,0.003724091686308384,0.003346472280099988,0.0003646535915322602,0.4476354420185089,0.003724091686308384,0.003346472280099988,0.0003646535915322602
19730.24,0.00939310435205698,-0.43805167078971863,0.9647877812385559,-0.1932038515806198,1.6209551095962524,0.9450544118881226,-6.813629627227783,1.5172711610794067,-18.249691009521484,125.24838256835938,67.17115020751953,58.6063232421875,1,0.4429233968257904,0.0009581628255546093,0.00038358772872015834,-0.00042304315138608217,0.4429233968257904,0.0009581628255546093,0.00038358772872015834,-0.00042304315138608217
19740.102,0.007018246687948704,-0.42264026403427124,0.9741781949996948,-0.19365990161895752,1.6325249671936035,0.9589661359786987,-5.607793807983398,0.7945646047592163,-17.712675094604492,140.71542358398438,78.86492156982422,63.41329574584961,1,0.4396836459636688,-0.0031372574158012867,-0.0029301391914486885,-0.0003167942923028022,0.4396836459636688,-0.0031372574158012867,-0.0029301391914486885,-0.0003167942923028022
19749.959,0.004200959112495184,-0.40805453062057495,0.9835944771766663,-0.19512538611888885,1.6390419006347656,0.9727089405059814,-4.345345973968506,0.02273559384047985,-17.136281967163086,159.77000427246094,95.95149230957031,59.74828338623047,1,0.43646538257598877,-0.004712902940809727,-0.004833076614886522,-0.00036412119516171515,0.43646538257598877,-0.004712902940809727,-0.004833076614886522,-0.00036412119516171515
19759.831,0.001815511961467564,-0.3925534188747406,0.993277907371521,-0.19454719126224518,1.6452102661132812,0.9877117872238159,-2.854745864868164,-0.8893724083900452,-16.565950393676758,166.21046447753906,100.91541290283203,57.04016876220703,1,0.4329123795032501,-0.002554616890847683,-0.0027691549621522427,-0.0003615182067733258,0.4329123795032501,-0.002554616890847683,-0.0027691549621522427,-0.0003615182067733258
19769.682,-0.001253463444299996,-0.37585699558258057,1.004714846611023,-0.19456493854522705,1.6452308893203735,1.007612943649292,-0.9976998567581177,-2.056792736053467,-15.908434867858887,153.703125,88.11398315429688,53.66763687133789,1,0.4281151592731476,0.0015369318425655365,0.0010814012493938208,-0.0004738011921290308,0.4281151592731476,0.0015369318425655365,0.0010814012493938208,-0.0004738011921290308
19779.542,-0.003603606019169092,-0.3604978322982788,1.014607310295105,-0.19199851155281067,1.6438076496124268,1.019345998764038,0.5712108612060547,-2.987103223800659,-15.355300903320312,134.1800994873047,66.1289291381836,50.2028694152832,1,0.42532584071159363,0.0033785721752792597,0.0036064989399164915,-0.00034300153492949903,0.42532584071159363,0.0033785721752792597,0.0036064989399164915,-0.00034300153492949903
19789.401,-0.006419864948838949,-0.3457326591014862,1.0252094268798828,-0.1902056485414505,1.6355431079864502,1.0331153869628906,2.0172171592712402,-3.7452776432037354,-14.76947021484375,125.31198120117188,52.642330169677734,45.32948684692383,1,0.4220110774040222,0.0012396431993693113,0.00225748959928751,-0.00037388232885859907,0.4220110774040222,0.0012396431993693113,0.00225748959928751,-0.00037388232885859907
19799.28,-0.008702967315912247,-0.3306160867214203,1.035345435142517,-0.18575868010520935,1.6269301176071167,1.0431711673736572,3.285921096801758,-4.280764579772949,-14.26627254486084,133.33926391601562,58.27833938598633,42.631813049316406,1,0.4196021854877472,-0.0027985128108412027,-0.001968427561223507,-0.00027337190113030374,0.4196021854877472,-0.0027985128108412027,-0.001968427561223507,-0.00027337190113030374
19809.122,-0.011439060792326927,-0.3162285387516022,1.0461654663085938,-0.18270476162433624,1.6124078035354614,1.0575225353240967,4.624019145965576,-4.818596839904785,-13.740554809570312,150.91807556152344,72.40108489990234,41.384124755859375,1,0.4161068797111511,-0.005285541992634535,-0.0043975478038191795,-0.0003147828974761069,0.4161068797111511,-0.005285541992634535,-0.0043975478038191795,-0.0003147828974761069
19818.989,-0.013635532930493355,-0.3014472424983978,1.0565247535705566,-0.17727434635162354,1.5984408855438232,1.0683196783065796,6.067630290985107,-5.438601493835449,-13.254225730895996,158.21644592285156,80.37532043457031,39.644474029541016,1,0.41264113783836365,-0.004341735504567623,-0.003666182514280081,-0.00027408177265897393,0.41264113783836365,-0.004341735504567623,-0.003666182514280081,-0.00027408177265897393
19828.846,-0.01623642072081566,-0.28759732842445374,1.0675864219665527,-0.17279353737831116,1.577520489692688,1.0813616514205933,7.697591304779053,-6.204080581665039,-12.710360527038574,144.47604370117188,72.88548278808594,37.41716003417969,1,0.4044507145881653,5.1940813136752695e-05,-0.0004769843944814056,-0.00035288100480102,0.4044507145881653,5.1940813136752695e-05,-0.0004769843944814056,-0.00035288100480102
19838.721,-0.018316056579351425,-0.2732849419116974,1.0781444311141968,-0.16613896191120148,1.5576329231262207,1.0879002809524536,9.215473175048828,-6.901487350463867,-12.204673767089844,117.37348937988281,51.11905288696289,35.50969314575195,1,0.39807161688804626,0.0034663232509046793,0.003053700551390648,-0.0003133630962111056,0.39807161688804626,0.0034663232509046793,0.003053700551390648,-0.0003133630962111056
19848.569,-0.02078227885067463,-0.2600456774234772,1.0893373489379883,-0.1603211611509323,1.53069269657135,1.0955363512039185,10.55058765411377,-7.4482645988464355,-11.695446014404297,95.2512435913086,33.00497817993164,32.760982513427734,1,0.39104995131492615,0.003027568571269512,0.002857228508219123,-0.0003198705380782485,0.39104995131492615,0.003027568571269512,0.002857228508219123,-0.0003198705380782485
19858.425,-0.022718295454978943,-0.24632635712623596,1.100023627281189,-0.15226571261882782,1.5049989223480225,1.0984611511230469,11.591114044189453,-7.761875152587891,-11.277068138122559,94.36784362792969,28.896278381347656,30.118820190429688,1,0.38540130853652954,-0.001475635333918035,5.694132414646447e-05,-0.00020593107910826802,0.38540130853652954,-0.001475635333918035,5.694132414646447e-05,-0.00020593107910826802
19868.287,-0.025033947080373764,-0.23377637565135956,1.1112805604934692,-0.14565534889698029,1.4736137390136719,1.1040295362472534,12.566534042358398,-7.982177734375,-10.876877784729004,108.27474212646484,39.828617095947266,28.803115844726562,1,0.3787613809108734,-0.00526279816403985,-0.003532943082973361,-0.00019096395408269018,0.3787613809108734,-0.00526279816403985,-0.003532943082973361,-0.00019096395408269018
19878.157,-0.02682272344827652,-0.2207067906856537,1.1220436096191406,-0.13716553151607513,1.4440381526947021,1.1069045066833496,13.607226371765137,-8.249568939208984,-10.500767707824707,120.40474700927734,50.436614990234375,29.519062042236328,1,0.37298738956451416,-0.005285541992634535,-0.004037188366055489,-0.0001820901525206864,0.37298738956451416,-0.005285541992634535,-0.004037188366055489,-0.0001820901525206864
19888.012,-0.028887035325169563,-0.20954732596874237,1.1325947046279907,-0.1296575516462326,1.408077359199524,1.106961965560913,14.766460418701172,-8.63550853729248,-10.075303077697754,112.1135482788086,50.000221252441406,29.182723999023438,1,0.3679753243923187,-0.001496766461059451,-0.0019705246668308973,-0.0002590554940979928,0.3679753243923187,-0.001496766461059451,-0.0019705246668308973,-0.0002590554940979928
19897.87,-0.030505754053592682,-0.19719992578029633,1.1434266567230225,-0.12070700526237488,1.3750587701797485,1.106544017791748,15.959511756896973,-9.059901237487793,-9.640559196472168,82.86429595947266,31.28549575805664,29.619598388671875,1,0.36289945244789124,0.003611660795286298,0.002276201266795397,-0.0002921251580119133,0.36289945244789124,0.003611660795286298,0.002276201266795397,-0.0002921251580119133
19907.729,-0.03242940455675125,-0.18629267811775208,1.154808759689331,-0.1125907227396965,1.3360464572906494,1.1058461666107178,16.971027374267578,-9.371045112609863,-9.198968887329102,52.36558151245117,7.427208423614502,26.727806091308594,1,0.35757577419281006,0.004844206385314465,0.004112195689231157,-0.0002988692431244999,0.35757577419281006,0.004844206385314465,0.004112195689231157,-0.0002988692431244999
19917.599,-0.033858321607112885,-0.174764022231102,1.1656056642532349,-0.10300301760435104,1.30014169216156,1.099500298500061,17.624950408935547,-9.44281005859375,-8.8701171875,41.72519302368164,-2.5082340240478516,23.001863479614258,1,0.3539091646671295,0.0011075329966843128,0.0016030677361413836,-0.00014629922225140035,0.3539091646671295,0.0011075329966843128,0.0016030677361413836,-0.00014629922225140035
19927.461,-0.035611841827631,-0.16471484303474426,1.1768474578857422,-0.0949174240231514,1.2593607902526855,1.095293402671814,18.080169677734375,-9.374638557434082,-8.60120964050293,55.82844161987305,6.320675849914551,20.63265037536621,1,0.3494529128074646,-0.004566597286611795,-0.00259462115354836,-6.637594196945429e-05,0.3494529128074646,-0.004566597286611795,-0.00259462115354836,-6.637594196945429e-05
19937.315,-0.03685980662703514,-0.15401560068130493,1.1875444650650024,-0.08518125116825104,1.221091389656067,1.0898728370666504,18.58751678466797,-9.330982208251953,-8.38244342803955,75.62371063232422,22.34795570373535,22.05791473388672,1,0.34553301334381104,-0.005285541992634535,-0.004766295198351145,-2.3426804546033964e-05,0.34553301334381104,-0.005285541992634535,-0.004766295198351145,-2.3426804546033964e-05
19947.172,-0.038411568850278854,-0.14493757486343384,1.1986905336380005,-0.07694660127162933,1.1775621175765991,1.086621642112732,19.31719207763672,-9.43238353729248,-8.084454536437988,78.0432357788086,28.701234817504883,22.69367218017578,1,0.3408125936985016,-0.0034274482168257236,-0.0031837134156376123,-0.0001389635435771197,0.3408125936985016,-0.0034274482168257236,-0.0031837134156376123,-0.0001389635435771197
19957.054,-0.03948202356696129,-0.13509243726730347,1.2092714309692383,-0.06751926243305206,1.1383506059646606,1.0783318281173706,20.126996994018555,-9.618922233581543,-7.768308162689209,58.73480224609375,16.514339447021484,23.42961311340332,1,0.3375917375087738,0.0015267695998772979,0.0009065446211025119,-0.0001801379257813096,0.3375917375087738,0.0015267695998772979,0.0009065446211025119,-0.0001801379257813096
19966.893,-0.0408378541469574,-0.1269683986902237,1.2202327251434326,-0.0593387633562088,1.0937634706497192,1.0697729587554932,20.842947006225586,-9.751564025878906,-7.443434715270996,29.456514358520508,-7.437229156494141,22.510637283325195,1,0.3342175781726837,0.004539175424724817,0.004126068204641342,-0.00019824045011773705,0.3342175781726837,0.004539175424724817,0.004126068204641342,-0.00019824045011773705
19976.765,-0.04172878339886665,-0.11802563071250916,1.2306255102157593,-0.04990510642528534,1.0532249212265015,1.056895136833191,21.264116287231445,-9.678238868713379,-7.221559524536133,9.803180694580078,-25.005388259887695,21.394376754760742,1,0.33217355608940125,0.0032459781505167484,0.003482615342363715,-7.175937935244292e-05,0.33217355608940125,0.0032459781505167484,0.003482615342363715,-7.175937935244292e-05
19986.619,-0.04292279854416847,-0.11081039160490036,1.2413043975830078,-0.042198508977890015,1.0081150531768799,1.0454614162445068,21.40937614440918,-9.39931583404541,-7.074532508850098,14.571022033691406,-21.562259674072266,20.512842178344727,1,0.32960355281829834,-0.002084891078993678,-0.0008929947507567704,2.1237936380202882e-05,0.32960355281829834,-0.002084891078993678,-0.0008929947507567704,2.1237936380202882e-05
19996.488,-0.04363371804356575,-0.10275761038064957,1.2514556646347046,-0.0330725833773613,0.966691792011261,1.0324658155441284,21.5219783782959,-9.105029106140137,-6.965612411499023,33.814613342285156,-2.5939950942993164,22.415042877197266,1,0.32766085863113403,-0.005285541992634535,-0.004794685635715723,5.058059832663275e-05,0.32766085863113403,-0.005285541992634535,-0.004794685635715723,5.058059832663275e-05
20006.341,-0.04463265463709831,-0.09652675688266754,1.2618743181228638,-0.02561170421540737,0.9203142523765564,1.02193021774292,21.805368423461914,-8.934148788452148,-6.77523136138916,48.177703857421875,12.768282890319824,24.45160675048828,1,0.32494914531707764,-0.005285541992634535,-0.0047241938300430775,-7.30608735466376e-05,0.32494914531707764,-0.005285541992634535,-0.0047241938300430775,-7.30608735466376e-05
20016.203,-0.04518604651093483,-0.08937699347734451,1.2717772722244263,-0.01722637005150318,0.8787587285041809,1.0078293085098267,22.278793334960938,-8.923315048217773,-6.515463352203369,40.58513641357422,9.441754341125488,24.683744430541992,1,0.32335811853408813,-0.0013732052175328135,-0.0009075124398805201,-0.0001719149004202336,0.32335811853408813,-0.0013732052175328135,-0.0009075124398805201,-0.0001719149004202336
20026.064,-0.04600762203335762,-0.084117591381073,1.2818856239318848,-0.009988592937588692,0.832163393497467,0.9939362406730652,22.76963996887207,-8.95435905456543,-6.2113871574401855,11.854327201843262,-12.126360893249512,24.14092254638672,1,0.32159340381622314,0.003713283920660615,0.0035500414669513702,-0.00023604280431754887,0.32159340381622314,0.003713283920660615,0.0035500414669513702,-0.00023604280431754887
20035.932,-0.04639848694205284,-0.0778532400727272,1.29147469997406,-0.0016381248133257031,0.7905641794204712,0.9764704704284668,23.0185604095459,-8.83963394165039,-5.989835262298584,-17.9223690032959,-35.972835540771484,22.026418685913086,1,0.320959210395813,0.004894373007118702,0.004919859115034342,-0.00012790088658221066,0.320959210395813,0.004894373007118702,0.004919859115034342,-0.00012790088658221066
20045.791,-0.04709239304065704,-0.07347828894853592,1.3011914491653442,0.004949367605149746,0.7444401383399963,0.9598720073699951,22.93140411376953,-8.47932243347168,-5.876741886138916,-29.45354652404785,-42.342628479003906,18.540014266967773,1,0.3200318217277527,0.0014783773804083467,0.0016793657559901476,2.6798843464348465e-05,0.3200318217277527,0.0014783773804083467,0.0016793657559901476,2.6798843464348465e-05
20055.652,-0.04734395071864128,-0.06810915470123291,1.31043541431427,0.012646435759961605,0.7027366757392883,0.9418202638626099,22.66486167907715,-8.0277681350708,-5.853471279144287,-16.770235061645508,-28.159740447998047,18.53943634033203,1,0.3196885585784912,-0.004038640297949314,-0.002991919871419668,0.0001374845887767151,0.3196885585784912,-0.004038640297949314,-0.002991919871419668,0.0001374845887767151
20065.509,-0.04788622632622719,-0.06464981287717819,1.3197768926620483,0.018592283129692078,0.6564634442329407,0.9268586039543152,22.436193466186523,-7.643309116363525,-5.805617809295654,2.868450164794922,-7.310352325439453,21.569480895996094,1,0.31851500272750854,-0.005285541992634535,-0.00514407642185688,8.34727834444493e-05,0.31851500272750854,-0.005285541992634535,-0.00514407642185688,8.34727834444493e-05
20075.386,-0.04801361262798309,-0.06012945622205734,1.328682780265808,0.025308549404144287,0.615422248840332,0.9102650284767151,22.423830032348633,-7.456508636474609,-5.6590375900268555,5.07105827331543,0.7607136368751526,24.35626983642578,1,0.31795045733451843,-0.0031898433808237314,-0.0029193314258009195,-6.507445505121723e-05,0.31795045733451843,-0.0031898433808237314,-0.0029193314258009195,-6.507445505121723e-05
20085.227,-0.04842513054609299,-0.05757061764597893,1.3376498222351074,0.03060726635158062,0.5699997544288635,0.8939625024795532,22.49661636352539,-7.360959529876709,-5.432701110839844,-13.691048622131348,-11.939257621765137,24.874317169189453,1,0.3172711133956909,0.0015287052374333143,0.0017385653918609023,-0.00017741663032211363,0.3172711133956909,0.0015287052374333143,0.0017385653918609023,-0.00017741663032211363
20095.094,-0.04843934252858162,-0.05390205979347229,1.3461966514587402,0.03680729866027832,0.5300056338310242,0.8746487498283386,22.442975997924805,-7.193491458892822,-5.231044292449951,-42.205665588378906,-34.346839904785156,24.074729919433594,1,0.3175406754016876,0.004460618831217289,0.004575307946652174,-0.00014967125025577843,0.3175406754016876,0.004460618831217289,0.004575307946652174,-0.00014967125025577843
20104.946,-0.048740286380052567,-0.05217349901795387,1.354736328125,0.041822366416454315,0.485838383436203,0.8561063408851624,22.086166381835938,-6.833798408508301,-5.107088565826416,-62.35636520385742,-49.86872863769531,21.935976028442383,1,0.31761518120765686,0.0034274482168257236,0.0038482979871332645,-4.318577703088522e-05,0.31761518120765686,0.0034274482168257236,0.0038482979871332645,-4.318577703088522e-05
20114.816,-0.04863974452018738,-0.04934444651007652,1.3628957271575928,0.04774594306945801,0.4464605152606964,0.8366045951843262,21.515642166137695,-6.329457759857178,-5.071929454803467,-60.015560150146484,-43.267948150634766,21.190828323364258,1,0.3181118369102478,-0.0012681945227086544,-0.0008110509370453656,7.093115709722042e-05,0.3181118369102478,-0.0012681945227086544,-0.0008110509370453656,7.093115709722042e-05
20124.665,-0.048807594925165176,-0.04805993288755417,1.3717929124832153,0.05233851447701454,0.39969033002853394,0.8181483149528503,20.82383918762207,-5.7715229988098145,-5.041682720184326,-41.208892822265625,-19.352970123291016,23.83855438232422,1,0.31797417998313904,-0.005285541992634535,-0.005183596629649401,5.7028890296351165e-05,0.31797417998313904,-0.005285541992634535,-0.005183596629649401,5.7028890296351165e-05
20134.532,-0.04856954514980316,-0.04546311870217323,1.380777359008789,0.05718042328953743,0.35998570919036865,0.8007969856262207,20.34408187866211,-5.438018321990967,-4.885274887084961,-25.161428451538086,0.6334782242774963,25.330524444580078,1,0.31750819087028503,-0.005285541992634535,-0.005176336970180273,-0.000116838222311344,0.31750819087028503,-0.005285541992634535,-0.005176336970180273,-0.000116838222311344
20144.389,-0.048712898045778275,-0.045553550124168396,1.3882825374603271,0.06031639873981476,0.3175162672996521,0.7835290431976318,20.10439109802246,-5.344666481018066,-4.656752109527588,-30.85756492614746,-0.05300608649849892,24.659648895263672,1,0.3177499771118164,-0.0012360945111140609,-0.0010071999859064817,-0.00021137365547474474,0.3177499771118164,-0.0012360945111140609,-0.0010071999859064817,-0.00021137365547474474
20154.258,-0.04837283492088318,-0.04389661177992821,1.3967870473861694,0.06505301594734192,0.2794169485569,0.764243483543396,19.76262855529785,-5.243766784667969,-4.403580665588379,-58.380088806152344,-20.486736297607422,22.653369903564453,1,0.3179900646209717,0.0041433279402554035,0.0037661928217858076,-0.00023858661006670445,0.3179900646209717,0.0041433279402554035,0.0037661928217858076,-0.00023858661006670445
20164.113,-0.04845299944281578,-0.0447663888335228,1.4037491083145142,0.06800015270709991,0.23894765973091125,0.7439154386520386,19.173656463623047,-4.962950706481934,-4.278108596801758,-87.64138793945312,-46.195281982421875,20.438350677490234,1,0.31925520300865173,0.005285541992634535,0.005285541992634535,-6.951134855626151e-05,0.31925520300865173,0.005285541992634535,0.005285541992634535,-6.951134855626151e-05
20173.978,-0.048128943890333176,-0.04415266588330269,1.4110060930252075,0.07160060852766037,0.20590564608573914,0.7253661155700684,18.280933380126953,-4.448599338531494,-4.235465049743652,-96.57183837890625,-50.5886116027832,18.135761260986328,1,0.31993070244789124,0.0018442213768139482,0.0018655138555914164,4.7918467316776514e-05,0.31993070244789124,0.0018442213768139482,0.0018655138555914164,4.7918467316776514e-05
20183.831,-0.048158541321754456,-0.04568867012858391,1.4175512790679932,0.07381140440702438,0.1670571267604828,0.7068454027175903,17.3472957611084,-3.924807548522949,-4.218979358673096,-78.79232025146484,-37.915767669677734,19.168474197387695,1,0.3209526538848877,-0.004289955832064152,-0.0019895590376108885,7.246927998494357e-05,0.3209526538848877,-0.004289955832064152,-0.0019895590376108885,7.246927998494357e-05
20193.702,-0.04778372496366501,-0.045755330473184586,1.424429178237915,0.07636642456054688,0.13598141074180603,0.6917679309844971,16.550771713256836,-3.5135622024536133,-4.145169258117676,-57.643699645996094,-13.305303573608398,21.49163818359375,1,0.32094985246658325,-0.005285541992634535,-0.005285541992634535,-1.8280006770510226e-05,0.32094985246658325,-0.005285541992634535,-0.005285541992634535,-1.8280006770510226e-05
20203.56,-0.047798141837120056,-0.04789603874087334,1.4306106567382812,0.07727941125631332,0.09943316131830215,0.67572021484375,15.994311332702637,-3.3266608715057373,-3.9976754188537598,-54.856483459472656,-2.0699892044067383,23.520591735839844,1,0.3215313255786896,-0.0023563706781715155,-0.003063055919483304,-0.0001305038749706,0.3215313255786896,-0.0023563706781715155,-0.003063055919483304,-0.0001305038749706
20213.415,-0.047309380024671555,-0.04854752868413925,1.437802791595459,0.07966279238462448,0.06820855289697647,0.6581503748893738,15.366487503051758,-3.2165353298187256,-3.7597458362579346,-75.22648620605469,-12.709724426269531,22.246368408203125,1,0.32198530435562134,0.0030843482818454504,0.001768407179042697,-0.0002439700620016083,0.32198530435562134,0.0030843482818454504,0.001768407179042697,-0.0002439700620016083
20223.282,-0.04731028154492378,-0.0512903556227684,1.4434990882873535,0.08032532781362534,0.034306805580854416,0.6388831734657288,14.5972318649292,-3.0050055980682373,-3.6053621768951416,-104.14344787597656,-34.80876541137695,20.775218963623047,1,0.32360702753067017,0.005285541992634535,0.005004867911338806,-0.00013630140165332705,0.32360702753067017,0.005285541992634535,0.005004867911338806,-0.00013630140165332705
20233.145,-0.04680831730365753,-0.052593570202589035,1.450211763381958,0.08227935433387756,0.006169906817376614,0.6196107268333435,13.387857437133789,-2.5297598838806152,-3.5044760704040527,-119.2031021118164,-48.8363151550293,17.295379638671875,1,0.32472679018974304,0.003841039026156068,0.0040342845022678375,-4.9397429393138736e-05,0.32472679018974304,0.003841039026156068,0.0040342845022678375,-4.9397429393138736e-05
20242.998,-0.04679962992668152,-0.05587293952703476,1.4554320573806763,0.08240968734025955,-0.025461440905928612,0.6021732091903687,12.247966766357422,-2.031599521636963,-3.4645488262176514,-111.24757385253906,-41.613121032714844,16.70526123046875,1,0.32613590359687805,-0.0010762393940240145,-0.0004316571867093444,2.8810236472054385e-05,0.32613590359687805,-0.0010762393940240145,-0.0004316571867093444,2.8810236472054385e-05
20252.856,-0.046375662088394165,-0.057740021497011185,1.4611328840255737,0.08297707885503769,-0.04891495779156685,0.5891270041465759,11.18160343170166,-1.6322458982467651,-3.3747622966766357,-84.82349395751953,-18.232086181640625,19.403919219970703,1,0.326213538646698,-0.005285541992634535,-0.004552079830318689,-5.60231928830035e-05,0.326213538646698,-0.005285541992634535,-0.004552079830318689,-5.60231928830035e-05
20262.723,-0.046396221965551376,-0.06139061599969864,1.4660555124282837,0.08162419497966766,-0.07673058658838272,0.5745806694030762,10.41911792755127,-1.4771888256072998,-3.2272086143493652,-65.26235961914062,4.9827799797058105,20.396282196044922,1,0.32705017924308777,-0.005217954982072115,-0.005285541992634535,-0.00014109326002653688,0.32705017924308777,-0.005217954982072115,-0.005285541992634535,-0.00014109326002653688
20272.588,-0.04597846791148186,-0.06371573358774185,1.4714634418487549,0.08159390836954117,-0.09722938388586044,0.5611093044281006,9.762064933776855,-1.506905436515808,-3.0281548500061035,-69.41915130615234,7.542940139770508,18.578031539916992,1,0.3273771107196808,-0.0002685759391169995,-0.0013790124794468284,-0.00020066596334800124,0.3273771107196808,-0.0002685759391169995,-0.0013790124794468284,-0.00020066596334800124
20282.439,-0.046023428440093994,-0.06770636141300201,1.4760712385177612,0.08003585040569305,-0.12209213525056839,0.544259250164032,9.04047966003418,-1.503653645515442,-2.8647968769073486,-96.40220642089844,-11.787398338317871,16.99650764465332,1,0.3289444148540497,0.005285541992634535,0.0038187787868082523,-0.00015203759539872408,0.3289444148540497,0.005285541992634535,0.0038187787868082523,-0.00015203759539872408
20292.306,-0.04562239348888397,-0.0704163983464241,1.4811471700668335,0.08023466169834137,-0.1400761902332306,0.5285550951957703,7.998830795288086,-1.2928415536880493,-2.7298543453216553,-123.47065734863281,-35.65682601928711,15.501678466796875,1,0.32999753952026367,0.005285541992634535,0.005285541992634535,-0.00011186890333192423,0.32999753952026367,0.005285541992634535,0.005285541992634535,-0.00011186890333192423
20302.167,-0.045642659068107605,-0.07463005185127258,1.485758662223816,0.07863873988389969,-0.16048501431941986,0.5138596296310425,6.6966166496276855,-0.8701673746109009,-2.6444437503814697,-127.18180084228516,-40.61811065673828,14.116430282592773,1,0.3310333490371704,0.002197322202846408,0.0022415202111005783,-4.4132313632871956e-05,0.3310333490371704,0.002197322202846408,0.0022415202111005783,-4.4132313632871956e-05
20312.032,-0.04527232050895691,-0.07763920724391937,1.490524172782898,0.07800434529781342,-0.1750548928976059,0.501951277256012,5.457662582397461,-0.46838468313217163,-2.5522189140319824,-107.12295532226562,-25.572776794433594,14.252211570739746,1,0.33129945397377014,-0.003228879766538739,-0.0023018489591777325,-5.750215859734453e-05,0.33129945397377014,-0.003228879766538739,-0.0023018489591777325,-5.750215859734453e-05
20321.882,-0.045330021530389786,-0.08209771662950516,1.4948352575302124,0.07536406815052032,-0.19188572466373444,0.4907732903957367,4.446519374847412,-0.2511783838272095,-2.4245359897613525,-80.657958984375,-1.6448838710784912,15.252211570739746,1,0.33160829544067383,-0.005285541992634535,-0.004990995861589909,-0.00011405778059270233,0.33160829544067383,-0.005285541992634535,-0.004990995861589909,-0.00011405778059270233
20331.754,-0.04499935731291771,-0.08536486327648163,1.4993517398834229,0.07390190660953522,-0.20307990908622742,0.4804461896419525,3.683441400527954,-0.26579225063323975,-2.2788071632385254,-69.6257553100586,10.979778289794922,14.566083908081055,1,0.3316006362438202,-0.0027647993993014097,-0.0032208142802119255,-0.00013783953909296542,0.3316006362438202,-0.0027647993993014097,-0.0032208142802119255,-0.00013783953909296542
20341.604,-0.04469893127679825,-0.08873499184846878,1.503630518913269,0.0725129246711731,-0.21329891681671143,0.46801650524139404,2.9726102352142334,-0.3537921607494354,-2.1425516605377197,-85.3987808227539,3.6560418605804443,12.39854907989502,1,0.33223265409469604,0.003342601004987955,0.0010804333724081516,-0.00011648327927105129,0.33223265409469604,0.003342601004987955,0.0010804333724081516,-0.00011648327927105129
20351.484,-0.04484675079584122,-0.09341622143983841,1.507309079170227,0.06973119080066681,-0.2261704057455063,0.452787846326828,2.0603725910186768,-0.3199871778488159,-2.037301778793335,-111.3166732788086,-16.841629028320312,12.112979888916016,1,0.33386337757110596,0.005285541992634535,0.004591761156916618,-8.045569120440632e-05,0.33386337757110596,0.005285541992634535,0.004591761156916618,-8.045569120440632e-05
20361.325,-0.0449909083545208,-0.09810522198677063,1.5110501050949097,0.0669635683298111,-0.23673737049102783,0.43827682733535767,0.8619137406349182,-0.0665184035897255,-1.9487155675888062,-124.73211669921875,-33.52448654174805,11.347127914428711,1,0.3352909982204437,0.004714677110314369,0.004580308683216572,-5.803458043374121e-05,0.3352909982204437,0.004714677110314369,0.004580308683216572,-5.803458043374121e-05
20371.196,-0.04472880810499191,-0.10165230184793472,1.5150130987167358,0.06570678949356079,-0.24178144335746765,0.4267035126686096,-0.3891547918319702,0.2754403352737427,-1.837803840637207,-116.03922271728516,-28.147714614868164,11.291535377502441,1,0.33588045835494995,0.00014017565990798175,1.0162331818719395e-05,-9.015770046971738e-05,0.33588045835494995,0.00014017565990798175,1.0162331818719395e-05,-9.015770046971738e-05
20381.047,-0.044915106147527695,-0.10637669265270233,1.5184811353683472,0.06217585876584053,-0.24848107993602753,0.41598981618881226,-1.4780638217926025,0.5177181959152222,-1.730492115020752,-86.50740051269531,-5.142947673797607,12.887519836425781,1,0.3365034759044647,-0.005086489021778107,-0.004385772161185741,-0.00010157530778087676,0.3365034759044647,-0.005086489021778107,-0.004385772161185741,-0.00010157530778087676
20390.923,-0.04471367597579956,-0.10997652262449265,1.5222188234329224,0.05989636108279228,-0.24975813925266266,0.40718337893486023,-2.257902145385742,0.496092289686203,-1.6057827472686768,-59.970943450927734,18.727907180786133,13.095184326171875,1,0.33651697635650635,-0.005285541992634535,-0.005285541992634535,-0.00012997144949622452,0.33651697635650635,-0.005285541992634535,-0.005285541992634535,-0.00012997144949622452
20400.769,-0.04493721202015877,-0.11465536803007126,1.5254676342010498,0.05630107223987579,-0.2531781792640686,0.39623570442199707,-2.8382174968719482,0.29792702198028564,-1.5031877756118774,-57.460899353027344,20.890478134155273,11.859774589538574,1,0.3373062312602997,-0.0006157082971185446,-0.001247708685696125,-9.814411168918014e-05,0.3373062312602997,-0.0006157082971185446,-0.001247708685696125,-9.814411168918014e-05
20410.64,-0.044782523065805435,-0.11823975294828415,1.5289809703826904,0.054476331919431686,-0.25233224034309387,0.3848111927509308,-3.4684598445892334,0.14010818302631378,-1.401545763015747,-81.25288391113281,1.4840856790542603,11.226629257202148,1,0.33808454871177673,0.005285541992634535,0.0038594279903918505,-9.678346395958215e-05,0.33808454871177673,0.005285541992634535,0.0038594279903918505,-9.678346395958215e-05
20420.494,-0.044668346643447876,-0.12178631871938705,1.5322718620300293,0.05279812216758728,-0.25076910853385925,0.37161490321159363,-4.340145111083984,0.18509593605995178,-1.2931506633758545,-107.33475494384766,-21.269163131713867,11.408845901489258,1,0.33941805362701416,0.005285541992634535,0.005285541992634535,-0.00011109984188806266,0.33941805362701416,0.005285541992634535,0.005285541992634535,-0.00011109984188806266
20430.361,-0.04499266296625137,-0.1262914091348648,1.5349560976028442,0.04954375699162483,-0.2510572075843811,0.35701969265937805,-5.419220924377441,0.43631088733673096,-1.1771574020385742,-110.62751770019531,-27.46147918701172,10.998636245727539,1,0.3414093852043152,0.003209845395758748,0.0024859001860022545,-0.00012257661728654057,0.3414093852043152,0.003209845395758748,0.0024859001860022545,-0.00012257661728654057
20440.213,-0.04531530290842056,-0.13068027794361115,1.5377289056777954,0.045952558517456055,-0.24822081625461578,0.34598061442375183,-6.506425380706787,0.6786692142486572,-1.057111144065857,-90.51544952392578,-9.791894912719727,11.087784767150879,1,0.34247952699661255,-0.002087472239509225,-0.0029446566477417946,-0.00013340263103600591,0.34247952699661255,-0.002087472239509225,-0.0029446566477417946,-0.00013340263103600591
20450.073,-0.04526183009147644,-0.1340463012456894,1.540776252746582,0.0435720793902874,-0.24069607257843018,0.3372679650783539,-7.33410120010376,0.6916144490242004,-0.9502066969871521,-60.489234924316406,16.80864906311035,11.169966697692871,1,0.3428364098072052,-0.005090360529720783,-0.005285541992634535,-0.00012222165241837502,0.3428364098072052,-0.005090360529720783,-0.005285541992634535,-0.00012222165241837502
20459.935,-0.04567218944430351,-0.1381799280643463,1.5431245565414429,0.03938058763742447,-0.23507246375083923,0.32568618655204773,-7.862878322601318,0.4950622320175171,-0.8900166749954224,-42.63166809082031,30.595672607421875,9.357731819152832,1,0.34425845742225647,-0.003245655447244644,-0.003786033485084772,-5.3893480071565136e-05,0.34425845742225647,-0.003245655447244644,-0.003786033485084772,-5.3893480071565136e-05
20469.811,-0.04566647857427597,-0.14135800302028656,1.5459797382354736,0.03739447891712189,-0.22541861236095428,0.31588536500930786,-8.298973083496094,0.20026655495166779,-0.8470364809036255,-49.51041030883789,19.71127700805664,8.861629486083984,1,0.34498968720436096,0.0021458652336150408,0.001568870502524078,-3.0821629479760304e-05,0.34498968720436096,0.0021458652336150408,0.001568870502524078,-3.0821629479760304e-05
20479.658,-0.04609513282775879,-0.14525626599788666,1.5481504201889038,0.034275561571121216,-0.21861176192760468,0.3020871579647064,-8.81114387512207,0.06981123238801956,-0.7925724387168884,-71.50534057617188,-4.2460808753967285,9.092327117919922,1,0.3470625877380371,0.005285541992634535,0.005168271716684103,-4.9101632612291723e-05,0.3470625877380371,0.005285541992634535,0.005168271716684103,-4.9101632612291723e-05
20489.523,-0.046126946806907654,-0.1482120007276535,1.5507798194885254,0.03302577883005142,-0.20767751336097717,0.29035744071006775,-9.570536613464355,0.15895166993141174,-0.6876696348190308,-85.96601104736328,-22.020328521728516,9.575439453125,1,0.3484010696411133,0.005285541992634535,0.004679189529269934,-0.00011967784666921943,0.3484010696411133,0.005285541992634535,0.004679189529269934,-0.00011967784666921943
20499.38,-0.046562470495700836,-0.15181998908519745,1.5527690649032593,0.030314164236187935,-0.19842588901519775,0.27735909819602966,-10.385650634765625,0.3704339563846588,-0.5713227987289429,-77.45404052734375,-17.086153030395508,9.669175148010254,1,0.3503822088241577,0.0007344300975091755,-1.4517618183162995e-05,-0.00013955513713881373,0.3503822088241577,0.0007344300975091755,-1.4517618183162995e-05,-0.00013955513713881373
20509.26,-0.046635158360004425,-0.1544971913099289,1.5551990270614624,0.0285026915371418,-0.18398669362068176,0.2693539559841156,-11.102126121520996,0.47564783692359924,-0.45647746324539185,-48.30674362182617,8.303531646728516,10.324433326721191,1,0.3509078621864319,-0.0043678670190274715,-0.005118105560541153,-0.00014724575157742947,0.3509078621864319,-0.0043678670190274715,-0.005118105560541153,-0.00014724575157742947
20519.101,-0.047056928277015686,-0.15793482959270477,1.5575146675109863,0.025245750322937965,-0.16859401762485504,0.2605080306529999,-11.520963668823242,0.2813601791858673,-0.3905429244041443,-17.24757957458496,31.815221786499023,10.1714506149292,1,0.3517017662525177,-0.005285541992634535,-0.005285541992634535,-8.826462726574391e-05,0.3517017662525177,-0.005285541992634535,-0.005285541992634535,-8.826462726574391e-05
20528.971,-0.047408368438482285,-0.1586584895849228,1.5572086572647095,0.023994088172912598,-0.17096811532974243,0.25909098982810974,-11.518595695495605,0.28901776671409607,-0.39472338557243347,-11.04692554473877,33.15916442871094,8.441885948181152,1,0.3519566059112549,-0.001114146551117301,-0.0012831960339099169,1.1240133972023614e-05,0.3519566059112549,-0.001114146551117301,-0.0012831960339099169,1.1240133972023614e-05
20538.821,-0.04784759506583214,-0.16183146834373474,1.5593888759613037,0.021039096638560295,-0.15516377985477448,0.248463973402977,-11.651942253112793,-0.0914527028799057,-0.37665116786956787,-28.5654354095459,11.107985496520996,8.691669464111328,1,0.3532683551311493,0.0044669099152088165,0.004255759064108133,-1.8871593056246638e-05,0.3532683551311493,0.0044669099152088165,0.004255759064108133,-1.8871593056246638e-05
20548.693,-0.04798140004277229,-0.1639723777770996,1.5615277290344238,0.020001649856567383,-0.13899534940719604,0.23811548948287964,-11.823282241821289,-0.33712929487228394,-0.3441852331161499,-53.45583724975586,-13.000576972961426,10.165363311767578,1,0.3545375466346741,0.005285541992634535,0.005285541992634535,-4.8628364311298355e-05,0.3545375466346741,0.005285541992634535,0.005285541992634535,-4.8628364311298355e-05
20558.547,-0.048466265201568604,-0.1665903925895691,1.56328284740448,0.01804780773818493,-0.12485387921333313,0.22526104748249054,-12.233139038085938,-0.32999807596206665,-0.24970459938049316,-55.248023986816406,-20.331729888916016,11.21595287322998,1,0.3566295802593231,0.0026551110204309225,0.002539292676374316,-0.0001371887919958681,0.3566295802593231,0.0026551110204309225,0.002539292676374316,-0.0001371887919958681
20568.412,-0.048622217029333115,-0.16838383674621582,1.565215826034546,0.017377177253365517,-0.10774808377027512,0.21452929079532623,-12.799084663391113,-0.1613246500492096,-0.1032702848315239,-35.91545867919922,-1.420835018157959,11.868335723876953,1,0.3581145107746124,-0.002157479291781783,-0.0034580964129418135,-0.00021261598158162087,0.3581145107746124,-0.002157479291781783,-0.0034580964129418135,-0.00021261598158162087
20578.272,-0.048791393637657166,-0.17000150680541992,1.5670087337493896,0.0164025966078043,-0.08946031332015991,0.20551486313343048,-13.268203735351562,-0.045895062386989594,0.039174024015665054,-7.632572174072266,25.152475357055664,11.334296226501465,1,0.3592483103275299,-0.004893889185041189,-0.005285541992634535,-0.00021001302229706198,0.3592483103275299,-0.004893889185041189,-0.005285541992634535,-0.00021001302229706198
20588.137,-0.04931659996509552,-0.1720357984304428,1.5684473514556885,0.013813906349241734,-0.07199051231145859,0.1969238966703415,-13.474584579467773,-0.16250543296337128,0.11720922589302063,8.563136100769043,36.94339370727539,8.302994728088379,1,0.3604591190814972,-0.002977079479023814,-0.0035352010745555162,-0.00011186890333192423,0.3604591190814972,-0.002977079479023814,-0.0035352010745555162,-0.00011186890333192423
20597.986,-0.04977085441350937,-0.17391513288021088,1.5702282190322876,0.012150137685239315,-0.05176016688346863,0.18874411284923553,-13.430157661437988,-0.5534050464630127,0.1314416527748108,0.027731820940971375,24.469106674194336,6.6964287757873535,1,0.36140233278274536,0.002445573452860117,0.0017796986503526568,-2.1829522665939294e-05,0.36140233278274536,0.002445573452860117,0.0017796986503526568,-2.1829522665939294e-05
20607.855,-0.04996614530682564,-0.17491544783115387,1.571844458580017,0.01178150437772274,-0.03211021423339844,0.17989122867584229,-13.383047103881836,-0.8597838878631592,0.1273910254240036,-22.612762451171875,-0.04541637748479843,6.519582271575928,1,0.3625999391078949,0.005285541992634535,0.0051276227459311485,2.2480267034552526e-06,0.3625999391078949,0.005285541992634535,0.0051276227459311485,2.2480267034552526e-06
20617.708,-0.050440847873687744,-0.17629607021808624,1.573430061340332,0.011156399734318256,-0.012491979636251926,0.16843609511852264,-13.551735877990723,-0.9599215388298035,0.1779012233018875,-34.749881744384766,-17.682249069213867,6.656137466430664,1,0.3644677996635437,0.0048296889290213585,0.004443520214408636,-6.86239727656357e-05,0.3644677996635437,0.0048296889290213585,0.004443520214408636,-6.86239727656357e-05
20627.581,-0.05063508078455925,-0.17689922451972961,1.5748542547225952,0.011530600488185883,0.007034719455987215,0.15901771187782288,-13.868167877197266,-0.8360698819160461,0.27395352721214294,-23.968290328979492,-13.450108528137207,8.519733428955078,1,0.3659181296825409,-2.87126222247025e-05,-9.936503192875534e-05,-0.00014257222937885672,0.3659181296825409,-2.87126222247025e-05,-9.936503192875534e-05,-0.00014257222937885672
20637.434,-0.051129065454006195,-0.177785262465477,1.5762560367584229,0.010599606670439243,0.028546765446662903,0.15073253214359283,-14.173375129699707,-0.688255250453949,0.39532434940338135,6.0699687004089355,13.87435245513916,10.09372329711914,1,0.3671044409275055,-0.004923085682094097,-0.005285541992634535,-0.00019043154316022992,0.3671044409275055,-0.004923085682094097,-0.005285541992634535,-0.00019043154316022992
20647.295,-0.051340386271476746,-0.17794129252433777,1.5775461196899414,0.010309522040188313,0.050463397055864334,0.1456243395805359,-14.164695739746094,-0.7889501452445984,0.46751025319099426,35.381935119628906,37.0976448059082,9.98167610168457,1,0.36755993962287903,-0.005285541992634535,-0.005285541992634535,-0.0001316278794547543,0.36755993962287903,-0.005285541992634535,-0.005285541992634535,-0.0001316278794547543
20657.16,-0.05183098837733269,-0.17838236689567566,1.5787127017974854,0.00936769787222147,0.07077376544475555,0.1399955302476883,-13.865524291992188,-1.1383150815963745,0.4814896881580353,38.2731819152832,38.451507568359375,7.362665176391602,1,0.368208646774292,-0.0005710262921638787,-0.0016621060203760862,-4.135185736231506e-05,0.368208646774292,-0.0005710262921638787,-0.0016621060203760862,-4.135185736231506e-05
20667.019,-0.05204103887081146,-0.1781095415353775,1.5799121856689453,0.009760050103068352,0.0918634757399559,0.13334253430366516,-13.490296363830566,-1.5249433517456055,0.4643236994743347,16.41614532470703,15.365692138671875,7.416309356689453,1,0.3690992295742035,0.005285541992634535,0.004100097808986902,-2.3071852410794236e-06,0.3690992295742035,0.005285541992634535,0.004100097808986902,-2.3071852410794236e-06
20676.879,-0.052508216351270676,-0.17813849449157715,1.5809812545776367,0.010069371201097965,0.110049307346344,0.12460505217313766,-13.286771774291992,-1.733597993850708,0.4888305366039276,-8.236958503723145,-10.95289421081543,7.912120819091797,1,0.3705793023109436,0.005285541992634535,0.005285541992634535,-5.868532753083855e-05,0.3705793023109436,0.005285541992634535,0.005285541992634535,-5.868532753083855e-05
