timestamp,stateEstimate.x,stateEstimate.y,stateEstimate.z,stateEstimate.vx,stateEstimate.vy,stateEstimate.vz,stateEstimate.roll,stateEstimate.pitch,stateEstimate.yaw,gyro.x,gyro.y,gyro.z,ILBC.nominal_controller,ILBC.nominal_thrust,ILBC.nominal_torqueX,ILBC.nominal_torqueY,ILBC.nominal_torqueZ,ILBC.full_thrust,ILBC.full_torqueX,ILBC.full_torqueY,ILBC.full_torqueZ
20147.564,0.02126399800181389,-0.7771259546279907,0.7051385641098022,0.030558234080672264,0.09018567204475403,-0.0006418850971385837,-1.668298602104187,0.5862226486206055,10.928598403930664,0.07738448679447174,0.010947423987090588,0.030972739681601524,1,0.0,0.0,0.0,0.0,0.0,0.0,0.0,0.0
20157.416,0.021156560629606247,-0.7774462103843689,0.7051463723182678,0.030382348224520683,0.08932740986347198,-0.00040875584818422794,-1.6675634384155273,0.5870859026908875,10.9327974319458,-0.17268730700016022,-0.012259723618626595,-0.026299426332116127,1,0.0,0.0,0.0,0.0,0.0,0.0,0.0,0.0
20167.284,0.021266913041472435,-0.7771255373954773,0.7051486968994141,0.03099844604730606,0.09037695825099945,-0.0004062018124386668,-1.6685905456542969,0.587118923664093,10.929473876953125,-0.04495080187916756,0.23238466680049896,0.19943930208683014,1,0.0,0.0,0.0,0.0,0.0,0.0,0.0,0.0
20177.148,0.02116367779672146,-0.7774418592453003,0.7051565647125244,0.030860064551234245,0.0893266350030899,-0.0005020812968723476,-1.6697683334350586,0.5858387351036072,10.934048652648926,-0.03118221089243889,-5.385359327192418e-05,0.06789220124483109,1,0.0,0.0,0.0,0.0,0.0,0.0,0.0,0.0
20187.005,0.021278994157910347,-0.777121365070343,0.7051565051078796,0.03130398690700531,0.09035893529653549,-0.0005168619100004435,-1.6690903902053833,0.5854750871658325,10.930418968200684,0.07612744718790054,0.1461714506149292,-0.11213802546262741,1,0.0,0.0,0.0,0.0,0.0,0.0,0.0,0.0
20325.102,0.020646220073103905,-0.7775375247001648,0.7054754495620728,0.012932732701301575,0.08988355845212936,0.030345359817147255,-2.3728508949279785,0.5463275909423828,10.78034496307373,-102.75856018066406,17.855518341064453,-5.451352119445801,1,0.640207827091217,0.005285541992634535,-0.0012006070464849472,-0.0004272433870937675,0.640207827091217,0.005285541992634535,-0.0012006070464849472,-0.0004272433870937675
20334.965,0.020468592643737793,-0.7768095135688782,0.7067382335662842,0.007116746623069048,0.09938034415245056,0.0917661264538765,-4.373363971710205,0.1697162389755249,10.65816879272461,-128.28724670410156,39.743412017822266,-5.526662349700928,1,0.6264779567718506,0.005285541992634535,-0.0045527247712016106,-0.00026994067593477666,0.6264779567718506,0.005285541992634535,-0.0045527247712016106,-0.00026994067593477666
20344.825,0.020281817764043808,-0.7773737907409668,0.706779956817627,0.006476262584328651,0.09763237833976746,0.09193384647369385,-4.3808512687683105,0.16993243992328644,10.662477493286133,-121.94322967529297,51.39480209350586,-5.992531776428223,1,0.6279361248016357,-0.0003472937096375972,-0.0029491735622286797,-0.0004242262803018093,0.6279361248016357,-0.0003472937096375972,-0.0029491735622286797,-0.0004242262803018093
20354.686,0.01998830772936344,-0.7763270735740662,0.709563672542572,0.0012853730004280806,0.12089326977729797,0.1795656383037567,-6.781853675842285,-0.7527714371681213,10.454777717590332,-95.56815338134766,41.2497444152832,-7.337705612182617,1,0.6075764298439026,-0.004869692958891392,0.0016059711342677474,-0.00014263138291426003,0.6075764298439026,-0.004869692958891392,0.0016059711342677474,-0.00014263138291426003
20364.536,0.019807472825050354,-0.7768803238868713,0.7096279263496399,0.0006559470202773809,0.11909221857786179,0.17984774708747864,-6.781853675842285,-0.7527714371681213,10.454777717590332,-77.34270477294922,13.425775527954102,-9.72087574005127,1,0.6088754534721375,-0.003965245559811592,0.005285541992634535,-0.0003839984710793942,0.6088754534721375,-0.003965245559811592,0.005285541992634535,-0.0003839984710793942
20374.411,0.019621698185801506,-0.7762012481689453,0.7117118835449219,-0.0012129797833040357,0.1354689598083496,0.2310887724161148,-7.631047248840332,-1.0278122425079346,10.333807945251465,-76.0110092163086,-1.9681100845336914,-8.390563011169434,1,0.59746253490448,-0.0004100420337636024,0.004336251411587,-0.00023823165975045413,0.59746253490448,-0.0004100420337636024,0.004336251411587,-0.00023823165975045413
20384.259,0.0192392747849226,-0.7756726741790771,0.7147579193115234,-0.003677520202472806,0.15503282845020294,0.2871841490268707,-8.478879928588867,-1.0553416013717651,10.237394332885742,-86.973876953125,5.655278205871582,-8.289576530456543,1,0.5847623944282532,0.0027157622389495373,-0.0006310324533842504,-0.0002655629359651357,0.5847623944282532,0.0027157622389495373,-0.0006310324533842504,-0.0002655629359651357
20394.119,0.018835406750440598,-0.7751333117485046,0.7180317044258118,-0.006359110586345196,0.17402611672878265,0.33719441294670105,-9.284180641174316,-1.0391178131103516,10.159250259399414,-98.04829406738281,26.055389404296875,-8.430009841918945,1,0.5734967589378357,0.003382282331585884,-0.004036381840705872,-0.00028413874679245055,0.5734967589378357,0.003382282331585884,-0.004036381840705872,-0.00028413874679245055
20403.989,0.018580934032797813,-0.7738356590270996,0.7217261791229248,-0.00866828765720129,0.19687382876873016,0.385518342256546,-10.206011772155762,-1.1783485412597656,10.055349349975586,-101.1050796508789,41.69470977783203,-8.888847351074219,1,0.5625774264335632,0.0021161846816539764,-0.0037669993471354246,-0.00024467994808219373,0.5625774264335632,0.0021161846816539764,-0.0037669993471354246,-0.00024467994808219373
20413.85,0.018291672691702843,-0.7723618745803833,0.7258161902427673,-0.011038796976208687,0.2213931679725647,0.43180137872695923,-11.19550609588623,-1.4940015077590942,9.91032600402832,-88.9590072631836,39.351192474365234,-8.344661712646484,1,0.5520951747894287,-0.0011960903648287058,-0.00015582243213430047,-0.00019149636500515044,0.5520951747894287,-0.0011960903648287058,-0.00015582243213430047,-0.00019149636500515044
20423.702,0.017808323726058006,-0.771058201789856,0.7306286096572876,-0.013412551023066044,0.24775393307209015,0.4776592552661896,-12.172608375549316,-1.877832293510437,9.747600555419922,-73.11138916015625,23.569580078125,-8.370015144348145,1,0.5416502356529236,-0.002343143569305539,0.0030654759611934423,-0.00016256782691925764,0.5416502356529236,-0.002343143569305539,0.0030654759611934423,-0.00016256782691925764
20433.565,0.0172991082072258,-0.7695457339286804,0.7358064651489258,-0.015464969910681248,0.275433212518692,0.5216400623321533,-12.97259521484375,-2.14880108833313,9.608097076416016,-64.20088195800781,8.082513809204102,-7.660703659057617,1,0.5316051840782166,-0.001108500873669982,0.003536007832735777,-0.00019066815730184317,0.5316051840782166,-0.001108500873669982,0.003536007832735777,-0.00019066815730184317
20443.425,0.01695842295885086,-0.767193078994751,0.741316556930542,-0.016418786719441414,0.30628901720046997,0.561992883682251,-13.650343894958496,-2.2653374671936035,9.49915885925293,-65.58865356445312,3.797137975692749,-7.32478666305542,1,0.5223997831344604,0.0011902833357453346,0.0013848195085301995,-0.0002265774382976815,0.5223997831344604,0.0011902833357453346,0.0013848195085301995,-0.0002265774382976815
20453.296,0.016424918547272682,-0.7650963664054871,0.7473065257072449,-0.01816047541797161,0.33590391278266907,0.5989252328872681,-14.28856086730957,-2.2724125385284424,9.428646087646484,-70.49845123291016,11.640070915222168,-7.253712177276611,1,0.5139875411987305,0.002409763401374221,-0.0014028857694938779,-0.0002720112388487905,0.5139875411987305,0.002409763401374221,-0.0014028857694938779,-0.0002720112388487905
20463.156,0.016056478023529053,-0.7621471285820007,0.7535533308982849,-0.019304703921079636,0.3679780066013336,0.6319502592086792,-14.96691608428955,-2.3140411376953125,9.34755802154541,-70.65823364257812,24.26515007019043,-7.938224792480469,1,0.5064949989318848,0.0018205094384029508,-0.0029233640525490046,-0.0002507732715457678,0.5064949989318848,0.0018205094384029508,-0.0029233640525490046,-0.0002507732715457678
20473.013,0.015492916107177734,-0.7594437003135681,0.7602042555809021,-0.02122293785214424,0.39889785647392273,0.6619290709495544,-15.678324699401855,-2.4617068767547607,9.228221893310547,-62.376136779785156,31.24839210510254,-7.642735481262207,1,0.49971330165863037,0.00014888623263686895,-0.002136831870302558,-0.00020048848818987608,0.49971330165863037,0.00014888623263686895,-0.002136831870302558,-0.00020048848818987608
20482.872,0.015088191255927086,-0.7558491826057434,0.7670466303825378,-0.022325538098812103,0.43294331431388855,0.6889829039573669,-16.355403900146484,-2.711158037185669,9.075639724731445,-49.00273895263672,26.194984436035156,-7.66602087020874,1,0.4936164915561676,-0.0010426875669509172,0.00038568474701605737,-0.00015268834249582142,0.4936164915561676,-0.0010426875669509172,0.00038568474701605737,-0.00015268834249582142
20492.74,0.014496258459985256,-0.7525076866149902,0.7742312550544739,-0.023716820403933525,0.4655618369579315,0.713812530040741,-16.907068252563477,-2.9562063217163086,8.928755760192871,-39.041664123535156,13.69946575164795,-7.892045497894287,1,0.48803433775901794,-0.0004206883313599974,0.002292331773787737,-0.00015203759539872408,0.48803433775901794,-0.0004206883313599974,0.002292331773787737,-0.00015203759539872408
20502.596,0.014076859690248966,-0.7482542395591736,0.7815612554550171,-0.02395666018128395,0.5007711052894592,0.7357040047645569,-17.342533111572266,-3.1130051612854004,8.801102638244629,-33.452632904052734,2.8559563159942627,-7.101038455963135,1,0.48314812779426575,0.0005581217119470239,0.00231152749620378,-0.00017629261128604412,0.48314812779426575,0.0005581217119470239,0.00231152749620378,-0.00017629261128604412
20512.454,0.01347124483436346,-0.7442548871040344,0.7891801595687866,-0.024780254811048508,0.5339388847351074,0.7553750872612,-17.69463539123535,-3.1471774578094482,8.715231895446777,-30.8488712310791,0.43244680762290955,-6.288603782653809,1,0.4787832796573639,0.001346912351436913,0.000669746077619493,-0.00023048189177643508,0.4787832796573639,0.001346912351436913,0.000669746077619493,-0.00023048189177643508
20522.324,0.013042297214269638,-0.7393181324005127,0.7968980073928833,-0.024728719145059586,0.5695339441299438,0.7727133631706238,-18.01896095275879,-3.1371140480041504,8.647564888000488,-26.399288177490234,8.259235382080078,-6.412686347961426,1,0.4749709665775299,0.0010949510615319014,-0.001753889606334269,-0.00024953094543889165,0.4749709665775299,0.0010949510615319014,-0.001753889606334269,-0.00024953094543889165
20532.183,0.012427983805537224,-0.7346518635749817,0.8048569560050964,-0.025607869029045105,0.6030299663543701,0.7886145710945129,-18.30730438232422,-3.1511383056640625,8.58054256439209,-17.761720657348633,17.947734832763672,-6.917324066162109,1,0.47149139642715454,0.0001816315489122644,-0.0025581656955182552,-0.00024408836907241493,0.47149139642715454,0.0001816315489122644,-0.0025581656955182552,-0.00024408836907241493
20542.04,0.011992947198450565,-0.7290518879890442,0.8128907084465027,-0.025594672188162804,0.638889729976654,0.8033633232116699,-18.53032875061035,-3.2546775341033936,8.477584838867188,-6.18245792388916,19.388256072998047,-7.457144737243652,1,0.46827560663223267,-0.0006015133112668991,-0.0010272021172568202,-0.00019143721146974713,0.46827560663223267,-0.0006015133112668991,-0.0010272021172568202,-0.00019143721146974713
20551.896,0.01137582492083311,-0.7237243056297302,0.8211366534233093,-0.02616611123085022,0.6727716326713562,0.817399799823761,-18.65048599243164,-3.406684398651123,8.35649299621582,3.014150381088257,11.325867652893066,-7.941749095916748,1,0.4652155935764313,-0.0002513160870876163,0.0011364069068804383,-0.00016043811046984047,0.4652155935764313,-0.0002513160870876163,0.0011364069068804383,-0.00016043811046984047
20561.768,0.010939590632915497,-0.7174431085586548,0.8294427394866943,-0.02558966539800167,0.7086496353149414,0.8301408886909485,-18.667221069335938,-3.5288074016571045,8.231414794921875,9.164766311645508,-0.22323468327522278,-8.019524574279785,1,0.4624578058719635,0.00034148662234656513,0.002224905649200082,-0.00014978957187850028,0.4624578058719635,0.00034148662234656513,0.002224905649200082,-0.00014978957187850028
20571.626,0.01050843857228756,-0.7109331488609314,0.837691605091095,-0.024761710315942764,0.7436845302581787,0.8407313227653503,-18.60806655883789,-3.5534114837646484,8.137691497802734,13.504093170166016,-5.503973960876465,-7.392641067504883,1,0.46021753549575806,0.0007350753876380622,0.0011199535802006721,-0.00018936667765956372,0.46021753549575806,0.0007350753876380622,0.0011199535802006721,-0.00018936667765956372
20581.483,0.009905477054417133,-0.7045187950134277,0.8464725613594055,-0.024477321654558182,0.7766347527503967,0.8522166609764099,-18.482091903686523,-3.488579034805298,8.08017349243164,19.486526489257812,-2.1817312240600586,-7.7246174812316895,1,0.4577382802963257,0.00033745396649464965,-0.0007708854973316193,-0.00022971283760853112,0.4577382802963257,0.00033745396649464965,-0.0007708854973316193,-0.00022971283760853112
20591.342,0.00931299477815628,-0.6979117393493652,0.8551782369613647,-0.02415616810321808,0.8087273240089417,0.8620052933692932,-18.323884963989258,-3.423250675201416,8.022272109985352,27.949115753173828,4.312344074249268,-7.971646785736084,1,0.4556652009487152,-0.00034213188337162137,-0.001695173792541027,-0.0002251576370326802,0.4556652009487152,-0.00034213188337162137,-0.001695173792541027,-0.0002251576370326802
20601.201,0.008895523846149445,-0.6903311014175415,0.8639135956764221,-0.023311764001846313,0.8425721526145935,0.8715419769287109,-18.091203689575195,-3.4138448238372803,7.943739414215088,36.34379959106445,8.475103378295898,-8.64706802368164,1,0.4536403715610504,-0.0005136010586284101,-0.0014393411111086607,-0.0001915555476443842,0.4536403715610504,-0.0005136010586284101,-0.0014393411111086607,-0.0001915555476443842
20611.072,0.008315146900713444,-0.6831175088882446,0.8728088736534119,-0.022882189601659775,0.8734877705574036,0.88077312707901,-17.772253036499023,-3.4531257152557373,7.841515064239502,42.680938720703125,4.4616546630859375,-9.876252174377441,1,0.4516775608062744,-0.0002392180758761242,0.0003203554078936577,-0.00014919799286872149,0.4516775608062744,-0.0002392180758761242,0.0003203554078936577,-0.00014919799286872149
20620.935,0.007923423312604427,-0.6749289631843567,0.8817275166511536,-0.021621815860271454,0.9057356715202332,0.8893503546714783,-17.380233764648438,-3.489238977432251,7.733246326446533,45.9632453918457,-3.0613930225372314,-10.019140243530273,1,0.44986414909362793,0.0003492293762974441,0.0012733562616631389,-0.00013624224811792374,0.44986414909362793,0.0003492293762974441,0.0012733562616631389,-0.00013624224811792374
20630.786,0.007365988567471504,-0.6671524047851562,0.890792727470398,-0.020747339352965355,0.9344238042831421,0.8972288966178894,-16.931058883666992,-3.4654672145843506,7.637752532958984,48.07798767089844,-10.179863929748535,-10.119261741638184,1,0.44821232557296753,0.0005695745931006968,0.0014456321951001883,-0.00014748238027095795,0.44821232557296753,0.0005695745931006968,0.0014456321951001883,-0.00014748238027095795
20640.656,0.006998265162110329,-0.6583918333053589,0.8998692631721497,-0.0191554743796587,0.9645017981529236,0.9045228362083435,-16.464420318603516,-3.3675055503845215,7.561219692230225,52.80435562133789,-11.19453239440918,-9.737955093383789,1,0.4466945230960846,-7.420115434797481e-05,0.00023292710829991847,-0.00017061340622603893,0.4466945230960846,-7.420115434797481e-05,0.00023292710829991847,-0.00017061340622603893
20650.521,0.006468567997217178,-0.6500966548919678,0.9090881943702698,-0.018196502700448036,0.9912155270576477,0.9120187759399414,-15.96267032623291,-3.2352054119110107,7.502707004547119,59.0119743347168,-5.844452381134033,-9.222272872924805,1,0.44511547684669495,-0.0005790916620753706,-0.00127109803725034,-0.0001943359966389835,0.44511547684669495,-0.0005790916620753706,-0.00127109803725034,-0.0001943359966389835
20660.368,0.006121409125626087,-0.6408098936080933,0.9183204770088196,-0.016710519790649414,1.0193743705749512,0.9199095964431763,-15.411273002624512,-3.131878614425659,7.431846618652344,66.39067840576172,-2.0210812091827393,-9.847945213317871,1,0.44342684745788574,-0.0010730131762102246,-0.0011380199575796723,-0.00017167824262287468,0.44342684745788574,-0.0010730131762102246,-0.0011380199575796723,-0.00017167824262287468
20670.237,0.005788380745798349,-0.6314005851745605,0.9274241328239441,-0.015248526819050312,1.0463664531707764,0.9268360137939453,-14.798377990722656,-3.072580099105835,7.355422496795654,70.80091094970703,-3.254673957824707,-10.480094909667969,1,0.4419669806957245,-0.0006350650801323354,-9.871980000752956e-05,-0.000157184389536269,0.4419669806957245,-0.0006350650801323354,-9.871980000752956e-05,-0.000157184389536269
20680.088,0.005285501014441252,-0.6212500929832458,0.9379748106002808,-0.013868431560695171,1.0721889734268188,0.9361648559570312,-14.025629043579102,-3.0270237922668457,7.251935958862305,70.36173248291016,-6.936622142791748,-11.016101837158203,1,0.4398975074291229,0.0003324534627608955,0.0005129558267071843,-0.00011547758185770363,0.4398975074291229,0.0003324534627608955,0.0005129558267071843,-0.00011547758185770363
20689.969,0.0048215556889772415,-0.6117038130760193,0.9479982852935791,-0.012449847534298897,1.0939260721206665,0.9455904364585876,-13.29293441772461,-2.956843376159668,7.159245014190674,68.03253936767578,-12.480772972106934,-11.004820823669434,1,0.4377900958061218,0.0007649171748198569,0.001092853955924511,-0.00012512043758761138,0.4377900958061218,0.0007649171748198569,0.001092853955924511,-0.00012512043758761138
20699.81,0.004534203093498945,-0.6015461087226868,0.9574784636497498,-0.010630961507558823,1.1163649559020996,0.9521968364715576,-12.622781753540039,-2.8301002979278564,7.07949161529541,68.7601547241211,-16.160751342773438,-10.699134826660156,1,0.43637189269065857,9.549366950523108e-05,0.0008554102387279272,-0.00014014671614859253,0.43637189269065857,9.549366950523108e-05,0.0008554102387279272,-0.00014014671614859253
20709.672,0.004098093137145042,-0.5916615128517151,0.96763676404953,-0.009226744063198566,1.1350862979888916,0.9618135094642639,-11.907049179077148,-2.6624794006347656,7.010124206542969,72.80708312988281,-14.567585945129395,-10.530378341674805,1,0.434192955493927,-0.0007945975521579385,-0.00026405934477224946,-0.00015138684830162674,0.434192955493927,-0.0007945975521579385,-0.00026405934477224946,-0.00015138684830162674
20719.532,0.003848298452794552,-0.5811509490013123,0.9772526025772095,-0.007435119245201349,1.1548317670822144,0.9683147668838501,-11.209455490112305,-2.5022614002227783,6.940138339996338,78.8077392578125,-10.882242202758789,-10.824358940124512,1,0.4327767789363861,-0.0014793452573940158,-0.0008347630500793457,-0.00014570762868970633,0.4327767789363861,-0.0014793452573940158,-0.0008347630500793457,-0.00014570762868970633
20729.405,0.0034430406522005796,-0.5698752999305725,0.9884675741195679,-0.005888303741812706,1.172467589378357,0.9786226749420166,-10.328093528747559,-2.3608570098876953,6.850752830505371,82.64521026611328,-7.546096324920654,-11.173624038696289,1,0.43040144443511963,-0.0013043273938819766,-0.0008997696568258107,-0.00011547758185770363,0.43040144443511963,-0.0013043273938819766,-0.0008997696568258107,-0.00011547758185770363
20739.262,0.0032205446623265743,-0.559119701385498,0.998168408870697,-0.004280714318156242,1.188847541809082,0.9846301674842834,-9.528471946716309,-2.270345687866211,6.7602033615112305,81.26824188232422,-8.655184745788574,-11.160240173339844,1,0.4290834963321686,-0.00029164282022975385,2.7906085961149074e-05,-0.00011038994125556201,0.4290834963321686,-0.00029164282022975385,2.7906085961149074e-05,-0.00011038994125556201
20749.121,0.0028532124124467373,-0.5488383173942566,1.008500337600708,-0.0029044828843325377,1.200640082359314,0.9930892586708069,-8.688372611999512,-2.1786904335021973,6.663806438446045,76.3849868774414,-12.567288398742676,-11.370835304260254,1,0.4271450340747833,0.0005360227078199387,0.00074620550731197,-9.761167893884704e-05,0.4271450340747833,0.0005360227078199387,0.00074620550731197,-9.761167893884704e-05
20758.976,0.0026567215099930763,-0.5378679037094116,1.0183335542678833,-0.0012527423677965999,1.2136460542678833,0.9981438517570496,-7.94144344329834,-2.053389310836792,6.568974018096924,71.42432403564453,-15.825372695922852,-11.553889274597168,1,0.42604324221611023,0.0007823382620699704,0.0007449151016771793,-9.435795800527558e-05,0.42604324221611023,0.0007823382620699704,0.0007449151016771793,-9.435795800527558e-05
20768.856,0.0023126613814383745,-0.5274360179901123,1.0288012027740479,9.254431643057615e-05,1.2221949100494385,1.0061503648757935,-7.19961404800415,-1.8956509828567505,6.473929405212402,71.19221496582031,-16.289249420166016,-11.295645713806152,1,0.42419758439064026,-0.00016227470769081265,0.0002155059773940593,-9.199161286232993e-05,0.42419758439064026,-0.00016227470769081265,0.0002155059773940593,-9.199161286232993e-05
20778.698,0.0021457315888255835,-0.5163164734840393,1.03876531124115,0.0016631619073450565,1.2322328090667725,1.0117616653442383,-6.50936222076416,-1.7306441068649292,6.3834686279296875,75.73268127441406,-14.671574592590332,-11.049643516540527,1,0.4229374825954437,-0.0012796473456546664,-0.00025744576123543084,-9.571860573487356e-05,0.4229374825954437,-0.0012796473456546664,-0.00025744576123543084,-9.571860573487356e-05
20788.561,0.0019978401251137257,-0.5047747492790222,1.049268364906311,0.003147257724776864,1.2413911819458008,1.0201419591903687,-5.747237682342529,-1.5751210451126099,6.287203311920166,80.3105697631836,-10.953446388244629,-10.917466163635254,1,0.42078179121017456,-0.0014617627020925283,-0.0008207292994484305,-8.54250174597837e-05,0.42078179121017456,-0.0014617627020925283,-0.0008207292994484305,-8.54250174597837e-05
20798.42,0.001678977976553142,-0.4945831298828125,1.0594745874404907,0.004069291055202484,1.2450343370437622,1.0257585048675537,-4.968964576721191,-1.469940185546875,6.192917823791504,81.96475982666016,-9.779524803161621,-10.72882080078125,1,0.4149560034275055,-0.0009818748803809285,-0.00034600324579514563,-8.530670311301947e-05,0.4149560034275055,-0.0009818748803809285,-0.00034600324579514563,-8.530670311301947e-05
20808.294,0.0013882261700928211,-0.484052836894989,1.0702283382415771,0.005177118815481663,1.2472847700119019,1.0335041284561157,-4.128686428070068,-1.3800443410873413,6.092903137207031,78.6574935913086,-11.481305122375488,-10.070581436157227,1,0.40827709436416626,8.952530333772302e-05,0.0003077735018450767,-7.874009315855801e-05,0.40827709436416626,8.952530333772302e-05,0.0003077735018450767,-7.874009315855801e-05
20818.142,0.001270353444851935,-0.47281286120414734,1.0804505348205566,0.006534390617161989,1.2511550188064575,1.0377742052078247,-3.357532262802124,-1.2775768041610718,6.000082969665527,74.12896728515625,-13.391313552856445,-10.429006576538086,1,0.4026773273944855,0.0004916632897220552,0.0004302054294385016,-8.128391345962882e-05,0.4026773273944855,0.0004916632897220552,0.0004302054294385016,-8.128391345962882e-05
20828.005,0.0009962382027879357,-0.46233147382736206,1.0913255214691162,0.007548661436885595,1.2500938177108765,1.0448805093765259,-2.587453603744507,-1.1571085453033447,5.903341293334961,71.41664123535156,-14.749258041381836,-10.123869895935059,1,0.39599713683128357,0.00017017874051816761,0.0003905238991137594,-7.45398283470422e-05,0.39599713683128357,0.00017017874051816761,0.0003905238991137594,-7.45398283470422e-05
20837.865,0.0008968206821009517,-0.4511246979236603,1.101656436920166,0.008789815939962864,1.250989556312561,1.0486347675323486,-1.890457034111023,-1.0217927694320679,5.8075361251831055,72.4476318359375,-13.760941505432129,-10.5751314163208,1,0.39037176966667175,-0.0006529702222906053,-0.00010710775677580386,-6.850565841887146e-05,0.39037176966667175,-0.0006529702222906053,-0.00010710775677580386,-6.850565841887146e-05
20847.736,0.0006395655800588429,-0.4395541548728943,1.1136279106140137,0.009683630429208279,1.2472739219665527,1.0552849769592285,-1.0791893005371094,-0.8826175332069397,5.697634220123291,75.45781707763672,-11.475202560424805,-10.417739868164062,1,0.38315725326538086,-0.0012519025476649404,-0.0004377868608571589,-4.7563509724568576e-05,0.38315725326538086,-0.0012519025476649404,-0.0004377868608571589,-4.7563509724568576e-05
20857.596,0.0005469731404446065,-0.4285033047199249,1.1239919662475586,0.010574784129858017,1.2449815273284912,1.05772066116333,-0.34469690918922424,-0.7739916443824768,5.598469257354736,78.20203399658203,-10.170036315917969,-9.487418174743652,1,0.37774044275283813,-0.001367236953228712,-0.00027938347193412483,-6.335885700536892e-05,0.37774044275283813,-0.001367236953228712,-0.00027938347193412483,-6.335885700536892e-05
20867.449,0.00028704741271212697,-0.4183764159679413,1.1349387168884277,0.011116569861769676,1.2380099296569824,1.0616813898086548,0.44012972712516785,-0.6880919337272644,5.503537178039551,77.4858627319336,-9.851001739501953,-9.145636558532715,1,0.37160709500312805,-0.0007503994856961071,-7.726598414592445e-05,-6.708584987791255e-05,0.37160709500312805,-0.0007503994856961071,-7.726598414592445e-05,-6.708584987791255e-05
20877.31,0.00020620162831619382,-0.4074622690677643,1.14536714553833,0.01191785279661417,1.2329888343811035,1.0620989799499512,1.1930094957351685,-0.6013745665550232,5.414923667907715,73.46146392822266,-10.515101432800293,-8.89533519744873,1,0.3665674924850464,-1.7743755051924381e-06,0.00015824203728698194,-7.30608735466376e-05,0.3665674924850464,-1.7743755051924381e-06,0.00015824203728698194,-7.30608735466376e-05
20887.18,-4.67028257844504e-05,-0.39755508303642273,1.156376838684082,0.012354986742138863,1.2228971719741821,1.0643705129623413,1.9405251741409302,-0.5132883191108704,5.3225226402282715,68.92672729492188,-11.868552207946777,-8.503268241882324,1,0.36073267459869385,0.0001621133997105062,0.0003718123189173639,-6.726332503603771e-05,0.36073267459869385,0.0001621133997105062,0.0003718123189173639,-6.726332503603771e-05
20897.033,-9.927726932801306e-05,-0.38630661368370056,1.167562484741211,0.013193531893193722,1.2160640954971313,1.0668352842330933,2.656062364578247,-0.40152865648269653,5.230410099029541,66.37510681152344,-13.160798072814941,-8.2128324508667,1,0.35471436381340027,-0.00021308637224137783,0.00042972146184183657,-6.58435164950788e-05,0.35471436381340027,-0.00021308637224137783,0.00042972146184183657,-6.58435164950788e-05
20906.899,-0.00034817110281437635,-0.37669795751571655,1.1785322427749634,0.01343479286879301,1.2032873630523682,1.0668869018554688,3.322526693344116,-0.2932645380496979,5.145200729370117,66.17011260986328,-11.657612800598145,-7.779324531555176,1,0.3493575155735016,-0.0008002432878129184,-0.0001661460701143369,-7.39482493372634e-05,0.3493575155735016,-0.0008002432878129184,-0.0001661460701143369,-7.39482493372634e-05
20916.752,-0.0003962841583415866,-0.36571556329727173,1.189697265625,0.014042681083083153,1.1940953731536865,1.067251443862915,4.001205921173096,-0.1870056688785553,5.059169769287109,66.65280151367188,-9.725183486938477,-7.0116801261901855,1,0.3437809348106384,-0.0010462363716214895,-0.00031116095487959683,-7.483562512788922e-05,0.3437809348106384,-0.0010462363716214895,-0.00031116095487959683,-7.483562512788922e-05
20926.623,-0.0006459911237470806,-0.35645124316215515,1.2005932331085205,0.014084069058299065,1.1788877248764038,1.0649338960647583,4.6662116050720215,-0.11465871334075928,4.985173225402832,65.90950012207031,-8.231218338012695,-6.723155498504639,1,0.338962584733963,-0.0009105773060582578,-0.0002613171236589551,-8.873789192875847e-05,0.338962584733963,-0.0009105773060582578,-0.0002613171236589551,-8.873789192875847e-05
20936.482,-0.0007131851161830127,-0.34631040692329407,1.2109707593917847,0.014406736008822918,1.1664032936096191,1.059248924255371,5.305958271026611,-0.05034013092517853,4.91573429107666,63.567771911621094,-8.35745906829834,-6.510636806488037,1,0.33520323038101196,-0.0006028037751093507,8.387956768274307e-05,-9.305647108703852e-05,0.33520323038101196,-0.0006028037751093507,8.387956768274307e-05,-9.305647108703852e-05
20946.336,-0.0009724373812787235,-0.33738863468170166,1.2218025922775269,0.0142935486510396,1.1490672826766968,1.0545822381973267,5.944559097290039,0.009194772690534592,4.848140716552734,58.64373779296875,-8.74331283569336,-6.65669059753418,1,0.33092939853668213,-3.581012424547225e-05,0.00017292094707954675,-9.151835547527298e-05,0.33092939853668213,-3.581012424547225e-05,0.00017292094707954675,-9.151835547527298e-05
20956.197,-0.0010422314517199993,-0.3275837302207947,1.232086420059204,0.014534099958837032,1.134552240371704,1.0461177825927734,6.525122165679932,0.08070873469114304,4.777042388916016,54.52694320678711,-9.406844139099121,-6.7506232261657715,1,0.32784026861190796,-0.000143240496981889,0.00027325382689014077,-8.359109779121354e-05,0.32784026861190796,-0.000143240496981889,0.00027325382689014077,-8.359109779121354e-05
20966.071,-0.0013078984338790178,-0.31904053688049316,1.2427952289581299,0.014294147491455078,1.1152688264846802,1.0392333269119263,7.079568386077881,0.1511591225862503,4.702352523803711,51.27089309692383,-8.811273574829102,-7.025119304656982,1,0.3241156041622162,-0.0003335826040711254,2.2099042325862683e-05,-7.406656368402764e-05,0.3241156041622162,-0.0003335826040711254,2.2099042325862683e-05,-7.406656368402764e-05
20975.92,-0.0013820705935359001,-0.3095852732658386,1.2529332637786865,0.014372720383107662,1.0991498231887817,1.0296440124511719,7.581676006317139,0.22099129855632782,4.624477386474609,49.41838836669922,-7.3946146965026855,-7.3949384689331055,1,0.3213180899620056,-0.000647808366920799,-0.0001806636864785105,-6.424623279599473e-05,0.3213180899620056,-0.000647808366920799,-0.0001806636864785105,-6.424623279599473e-05
20985.781,-0.0016538568306714296,-0.30143114924430847,1.2634743452072144,0.013970013707876205,1.0784893035888672,1.021033525466919,8.076556205749512,0.27210408449172974,4.54133939743042,48.40288162231445,-6.1244001388549805,-6.870873928070068,1,0.3180480897426605,-0.0009229978895746171,-0.00017824408132582903,-5.79754268983379e-05,0.3180480897426605,-0.0009229978895746171,-0.00017824408132582903,-5.79754268983379e-05
20995.642,-0.001733230659738183,-0.29235976934432983,1.2734341621398926,0.013926827348768711,1.061112880706787,1.0091121196746826,8.547449111938477,0.3155558407306671,4.468898296356201,46.17167282104492,-5.523318767547607,-6.3268513679504395,1,0.31586480140686035,-0.0006992652197368443,-5.2747345762327313e-05,-7.211433694465086e-05,0.31586480140686035,-0.0006992652197368443,-5.2747345762327313e-05,-7.211433694465086e-05
21005.512,-0.0020161850843578577,-0.2846326231956482,1.283767580986023,0.013380794785916805,1.039081335067749,0.9986010789871216,9.01158332824707,0.3489842116832733,4.401509761810303,42.53520965576172,-5.973428249359131,-5.779116153717041,1,0.31312018632888794,-0.0004229466139804572,0.000198568741325289,-7.950915460241958e-05,0.31312018632888794,-0.0004229466139804572,0.000198568741325289,-7.950915460241958e-05
21015.365,-0.002104362240061164,-0.27596569061279297,1.2935075759887695,0.013288802467286587,1.0205055475234985,0.9851256608963013,9.42416763305664,0.390458881855011,4.33747673034668,37.049163818359375,-5.74014139175415,-5.724313735961914,1,0.3113854229450226,6.194183515617624e-05,6.678103818558156e-05,-8.140222780639306e-05,0.3113854229450226,6.194183515617624e-05,6.678103818558156e-05,-8.140222780639306e-05
21025.232,-0.0021855244413018227,-0.2672008275985718,1.3035606145858765,0.013214055448770523,1.0019629001617432,0.9727619290351868,9.809100151062012,0.43013912439346313,4.273350238800049,32.53883743286133,-4.92379093170166,-5.705647945404053,1,0.3091972768306732,-5.371518273022957e-05,-6.887802737765014e-05,-7.879924669396132e-05,0.3091972768306732,-5.371518273022957e-05,-6.887802737765014e-05,-7.879924669396132e-05
21035.087,-0.002504544099792838,-0.26047027111053467,1.313090205192566,0.012457064352929592,0.9773485660552979,0.9579230546951294,10.131592750549316,0.4561886787414551,4.21417236328125,29.179588317871094,-4.169184684753418,-5.9807257652282715,1,0.307865709066391,-0.0002969659399241209,-6.436144030885771e-05,-8.051484473980963e-05,0.307865709066391,-0.0002969659399241209,-6.436144030885771e-05,-8.051484473980963e-05
21044.955,-0.002596746664494276,-0.25213423371315,1.3228461742401123,0.0122251370921731,0.9582757353782654,0.9438380599021912,10.426884651184082,0.48855775594711304,4.147655963897705,27.337833404541016,-3.966003656387329,-6.188728332519531,1,0.30621612071990967,-0.0006165148224681616,5.306995444698259e-05,-6.720416422467679e-05,0.30621612071990967,-0.0006165148224681616,5.306995444698259e-05,-6.720416422467679e-05
21054.812,-0.002932237694039941,-0.24583452939987183,1.332085371017456,0.011272206902503967,0.9330182075500488,0.9281126260757446,10.694846153259277,0.5097298622131348,4.0856614112854,25.24704933166504,-2.179086208343506,-5.842310905456543,1,0.3052152395248413,-0.0006249027792364359,-0.00031487102387472987,-7.270591595442966e-05,0.3052152395248413,-0.0006249027792364359,-0.00031487102387472987,-7.270591595442966e-05
21064.67,-0.0030363795813173056,-0.23797295987606049,1.341532588005066,0.011084056459367275,0.9130423069000244,0.9129707217216492,10.956088066101074,0.5165002942085266,4.026240825653076,22.625341415405273,-1.8105427026748657,-5.752912521362305,1,0.30395039916038513,-0.0005034386995248497,-3.532620394253172e-05,-7.406656368402764e-05,0.30395039916038513,-0.0005034386995248497,-3.532620394253172e-05,-7.406656368402764e-05
21074.533,-0.0033821293618530035,-0.23213575780391693,1.3504632711410522,0.010186211206018925,0.8871955871582031,0.8959715366363525,11.178750991821289,0.5113706588745117,3.974531650543213,18.775217056274414,-1.8557987213134766,-5.8633246421813965,1,0.3033910393714905,-0.00024196029698941857,6.645842222496867e-05,-8.075148798525333e-05,0.3033910393714905,-0.00024196029698941857,6.645842222496867e-05,-8.075148798525333e-05
21084.406,-0.0037220630329102278,-0.22620874643325806,1.3595870733261108,0.0092953285202384,0.8623001575469971,0.8799731135368347,11.361614227294922,0.5126180052757263,3.917785167694092,15.046466827392578,-2.085759401321411,-6.3513689041137695,1,0.30247411131858826,-0.0002409924491075799,0.00013065856182947755,-6.868313357699662e-05,0.30247411131858826,-0.0002409924491075799,0.00013065856182947755,-6.868313357699662e-05
21094.254,-0.003855477785691619,-0.21931788325309753,1.3681492805480957,0.009052553214132786,0.8410131931304932,0.8615047335624695,11.510790824890137,0.514595091342926,3.858891487121582,11.42809009552002,-2.451580047607422,-5.867897033691406,1,0.3024405241012573,-0.00020114965445827693,0.00018227676628157496,-6.702668906655163e-05,0.3024405241012573,-0.00020114965445827693,0.00018227676628157496,-6.702668906655163e-05
21104.12,-0.003985556773841381,-0.21237315237522125,1.3768811225891113,0.008778485469520092,0.8205150961875916,0.8438538312911987,11.627796173095703,0.5274186134338379,3.795994281768799,8.1414794921875,-1.8585598468780518,-5.788434982299805,1,0.3021104633808136,-0.00020582755678333342,-2.3066881112754345e-05,-5.9986818087054417e-05,0.3021104633808136,-0.00020582755678333342,-2.3066881112754345e-05,-5.9986818087054417e-05
21113.975,-0.004356289282441139,-0.20743343234062195,1.3851046562194824,0.007823893800377846,0.7941926121711731,0.8247853517532349,11.709643363952637,0.5266353487968445,3.7371151447296143,5.3266730308532715,-1.1337865591049194,-6.6702094078063965,1,0.3023785352706909,-0.00030841873376630247,-5.968354162178002e-05,-5.625982885248959e-05,0.3023785352706909,-0.00030841873376630247,-5.968354162178002e-05,-5.625982885248959e-05
21123.853,-0.004495312925428152,-0.2009720355272293,1.3934576511383057,0.007641696371138096,0.7732235789299011,0.8071746230125427,11.767733573913574,0.5134295225143433,3.673042058944702,0.9903466105461121,0.1383153349161148,-6.353067398071289,1,0.30221274495124817,0.00010839821334229782,-0.00021615119476336986,-4.9397429393138736e-05,0.30221274495124817,0.00010839821334229782,-0.00021615119476336986,-4.9397429393138736e-05
21133.695,-0.004859252832829952,-0.19535569846630096,1.4025599956512451,0.00677390256896615,0.7464614510536194,0.7881295084953308,11.775362968444824,0.49034395813941956,3.6074306964874268,-1.9122787714004517,0.5414270758628845,-6.422863960266113,1,0.30202168226242065,-0.0001606616424396634,-4.468200131668709e-05,-4.4250631617615e-05,0.30202168226242065,-0.0001606616424396634,-4.468200131668709e-05,-4.4250631617615e-05
21143.555,-0.005020206794142723,-0.1894097924232483,1.4104437828063965,0.006447039544582367,0.7255767583847046,0.7694090008735657,11.753193855285645,0.47206205129623413,3.54445743560791,-4.321017265319824,0.7151116132736206,-6.840997219085693,1,0.3023497462272644,-0.00021389291214291006,-1.6130685764892405e-07,-4.194344364805147e-05,0.3023497462272644,-0.00021389291214291006,-1.6130685764892405e-07,-4.194344364805147e-05
21153.418,-0.005413974169641733,-0.18511691689491272,1.4182064533233643,0.005577580071985722,0.700386106967926,0.7510422468185425,11.694988250732422,0.44120317697525024,3.4845023155212402,-7.163469314575195,-0.002058785641565919,-7.003007888793945,1,0.30264532566070557,-9.968764788936824e-05,0.00021921603183727711,-4.206176527077332e-05,0.30264532566070557,-9.968764788936824e-05,0.00021921603183727711,-4.206176527077332e-05
21163.287,-0.005587841384112835,-0.1796308159828186,1.4256839752197266,0.005314435809850693,0.6797601580619812,0.7320485711097717,11.612312316894531,0.42378878593444824,3.4171931743621826,-8.42816162109375,-0.4850195348262787,-6.96315336227417,1,0.30323508381843567,-0.0004069771966896951,0.000196955690626055,-3.0407518352149054e-05,0.30323508381843567,-0.0004069771966896951,0.000196955690626055,-3.0407518352149054e-05
21173.14,-0.005999140441417694,-0.1758057326078415,1.4330118894577026,0.004392373841255903,0.6545438766479492,0.713825523853302,11.518516540527344,0.4066266417503357,3.3495047092437744,-11.147849082946777,0.008009545505046844,-7.0670576095581055,1,0.3037046492099762,-8.888007869245484e-05,-4.355285454948898e-06,-2.6325575163355097e-05,0.3037046492099762,-8.888007869245484e-05,-4.355285454948898e-06,-2.6325575163355097e-05
21183.001,-0.006188283208757639,-0.17078712582588196,1.4400895833969116,0.0040658037178218365,0.6339682936668396,0.694731593132019,11.403621673583984,0.3927130401134491,3.2801308631896973,-13.917608261108398,1.172793984413147,-6.98108434677124,1,0.3045133054256439,-4.839206212636782e-06,-0.00018001846910919994,-2.1947840650682338e-05,0.3045133054256439,-4.839206212636782e-06,-0.00018001846910919994,-2.1947840650682338e-05
21192.862,-0.006617813371121883,-0.16740944981575012,1.4469811916351318,0.00306381075643003,0.6091545820236206,0.6761375069618225,11.252222061157227,0.36100876331329346,3.210649013519287,-15.898635864257812,2.145477294921875,-6.714904308319092,1,0.30528929829597473,-0.0001577581133460626,-0.00016856566071510315,-2.0823825252591632e-05,0.30528929829597473,-0.0001577581133460626,-0.00016856566071510315,-2.0823825252591632e-05
21202.736,-0.0068257092498242855,-0.1628437340259552,1.4536553621292114,0.002712378278374672,0.5888771414756775,0.6571049094200134,11.091787338256836,0.3255213797092438,3.1483848094940186,-17.348709106445312,2.7975454330444336,-6.618999481201172,1,0.3062823712825775,-0.0002366371627431363,-0.00012872288061771542,-2.786369987006765e-05,0.3062823712825775,-0.0002366371627431363,-0.00012872288061771542,-2.786369987006765e-05
21212.587,-0.007279849145561457,-0.1599051058292389,1.4601123332977295,0.001689227530732751,0.5645208358764648,0.6381558179855347,10.907022476196289,0.2819296419620514,3.0866217613220215,-18.507732391357422,1.616633415222168,-6.678333759307861,1,0.30736371874809265,-0.00031712930649518967,0.0002972885558847338,-2.5497356546111405e-05,0.30736371874809265,-0.00031712930649518967,0.0002972885558847338,-2.5497356546111405e-05
21222.444,-0.007501497399061918,-0.15576767921447754,1.4663761854171753,0.001415467937476933,0.5448511838912964,0.6191517114639282,10.711488723754883,0.2504483759403229,3.0250797271728516,-20.132537841796875,1.0987943410873413,-6.220767498016357,1,0.30855658650398254,-0.00018114761041942984,0.00018679334607440978,-2.6443894967087545e-05,0.30855658650398254,-0.00018114761041942984,0.00018679334607440978,-2.6443894967087545e-05
21232.306,-0.007972524501383305,-0.15327554941177368,1.4724074602127075,0.00037165358662605286,0.520680844783783,0.6002619862556458,10.507643699645996,0.22799666225910187,2.9652421474456787,-22.3776798248291,1.4226632118225098,-6.498113632202148,1,0.3098393380641937,-3.3713135053403676e-05,1.8227676264359616e-05,-2.4077548005152494e-05,0.3098393380641937,-3.3713135053403676e-05,1.8227676264359616e-05,-2.4077548005152494e-05
21242.18,-0.00821052584797144,-0.14956802129745483,1.4782668352127075,4.6103672502795234e-05,0.5014456510543823,0.5813241600990295,10.280345916748047,0.2011929154396057,2.904386520385742,-24.29429054260254,1.795569896697998,-6.180874824523926,1,0.3112229108810425,-4.081063889316283e-05,-2.903523636632599e-06,-2.2539425117429346e-05,0.3112229108810425,-4.081063889316283e-05,-2.903523636632599e-06,-2.2539425117429346e-05
21252.031,-0.008699058555066586,-0.1469864398241043,1.4844216108322144,-0.0009500043233856559,0.4767128527164459,0.5603201389312744,9.993886947631836,0.16206924617290497,2.8413455486297607,-26.742412567138672,3.4359617233276367,-5.935354709625244,1,0.31297773122787476,0.00011468918091850355,-0.00031487102387472987,-1.8871593056246638e-05,0.31297773122787476,0.00011468918091850355,-0.00031487102387472987,-1.8871593056246638e-05
21261.893,-0.009203368797898293,-0.14523260295391083,1.489611029624939,-0.002047385089099407,0.4530027508735657,0.5409662127494812,9.720654487609863,0.11722439527511597,2.7891688346862793,-28.835363388061523,3.867542028427124,-5.632313251495361,1,0.314809113740921,7.01684839441441e-05,-7.968559657456353e-05,-3.235975236748345e-05,0.314809113740921,7.01684839441441e-05,-7.968559657456353e-05,-3.235975236748345e-05
21271.749,-0.009464061819016933,-0.14209184050559998,1.4949198961257935,-0.002279610838741064,0.43515825271606445,0.5228453874588013,9.42071533203125,0.06587742269039154,2.739485502243042,-30.560274124145508,3.95835280418396,-5.556604385375977,1,0.31628015637397766,6.678103818558156e-05,-1.8227676264359616e-05,-3.3957036066567525e-05,0.31628015637397766,6.678103818558156e-05,-1.8227676264359616e-05,-3.3957036066567525e-05
21281.623,-0.009736761450767517,-0.13922758400440216,1.4999345541000366,-0.0025511032436043024,0.4172746241092682,0.5043603181838989,9.11135196685791,0.018475323915481567,2.6910693645477295,-31.705625534057617,3.9617650508880615,-5.979274272918701,1,0.31799373030662537,-3.5487510103848763e-06,-3.0648304800706683e-06,-3.0466677344520576e-05,0.31799373030662537,-3.5487510103848763e-06,-3.0648304800706683e-06,-3.0466677344520576e-05
21291.471,-0.010264642536640167,-0.1379472315311432,1.504632592201233,-0.0035706739872694016,0.3950423002243042,0.48628905415534973,8.804245948791504,-0.024245373904705048,2.641843557357788,-31.564565658569336,2.973416805267334,-5.803915500640869,1,0.3197688162326813,-0.000314548407914117,0.00024518644204363227,-2.869191848731134e-05,0.3197688162326813,-0.000314548407914117,0.00024518644204363227,-2.869191848731134e-05
21301.333,-0.01079954020678997,-0.13688530027866364,1.5090428590774536,-0.004583385307341814,0.3730553090572357,0.4680251479148865,8.492755889892578,-0.06285680830478668,2.5898969173431396,-32.547767639160156,2.4264395236968994,-5.935605049133301,1,0.32174286246299744,-9.420321293873712e-05,0.00018792251648847014,-2.2184472982189618e-05,0.32174286246299744,-9.420321293873712e-05,0.00018792251648847014,-2.2184472982189618e-05
21311.194,-0.011090556159615517,-0.1344892382621765,1.5135854482650757,-0.0047597456723451614,0.35693439841270447,0.45088908076286316,8.154415130615234,-0.09790714085102081,2.5342488288879395,-34.45570755004883,3.1952438354492188,-5.937193870544434,1,0.32337790727615356,0.0001809863024391234,-0.00010823691263794899,-1.526291816844605e-05,0.32337790727615356,0.0001809863024391234,-0.00010823691263794899,-1.526291816844605e-05
21321.067,-0.011643694713711739,-0.1337255984544754,1.5176194906234741,-0.005774027667939663,0.33612826466560364,0.4328877031803131,7.813544750213623,-0.14119382202625275,2.4845316410064697,-37.096923828125,5.362941265106201,-5.887187957763672,1,0.3254893124103546,0.00040052496478892863,-0.00046988693065941334,-2.0882986063952558e-05,0.3254893124103546,0.00040052496478892863,-0.00046988693065941334,-2.0882986063952558e-05
21330.919,-0.01194737758487463,-0.13167361915111542,1.5217963457107544,-0.00588766997680068,0.3208354711532593,0.41648510098457336,7.441064834594727,-0.20005397498607635,2.4344046115875244,-38.785518646240234,5.15648078918457,-6.02607536315918,1,0.32714012265205383,0.0002980950812343508,1.032363888953114e-05,-1.7274309357162565e-05,0.32714012265205383,0.0002980950812343508,1.032363888953114e-05,-1.7274309357162565e-05
21340.775,-0.012259166687726974,-0.1298414170742035,1.525715708732605,-0.0059787495993077755,0.3057922124862671,0.4001252055168152,7.052613735198975,-0.2569003999233246,2.3833556175231934,-39.113441467285156,4.1446404457092285,-5.623945713043213,1,0.32891565561294556,6.14579112152569e-05,0.00020727932860609144,-1.686020004854072e-05,0.32891565561294556,6.14579112152569e-05,0.00020727932860609144,-1.686020004854072e-05
21350.637,-0.01283503882586956,-0.12944476306438446,1.5292987823486328,-0.006924618501216173,0.28712669014930725,0.38412758708000183,6.659473419189453,-0.2979804277420044,2.3350489139556885,-39.048336029052734,3.056788206100464,-5.310762405395508,1,0.3307766020298004,-3.3713135053403676e-05,0.00027406038134358823,-2.0468874936341308e-05,0.3307766020298004,-3.3713135053403676e-05,0.00027406038134358823,-2.0468874936341308e-05
21360.515,-0.013157942332327366,-0.12791238725185394,1.5328890085220337,-0.006938521284610033,0.2732037305831909,0.36863967776298523,6.272033214569092,-0.3297659456729889,2.284296989440918,-38.582767486572266,2.439405679702759,-5.630468368530273,1,0.33251532912254333,-0.00010613990889396518,0.0002035692596109584,-1.3014891919738147e-05,0.33251532912254333,-0.00010613990889396518,0.0002035692596109584,-1.3014891919738147e-05
21370.36,-0.013749434612691402,-0.1279463768005371,1.5359241962432861,-0.007879430428147316,0.25475063920021057,0.35209205746650696,5.9066996574401855,-0.35809412598609924,2.237377166748047,-38.421669006347656,2.6378836631774902,-5.071162700653076,1,0.33480361104011536,-7.549161819042638e-05,4.1939783841371536e-05,-1.9818131477222778e-05,0.33480361104011536,-7.549161819042638e-05,4.1939783841371536e-05,-1.9818131477222778e-05
21380.228,-0.014082361944019794,-0.1266842633485794,1.539204478263855,-0.007849829271435738,0.2420153021812439,0.33742690086364746,5.520529270172119,-0.39212697744369507,2.189897060394287,-39.04944610595703,4.140352249145508,-4.941862106323242,1,0.3365112245082855,0.00013953042798675597,-0.00028325486346147954,-1.8043372620013542e-05,0.3365112245082855,0.00013953042798675597,-0.00028325486346147954,-1.8043372620013542e-05
21390.081,-0.014675225131213665,-0.12674224376678467,1.5421626567840576,-0.008651187643408775,0.22600075602531433,0.32323065400123596,5.1242570877075195,-0.4411154091358185,2.1467370986938477,-40.287986755371094,5.61299467086792,-4.633087158203125,1,0.3382706642150879,0.00031051572295837104,-0.0003329373721498996,-2.3781754862284288e-05,0.3382706642150879,0.00031051572295837104,-0.0003329373721498996,-2.3781754862284288e-05
21399.952,-0.015277047641575336,-0.1269206702709198,1.5449111461639404,-0.00945831649005413,0.21055547893047333,0.308999240398407,4.719759464263916,-0.5040271282196045,2.10687255859375,-40.74550247192383,6.411508083343506,-4.412849426269531,1,0.3401520848274231,0.00017356617900077254,-0.000228894452448003,-2.7804540877696127e-05,0.3401520848274231,0.00017356617900077254,-0.000228894452448003,-2.7804540877696127e-05
21409.807,-0.015622693113982677,-0.12595143914222717,1.547820806503296,-0.009288637898862362,0.20012223720550537,0.29629555344581604,4.297400951385498,-0.5700391530990601,2.0663516521453857,-40.8487663269043,5.349796295166016,-4.139610767364502,1,0.3415810167789459,0.0001566289720358327,0.00017759886395651847,-2.7212954591959715e-05,0.3415810167789459,0.0001566289720358327,0.00017759886395651847,-2.7212954591959715e-05
21419.665,-0.015973595902323723,-0.12514133751392365,1.550537109375,-0.009075731039047241,0.1899450272321701,0.28365737199783325,3.891524314880371,-0.6218158006668091,2.031918525695801,-40.293785095214844,4.459709644317627,-3.3588175773620605,1,0.3430965840816498,4.75855304102879e-05,0.00017098526586778462,-3.892635504598729e-05,0.3430965840816498,4.75855304102879e-05,0.00017098526586778462,-3.892635504598729e-05
21429.531,-0.01658247783780098,-0.12555254995822906,1.5529398918151855,-0.009640785865485668,0.17678187787532806,0.2711876332759857,3.490473747253418,-0.6626858711242676,1.9994539022445679,-39.04016876220703,3.6572813987731934,-3.006798267364502,1,0.3447338938713074,-0.00013146510173100978,0.00018953556718770415,-4.2475872760405764e-05,0.3447338938713074,-0.00013146510173100978,0.00018953556718770415,-4.2475872760405764e-05
21439.394,-0.016937924548983574,-0.1249329149723053,1.5554054975509644,-0.009332645684480667,0.16788505017757416,0.2593834400177002,3.1011929512023926,-0.6971585154533386,1.9724985361099243,-38.55997848510742,3.071608543395996,-2.7587127685546875,1,0.3461817502975464,5.2586041419999674e-05,0.00016517822223249823,-4.998901567887515e-05,0.3461817502975464,5.2586041419999674e-05,0.00016517822223249823,-4.998901567887515e-05
21449.249,-0.017552519217133522,-0.12548913061618805,1.5575623512268066,-0.009845251217484474,0.15600363910198212,0.24729104340076447,2.729848623275757,-0.7255839705467224,1.9475860595703125,-37.80363464355469,3.0062267780303955,-2.8800671100616455,1,0.34786272048950195,-2.2421656467486173e-05,6.936195131856948e-05,-5.063975913799368e-05,0.34786272048950195,-2.2421656467486173e-05,6.936195131856948e-05,-5.063975913799368e-05
21459.107,-0.017910819500684738,-0.12503279745578766,1.559792399406433,-0.009466305375099182,0.1483527570962906,0.23650556802749634,2.3499836921691895,-0.7607082724571228,1.920447826385498,-38.231929779052734,3.5645627975463867,-2.6132657527923584,1,0.34918949007987976,0.00028454529820010066,-8.387956768274307e-05,-4.868752512265928e-05,0.34918949007987976,0.00028454529820010066,-8.387956768274307e-05,-4.868752512265928e-05
21468.969,-0.01853771135210991,-0.12568920850753784,1.5617257356643677,-0.009941933676600456,0.13801385462284088,0.22598564624786377,1.965077519416809,-0.8008904457092285,1.8960551023483276,-38.846946716308594,4.8468194007873535,-2.4462311267852783,1,0.3506046235561371,0.000369876652257517,-0.0002787382691167295,-5.223704283707775e-05,0.3506046235561371,0.000369876652257517,-0.0002787382691167295,-5.223704283707775e-05
21478.84,-0.01890750229358673,-0.12548679113388062,1.563605546951294,-0.009609165601432323,0.13082121312618256,0.21570716798305511,1.5980594158172607,-0.8424656987190247,1.8791108131408691,-38.855831146240234,4.712404727935791,-2.0774943828582764,1,0.3519933223724365,0.0002959981211461127,5.807047273265198e-06,-6.347717862809077e-05,0.3519933223724365,0.0002959981211461127,5.807047273265198e-06,-6.347717862809077e-05
21488.69,-0.01899663358926773,-0.1241907998919487,1.5657180547714233,-0.008222552947700024,0.12831959128379822,0.20680691301822662,1.211079478263855,-0.8874754905700684,1.8581428527832031,-37.83812713623047,3.740434408187866,-2.0529401302337646,1,0.35292869806289673,0.000142433971632272,0.0001955039333552122,-5.779794810223393e-05,0.35292869806289673,0.000142433971632272,0.0001955039333552122,-5.779794810223393e-05
21498.555,-0.019539421424269676,-0.1264350563287735,1.565093994140625,-0.01011396013200283,0.12045064568519592,0.20434443652629852,1.2548797130584717,-0.8775646686553955,1.8650342226028442,-36.256011962890625,3.168473720550537,-2.2344601154327393,1,0.3536306917667389,-0.00011985099263256416,0.00016114556638058275,-9.145919466391206e-05,0.3536306917667389,-0.00011985099263256416,0.00016114556638058275,-9.145919466391206e-05
21508.413,-0.020514771342277527,-0.12707820534706116,1.5684069395065308,-0.009834921918809414,0.10756663233041763,0.18587161600589752,0.5354675650596619,-0.9366408586502075,1.8252137899398804,-33.7830810546875,3.0046334266662598,-1.9392387866973877,1,0.3563632071018219,-0.00031099963234737515,8.371825970243663e-05,-3.383871808182448e-05,0.3563632071018219,-0.00031099963234737515,8.371825970243663e-05,-3.383871808182448e-05
21518.283,-0.020866895094513893,-0.1269468367099762,1.5700722932815552,-0.009164944291114807,0.10376724600791931,0.1775755137205124,0.20162317156791687,-0.9676993489265442,1.8063123226165771,-32.597389221191406,4.114802837371826,-2.10512113571167,1,0.35739418864250183,-4.00040989916306e-05,-0.00022453915153164417,-5.7916266086976975e-05,0.35739418864250183,-4.00040989916306e-05,-0.00022453915153164417,-5.7916266086976975e-05
21528.136,-0.021479522809386253,-0.1277526170015335,1.5715020895004272,-0.009364748373627663,0.09768854081630707,0.16878151893615723,-0.1236242949962616,-1.0062451362609863,1.7856595516204834,-33.101688385009766,5.019847393035889,-1.6205705404281616,1,0.3586719334125519,0.0003534233837854117,-0.00021921603183727711,-5.833037357660942e-05,0.3586719334125519,0.0003534233837854117,-0.00021921603183727711,-5.833037357660942e-05
21538.003,-0.02183147333562374,-0.12767601013183594,1.5730020999908447,-0.008647018112242222,0.09510274976491928,0.16106034815311432,-0.45873719453811646,-1.0590702295303345,1.768046498298645,-35.01591491699219,6.024720668792725,-1.9037361145019531,1,0.3596534729003906,0.0007820157334208488,-0.0002929332840722054,-5.939523543929681e-05,0.3596534729003906,0.0007820157334208488,-0.0002929332840722054,-5.939523543929681e-05
21547.858,-0.02244444191455841,-0.12848368287086487,1.5742770433425903,-0.008738589473068714,0.09048845618963242,0.15307413041591644,-0.8183087706565857,-1.1129759550094604,1.7483924627304077,-35.29901123046875,4.277281284332275,-1.1974787712097168,1,0.3608182966709137,0.0005150528158992529,0.00032809816184453666,-6.10516726737842e-05,0.3608182966709137,0.0005150528158992529,0.00032809816184453666,-6.10516726737842e-05
21557.728,-0.022790931165218353,-0.1284404844045639,1.5756254196166992,-0.007879538461565971,0.08912768214941025,0.14574623107910156,-1.167021632194519,-1.1519383192062378,1.7358747720718384,-33.507328033447266,3.1985044479370117,-1.3994581699371338,1,0.3617881238460541,0.0001021072530420497,0.00022647484729532152,-6.797323294449598e-05,0.3617881238460541,0.0001021072530420497,0.00022647484729532152,-6.797323294449598e-05
21567.583,-0.023397861048579216,-0.12924759089946747,1.5767595767974854,-0.007842172868549824,0.08572832494974136,0.13830910623073578,-1.4937467575073242,-1.1820513010025024,1.7216103076934814,-30.394287109375,2.8497314453125,-1.3723952770233154,1,0.36289700865745544,-0.00024002463032957166,9.404190495843068e-05,-6.542940536746755e-05,0.36289700865745544,-0.00024002463032957166,9.404190495843068e-05,-6.542940536746755e-05
21577.449,-0.023658830672502518,-0.1300608068704605,1.576622486114502,-0.008715981617569923,0.083123117685318,0.1377357691526413,-1.4937467575073242,-1.1820513010025024,1.7216103076934814,-27.185192108154297,3.456860065460205,-0.688299834728241,1,0.36293521523475647,-0.0004139134252909571,-0.00011356003233231604,-8.808715210761875e-05,0.36293521523475647,-0.0004139134252909571,-0.00011356003233231604,-8.808715210761875e-05
21587.302,-0.024350132793188095,-0.12991362810134888,1.579105019569397,-0.00665332330390811,0.08361567556858063,0.1245138943195343,-2.076544761657715,-1.2428884506225586,1.700219988822937,-25.55506134033203,4.499309539794922,-0.8267390727996826,1,0.3648192882537842,-1.5162845556915272e-05,-0.00026293020346201956,-5.9631864132825285e-05,0.3648192882537842,-1.5162845556915272e-05,-0.00026293020346201956,-5.9631864132825285e-05
21597.171,-0.02461833506822586,-0.13070937991142273,1.5789659023284912,-0.007614238653331995,0.08101429045200348,0.1239127442240715,-2.072615623474121,-1.235502004623413,1.6989829540252686,-26.277040481567383,3.592374324798584,-0.843999445438385,1,0.364874929189682,0.00046278940862976015,0.00017824408132582903,-8.453763439320028e-05,0.364874929189682,0.00046278940862976015,0.00017824408132582903,-8.453763439320028e-05
21607.026,-0.025221258401870728,-0.131297767162323,1.580091118812561,-0.00734149944037199,0.08014552295207977,0.11702539026737213,-2.363888740539551,-1.2758495807647705,1.6863425970077515,-27.534244537353516,2.7724978923797607,-0.788774311542511,1,0.36586716771125793,0.0006807149620726705,0.00019001947657670826,-7.02804172760807e-05,0.36586716771125793,0.0006807149620726705,0.00019001947657670826,-7.02804172760807e-05
21616.884,-0.025553690269589424,-0.131245955824852,1.581094741821289,-0.006331415846943855,0.08161245286464691,0.11078652739524841,-2.635867118835449,-1.302168607711792,1.6781415939331055,-27.3338623046875,2.1983554363250732,-0.7372817993164062,1,0.3667633831501007,0.0004553692997433245,0.00015501589223276824,-7.584132254123688e-05,0.3667633831501007,0.0004553692997433245,0.00015501589223276824,-7.584132254123688e-05
21626.754,-0.026140989735722542,-0.13186554610729218,1.5819714069366455,-0.006161510478705168,0.08147048205137253,0.10448387265205383,-2.9246647357940674,-1.3206902742385864,1.669140338897705,-24.956897735595703,1.4562795162200928,-0.7163382768630981,1,0.36774346232414246,-1.6291993233608082e-05,0.00022082909708842635,-7.465814996976405e-05,0.36774346232414246,-1.6291993233608082e-05,0.00022082909708842635,-7.465814996976405e-05
21636.618,-0.02646411769092083,-0.13178697228431702,1.582859992980957,-0.005093528889119625,0.08373083919286728,0.0988292247056961,-3.179133415222168,-1.3327783346176147,1.6624023914337158,-21.507659912109375,2.223308801651001,-0.43072861433029175,1,0.36856094002723694,-0.00029422371881082654,-0.00012001231516478583,-7.927252590889111e-05,0.36856094002723694,-0.00029422371881082654,-0.00012001231516478583,-7.927252590889111e-05
21646.47,-0.02704077959060669,-0.13233689963817596,1.5836354494094849,-0.004843199159950018,0.08464942127466202,0.09323453158140182,-3.423107624053955,-1.3488764762878418,1.6532942056655884,-20.267189025878906,2.822488784790039,-0.5040184259414673,1,0.36942413449287415,0.00016017770394682884,-0.0001087208220269531,-7.542721141362563e-05,0.36942413449287415,0.00016017770394682884,-0.0001087208220269531,-7.542721141362563e-05
21656.327,-0.02735176682472229,-0.13220110535621643,1.584425926208496,-0.0037227761931717396,0.08784705400466919,0.08827341347932816,-3.62893009185791,-1.372831106185913,1.6483449935913086,-19.50799560546875,3.447262763977051,-0.19878889620304108,1,0.37012621760368347,0.00029890163568779826,-0.0001485636312281713,-8.258539310190827e-05,0.37012621760368347,0.00029890163568779826,-0.0001485636312281713,-8.258539310190827e-05
21666.191,-0.027920089662075043,-0.13266824185848236,1.5851123332977295,-0.0034631367307156324,0.08959615975618362,0.0831439346075058,-3.8342275619506836,-1.401935338973999,1.6422007083892822,-19.503114700317383,3.1468865871429443,-0.6195887923240662,1,0.3709257245063782,0.0005073100910522044,4.790813909494318e-05,-7.791187090333551e-05,0.3709257245063782,0.0005073100910522044,4.790813909494318e-05,-7.791187090333551e-05
