timestamp,stateEstimate.x,stateEstimate.y,stateEstimate.z,stateEstimate.vx,stateEstimate.vy,stateEstimate.vz,stateEstimate.roll,stateEstimate.pitch,stateEstimate.yaw,gyro.x,gyro.y,gyro.z,ILBC.nominal_controller,ILBC.nominal_thrust,ILBC.nominal_torqueX,ILBC.nominal_torqueY,ILBC.nominal_torqueZ,ILBC.full_thrust,ILBC.full_torqueX,ILBC.full_torqueY,ILBC.full_torqueZ
22120.648,0.04562658444046974,-0.7874245643615723,0.7055103182792664,0.04765772446990013,0.08537682890892029,-0.0020049074664711952,-1.3971625566482544,0.6084184646606445,0.24434834718704224,-0.005086172837764025,0.0017227205680683255,0.1297391951084137,1,0.0,0.0,0.0,0.0,0.0,0.0,0.0,0.0
22130.529,0.04578457027673721,-0.7871535420417786,0.705501139163971,0.048199139535427094,0.08619198203086853,-0.002145885955542326,-1.3955432176589966,0.6093761324882507,0.24436700344085693,0.16590861976146698,0.19207130372524261,0.05274451896548271,1,0.0,0.0,0.0,0.0,0.0,0.0,0.0,0.0
22140.37,0.04562201350927353,-0.7874680161476135,0.705504298210144,0.047566406428813934,0.08510688692331314,-0.002118399366736412,-1.393029808998108,0.6079394817352295,0.24466902017593384,0.08145778626203537,-0.23986884951591492,-0.07329372316598892,1,0.0,0.0,0.0,0.0,0.0,0.0,0.0,0.0
22150.227,0.045777857303619385,-0.7871960401535034,0.7054959535598755,0.04790905863046646,0.08602838963270187,-0.00205798982642591,-1.3974438905715942,0.6120213866233826,0.24552631378173828,0.027163874357938766,0.005703004077076912,0.02844107337296009,1,0.0,0.0,0.0,0.0,0.0,0.0,0.0,0.0
22160.089,0.04564116150140762,-0.7874544262886047,0.7055000066757202,0.04730626195669174,0.08533737808465958,-0.0018546788487583399,-1.3964314460754395,0.6128870844841003,0.24479565024375916,0.07358609884977341,0.021205013617873192,-0.07464664429426193,1,0.0,0.0,0.0,0.0,0.0,0.0,0.0,0.0
22298.184,0.04501795396208763,-0.7870140075683594,0.7059964537620544,0.02348005212843418,0.08632633090019226,0.0431600883603096,-2.4931108951568604,0.6279769539833069,0.25189313292503357,-121.59867095947266,-3.0863394737243652,-0.6069831252098083,1,0.6370409727096558,0.005285541992634535,-0.00014146612375043333,-2.662136694198125e-06,0.6370409727096558,0.005285541992634535,-0.00014146612375043333,-2.662136694198125e-06
22308.055,0.04492660239338875,-0.7867846488952637,0.7065962553024292,0.020963914692401886,0.08995018154382706,0.071235291659832,-3.560933828353882,0.656201958656311,0.2487059086561203,-135.9322052001953,-9.20789623260498,0.13371428847312927,1,0.6316100358963013,0.004190268460661173,0.0010968866990879178,-7.690618076594546e-06,0.6316100358963013,0.004190268460661173,0.0010968866990879178,-7.690618076594546e-06
22317.906,0.044519226998090744,-0.7869890928268433,0.7076054811477661,0.017256947234272957,0.0961063876748085,0.10717980563640594,-4.924607276916504,0.7357084155082703,0.251895546913147,-120.02752685546875,-17.17795181274414,0.21887584030628204,1,0.6241742968559265,-0.0022171628661453724,0.0018382529960945249,-1.638693174754735e-05,0.6241742968559265,-0.0022171628661453724,0.0018382529960945249,-1.638693174754735e-05
22327.777,0.0443764328956604,-0.7866084575653076,0.7089343070983887,0.014230310916900635,0.10694713890552521,0.15137960016727448,-6.182247161865234,0.8799727559089661,0.2646941542625427,-83.55361938476562,-22.93766975402832,3.2954964637756348,1,0.614625871181488,-0.005285541992634535,0.0016830757958814502,-5.075807712273672e-05,0.614625871181488,-0.005285541992634535,0.0016830757958814502,-5.075807712273672e-05
22337.628,0.04390360787510872,-0.7865697741508484,0.7108840346336365,0.00943922158330679,0.12088361382484436,0.20255854725837708,-7.180173873901367,1.107356309890747,0.3072167634963989,-64.90473175048828,-18.696735382080078,6.68629264831543,1,0.6032707691192627,-0.0044564250856637955,-0.0004069771966896951,-0.00011358450137777254,0.6032707691192627,-0.0044564250856637955,-0.0004069771966896951,-0.00011358450137777254
22347.491,0.043686643242836,-0.7858915328979492,0.7132033705711365,0.005252834875136614,0.1380705088376999,0.25433582067489624,-7.863312244415283,1.3041788339614868,0.38354870676994324,-71.2748794555664,-11.613815307617188,9.154709815979004,1,0.5916902422904968,0.001006716163828969,-0.0011785079259425402,-0.00017641093290876597,0.5916902422904968,0.001006716163828969,-0.0011785079259425402,-0.00017641093290876597
22357.35,0.043134067207574844,-0.7855028510093689,0.7162301540374756,-0.0005146270850673318,0.15592224895954132,0.3046230673789978,-8.554977416992188,1.4423243999481201,0.49093326926231384,-94.36876678466797,-13.114423751831055,10.392770767211914,1,0.5804044008255005,0.005285541992634535,0.0007042657816782594,-0.00022841132886242121,0.5804044008255005,0.005285541992634535,0.0007042657816782594,-0.00022841132886242121
22367.22,0.042819421738386154,-0.784457266330719,0.7195493578910828,-0.005564145278185606,0.1765047311782837,0.3540593087673187,-9.38899040222168,1.5554447174072266,0.60506272315979,-116.79591369628906,-21.768699645996094,10.781355857849121,1,0.5692560076713562,0.005285541992634535,0.0025762321893125772,-0.00024450247292406857,0.5692560076713562,0.005285541992634535,0.0025762321893125772,-0.00024450247292406857
22377.071,0.042157191783189774,-0.7836354374885559,0.7236071825027466,-0.012242486700415611,0.19884219765663147,0.4034418761730194,-10.51895809173584,1.7310937643051147,0.7418918609619141,-116.93115234375,-24.566162109375,10.338483810424805,1,0.5580474734306335,0.0022471658885478973,0.0016214565839618444,-0.00027544243494048715,0.5580474734306335,0.0022471658885478973,0.0016214565839618444,-0.00027544243494048715
22386.933,0.04172356799244881,-0.782142162322998,0.7278974056243896,-0.018281107768416405,0.22437644004821777,0.450624018907547,-11.695089340209961,1.9530211687088013,0.887479305267334,-92.53900909423828,-17.810771942138672,9.574317932128906,1,0.5473143458366394,-0.003392605809494853,-0.00045940195559524,-0.00028721499256789684,0.5473143458366394,-0.003392605809494853,-0.00045940195559524,-0.00028721499256789684
22396.795,0.040922246873378754,-0.7807943820953369,0.7329473495483398,-0.026257099583745003,0.252252459526062,0.49776169657707214,-12.728743553161621,2.157707691192627,1.0262343883514404,-61.958770751953125,-5.795506954193115,9.389771461486816,1,0.5365220904350281,-0.005285541992634535,-0.00187825714237988,-0.0002834288461599499,0.5365220904350281,-0.005285541992634535,-0.00187825714237988,-0.0002834288461599499
22406.665,0.04033910855650902,-0.7787333130836487,0.7381503582000732,-0.03344190865755081,0.2826358675956726,0.5414947867393494,-13.431682586669922,2.2369649410247803,1.134494662284851,-50.31210708618164,2.3156590461730957,7.423125267028809,1,0.5265089869499207,-0.0021047319751232862,-0.0013361048186197877,-0.00023627943301107734,0.5265089869499207,-0.0021047319751232862,-0.0013361048186197877,-0.00023627943301107734
22416.518,0.03938979282975197,-0.7768020033836365,0.7440957427024841,-0.0417461097240448,0.3126891255378723,0.5820453763008118,-13.965880393981934,2.237243413925171,1.2125945091247559,-59.58268356323242,-2.18308424949646,5.870388984680176,1,0.5172247290611267,0.0026459163054823875,0.00145837536547333,-0.00019120058277621865,0.5172247290611267,0.0026459163054823875,0.00145837536547333,-0.00019120058277621865
22426.377,0.0386570505797863,-0.7741515040397644,0.7500736713409424,-0.048760078847408295,0.3435498774051666,0.6159964799880981,-14.505796432495117,2.2310993671417236,1.272714376449585,-79.56407165527344,-8.831258773803711,4.530390739440918,1,0.5095263123512268,0.005285541992634535,0.002216678811237216,-0.00016191709437407553,0.5095263123512268,0.005285541992634535,0.002216678811237216,-0.00016191709437407553
22436.242,0.037559572607278824,-0.7715999484062195,0.7567221522331238,-0.05674862489104271,0.37421560287475586,0.6472077369689941,-15.248831748962402,2.295501708984375,1.3327971696853638,-87.47615814208984,-9.940289497375488,3.5829708576202393,1,0.5024608373641968,0.004195268731564283,0.0012289970181882381,-0.00015777598309796304,0.5024608373641968,0.004195268731564283,0.0012289970181882381,-0.00015777598309796304
22446.108,0.03668602183461189,-0.768352210521698,0.7633073329925537,-0.06367295980453491,0.4064538776874542,0.6748643517494202,-16.09064483642578,2.3895392417907715,1.39455246925354,-73.13726806640625,-0.8622873425483704,3.6175765991210938,1,0.49623560905456543,-0.0004613376222550869,-0.0011104365112259984,-0.00016280445561278611,0.49623560905456543,-0.0004613376222550869,-0.0011104365112259984,-0.00016280445561278611
22455.96,0.0354270413517952,-0.7651452422142029,0.7705292105674744,-0.07215038686990738,0.44018831849098206,0.7026260495185852,-16.89769744873047,2.4330854415893555,1.433787226676941,-46.84276580810547,13.137735366821289,4.348634719848633,1,0.4899430274963379,-0.0035256841219961643,-0.0025901044718921185,-0.00014174400712363422,0.4899430274963379,-0.0035256841219961643,-0.0025901044718921185,-0.00014174400712363422
22465.82,0.0343925841152668,-0.7612314224243164,0.777637779712677,-0.07943008095026016,0.4753893315792084,0.7274017333984375,-17.423521041870117,2.343857526779175,1.4441583156585693,-25.421072006225586,21.447675704956055,4.4160027503967285,1,0.48435404896736145,-0.003061604220420122,-0.0017477598739787936,-0.00010684042354114354,0.48435404896736145,-0.003061604220420122,-0.0017477598739787936,-0.00010684042354114354
22475.682,0.03298993408679962,-0.757373571395874,0.7853620648384094,-0.08741433173418045,0.5099806189537048,0.7509519457817078,-17.724674224853516,2.15934681892395,1.42458176612854,-21.31111717224121,15.957167625427246,4.83961820602417,1,0.47903385758399963,0.0005513468640856445,0.0012698076898232102,-7.187769369920716e-05,0.47903385758399963,0.0005513468640856445,0.0012698076898232102,-7.187769369920716e-05
22485.561,0.0318107008934021,-0.7527745962142944,0.7929035425186157,-0.09384820610284805,0.545159101486206,0.7695971131324768,-17.933595657348633,1.986822247505188,1.4140591621398926,-32.26186752319336,4.793844699859619,5.997467994689941,1,0.4749021530151367,0.004302054177969694,0.0028707783203572035,-9.092676918953657e-05,0.4749021530151367,0.004302054177969694,0.0028707783203572035,-9.092676918953657e-05
22495.409,0.03027515672147274,-0.7482456564903259,0.8010113835334778,-0.10084253549575806,0.578870415687561,0.7868473529815674,-18.232208251953125,1.9074589014053345,1.4426767826080322,-40.64140701293945,-1.0772806406021118,7.016839027404785,1,0.47109073400497437,0.004409968387335539,0.0020831169094890356,-0.00014807397383265197,0.47109073400497437,0.004409968387335539,0.0020831169094890356,-0.00014807397383265197
22505.269,0.028973711654543877,-0.7429971694946289,0.8088803887367249,-0.10661989450454712,0.6135544180870056,0.8010903596878052,-18.614397048950195,1.8968693017959595,1.5088926553726196,-30.093656539916992,4.81269645690918,8.091096878051758,1,0.4680037200450897,0.00048279145266860723,-0.00047456478932872415,-0.00020533950009848922,0.4680037200450897,0.00048279145266860723,-0.00047456478932872415,-0.00020533950009848922
22515.128,0.027307646349072456,-0.7378040552139282,0.8172929883003235,-0.11356131732463837,0.6481457948684692,0.8167822957038879,-18.960927963256836,1.8595434427261353,1.5778039693832397,-5.782097816467285,18.011699676513672,8.777865409851074,1,0.46453413367271423,-0.0029693369287997484,-0.002426700433716178,-0.00021657963225152344,0.46453413367271423,-0.0029693369287997484,-0.002426700433716178,-0.00021657963225152344
22525.002,0.025877462700009346,-0.7318612933158875,0.8254422545433044,-0.1193755567073822,0.6845197081565857,0.8305953741073608,-19.093799591064453,1.707524299621582,1.6118849515914917,18.730356216430664,29.265153884887695,8.946061134338379,1,0.4615098536014557,-0.0037389318458735943,-0.00247751222923398,-0.00017599682905711234,0.4615098536014557,-0.0037389318458735943,-0.00247751222923398,-0.00017599682905711234
22534.855,0.024099918082356453,-0.7260028123855591,0.8341460824012756,-0.12568192183971405,0.7192150354385376,0.8453867435455322,-18.959808349609375,1.4320108890533447,1.6094751358032227,27.797765731811523,28.092941284179688,8.239981651306152,1,0.4582209885120392,-0.0008063730201683939,6.0328769905027e-05,-0.00012559369497466832,0.4582209885120392,-0.0008063730201683939,6.0328769905027e-05,-0.00012559369497466832
22544.707,0.022553550079464912,-0.7193843126296997,0.8425516486167908,-0.13064052164554596,0.7545111775398254,0.8564803004264832,-18.70490837097168,1.1428542137145996,1.597120761871338,19.950624465942383,16.092254638671875,7.914802551269531,1,0.4558325707912445,0.0030804770067334175,0.002699470380321145,-0.00011044909479096532,0.4558325707912445,0.0030804770067334175,0.002699470380321145,-0.00011044909479096532
22554.578,0.020678259432315826,-0.7128797173500061,0.8514932990074158,-0.135747030377388,0.7870656847953796,0.8679559230804443,-18.473962783813477,0.9380234479904175,1.6125050783157349,8.996237754821777,5.505419731140137,8.620389938354492,1,0.4533323347568512,0.004300924949347973,0.002842549467459321,-0.0001506769476691261,0.4533323347568512,0.004300924949347973,0.002842549467459321,-0.0001506769476691261
22564.438,0.019052915275096893,-0.7056415677070618,0.8601052165031433,-0.13951821625232697,0.8202111124992371,0.8764510154724121,-18.3629150390625,0.8428269028663635,1.6679010391235352,11.268494606018066,5.905213356018066,8.420867919921875,1,0.4515584409236908,0.0017279190942645073,0.000629903341177851,-0.0002013758639805019,0.4515584409236908,0.0017279190942645073,0.000629903341177851,-0.0002013758639805019
22574.29,0.017084158957004547,-0.6985139846801758,0.8692409992218018,-0.14414380490779877,0.851905882358551,0.8870133757591248,-18.26797866821289,0.7752296924591064,1.7335197925567627,32.145721435546875,17.98525619506836,9.069973945617676,1,0.4492562711238861,-0.0026865657418966293,-0.0021789332386106253,-0.00022160811931826174,0.4492562711238861,-0.0026865657418966293,-0.0021789332386106253,-0.00022160811931826174
22584.151,0.015369418077170849,-0.6906638145446777,0.8780382871627808,-0.1478242725133896,0.8848052620887756,0.8962756991386414,-18.01696014404297,0.6175259351730347,1.7751842737197876,56.027740478515625,32.58417510986328,9.124654769897461,1,0.4472626745700836,-0.0041109053418040276,-0.0032775942236185074,-0.00019404019985813648,0.4472626745700836,-0.0041109053418040276,-0.0032775942236185074,-0.00019404019985813648
22594.012,0.01333619188517332,-0.6829649806022644,0.88738614320755,-0.15181855857372284,0.9153508543968201,0.9074941873550415,-17.5070858001709,0.31433165073394775,1.777711272239685,67.30715942382812,37.86302947998047,7.854538440704346,1,0.4447673559188843,-0.0019585879053920507,-0.00164565269369632,-0.00013659719843417406,0.4447673559188843,-0.0019585879053920507,-0.00164565269369632,-0.00013659719843417406
22603.891,0.011553979478776455,-0.6745207905769348,0.8963691592216492,-0.15455666184425354,0.9465216398239136,0.916016697883606,-16.869426727294922,-0.055242061614990234,1.7470390796661377,62.30263900756836,28.88649559020996,7.538248062133789,1,0.44292783737182617,0.0015656444011256099,0.001529027707874775,-9.18732985155657e-05,0.44292783737182617,0.0015656444011256099,0.001529027707874775,-9.18732985155657e-05
22613.734,0.009481248445808887,-0.6662962436676025,0.9059123396873474,-0.1570044904947281,0.9737361073493958,0.9253042936325073,-16.212467193603516,-0.38224419951438904,1.731840968132019,45.62405776977539,17.272871017456055,7.041514873504639,1,0.4408847987651825,0.004605633206665516,0.002482835203409195,-0.00010695874516386539,0.4408847987651825,0.004605633206665516,0.002482835203409195,-0.00010695874516386539
22623.606,0.007668775040656328,-0.6573348045349121,0.9150575399398804,-0.1582087129354477,1.0014268159866333,0.9313825964927673,-15.724047660827637,-0.584428071975708,1.7524429559707642,39.571083068847656,10.377907752990723,7.115990161895752,1,0.4396284818649292,0.0027659288607537746,0.0017846992705017328,-0.00015292498574126512,0.4396284818649292,0.0027659288607537746,0.0017846992705017328,-0.00015292498574126512
22633.457,0.005566545762121677,-0.6486214399337769,0.9247549176216125,-0.15981461107730865,1.0261681079864502,0.9396853446960449,-15.306940078735352,-0.7050262689590454,1.8067680597305298,53.92817306518555,14.307229995727539,7.694292068481445,1,0.4378082752227783,-0.0018714823527261615,-0.0005544117302633822,-0.00020131669589318335,0.4378082752227783,-0.0018714823527261615,-0.0005544117302633822,-0.00020131669589318335
22643.334,0.0037368987686932087,-0.63918137550354,0.9340463876724243,-0.16034378111362457,1.052365779876709,0.9468901753425598,-14.835286140441895,-0.8440802693367004,1.8495171070098877,78.36531066894531,26.984590530395508,7.646796703338623,1,0.4362495541572571,-0.004841141868382692,-0.0028456144500523806,-0.0001884793018689379,0.4362495541572571,-0.004841141868382692,-0.0028456144500523806,-0.0001884793018689379
22653.177,0.0016302987933158875,-0.6300270557403564,0.9439219236373901,-0.16131426393985748,1.0757088661193848,0.957230269908905,-14.112571716308594,-1.091476321220398,1.8752455711364746,93.17782592773438,36.856929779052734,6.993814945220947,1,0.43389806151390076,-0.0035302008036524057,-0.0027162462938576937,-0.0001638693065615371,0.43389806151390076,-0.0035302008036524057,-0.0027162462938576937,-0.0001638693065615371
22663.039,-0.00021210407430771738,-0.6201489567756653,0.953384518623352,-0.16116876900196075,1.09963059425354,0.9651023745536804,-13.23392391204834,-1.4416539669036865,1.8673202991485596,89.1509017944336,34.19923400878906,6.214793682098389,1,0.4321467876434326,0.0003639082715380937,-0.00015646766405552626,-0.0001162466433015652,0.4321467876434326,0.0003639082715380937,-0.00015646766405552626,-0.0001162466433015652
22672.9,-0.0022972349543124437,-0.6106389164924622,0.9634542465209961,-0.16076840460300446,1.1189390420913696,0.9740716218948364,-12.31296443939209,-1.8145147562026978,1.859609603881836,70.21955108642578,21.257980346679688,5.295686721801758,1,0.4301100969314575,0.004030090756714344,0.0023637907579541206,-0.00010973920143442228,0.4301100969314575,0.004030090756714344,0.0023637907579541206,-0.00010973920143442228
22682.773,-0.004115717951208353,-0.6004121899604797,0.9730753898620605,-0.15913742780685425,1.1385031938552856,0.9793919324874878,-11.57396125793457,-2.065110683441162,1.8692946434020996,55.619075775146484,9.306381225585938,5.872241020202637,1,0.4289703667163849,0.0036908623296767473,0.002591394819319248,-0.0001358872978016734,0.4289703667163849,0.0036908623296767473,0.002591394819319248,-0.0001358872978016734
22692.622,-0.006170954555273056,-0.5906003713607788,0.9832980632781982,-0.15762537717819214,1.1543407440185547,0.9873396158218384,-10.982026100158691,-2.2010600566864014,1.9142777919769287,57.826171875,8.64499568939209,5.520570278167725,1,0.42716726660728455,0.00017114657384809107,0.00031906497315503657,-0.0001792505499906838,0.42716726660728455,0.00017114657384809107,0.00031906497315503657,-0.0001792505499906838
22702.491,-0.007939635775983334,-0.5800746083259583,0.9930616617202759,-0.15500512719154358,1.1714863777160645,0.9935757517814636,-10.436033248901367,-2.2915635108947754,1.9569557905197144,77.1633071899414,19.320228576660156,5.980377197265625,1,0.4257792830467224,-0.004088806454092264,-0.0024213772267103195,-0.0001815577270463109,0.4257792830467224,-0.004088806454092264,-0.0024213772267103195,-0.0001815577270463109
22712.343,-0.009937605820596218,-0.5700191259384155,1.0034621953964233,-0.15288662910461426,1.1852630376815796,1.0037131309509277,-9.709647178649902,-2.470947265625,1.9972069263458252,96.8250961303711,30.674055099487305,6.341302394866943,1,0.4234088659286499,-0.00504100089892745,-0.0030577329453080893,-0.00018285920668859035,0.4234088659286499,-0.00504100089892745,-0.0030577329453080893,-0.00018285920668859035
22722.214,-0.01166149228811264,-0.5592197179794312,1.0133856534957886,-0.14984744787216187,1.200451374053955,1.0109447240829468,-8.815434455871582,-2.751988172531128,2.019680976867676,98.94664764404297,31.7482852935791,5.395849704742432,1,0.42174825072288513,-0.0017169502098113298,-0.0011046293657273054,-0.00015511384117417037,0.42174825072288513,-0.0017169502098113298,-0.0011046293657273054,-0.00015511384117417037
22732.069,-0.013573977164924145,-0.5489992499351501,1.0239841938018799,-0.1465672254562378,1.2104179859161377,1.0204553604125977,-7.806315898895264,-3.0880212783813477,2.0391054153442383,80.28131103515625,19.973865509033203,4.718635082244873,1,0.41950830817222595,0.003064507618546486,0.0018747083377093077,-0.00014742322673555464,0.41950830817222595,0.003064507618546486,0.0018747083377093077,-0.00014742322673555464
22741.937,-0.015208994969725609,-0.5380299091339111,1.0340709686279297,-0.1421615332365036,1.221349835395813,1.0252559185028076,-6.977564811706543,-3.3230042457580566,2.0615835189819336,59.73686218261719,5.398647308349609,5.018280029296875,1,0.4184291958808899,0.004273663740605116,0.0029567547608166933,-0.00015434478700626642,0.4184291958808899,0.004273663740605116,0.0029567547608166933,-0.00015434478700626642
22751.791,-0.01703023910522461,-0.5276771783828735,1.044808030128479,-0.13784159719944,1.2276380062103271,1.0321260690689087,-6.315384387969971,-3.426739454269409,2.1073954105377197,52.74409484863281,0.6405721306800842,3.947979688644409,1,0.41682663559913635,0.001831316971220076,0.0011344712693244219,-0.00017777158063836396,0.41682663559913635,0.001831316971220076,0.0011344712693244219,-0.00017777158063836396
22761.658,-0.018569426611065865,-0.5166038870811462,1.05502450466156,-0.13271412253379822,1.2354950904846191,1.0366474390029907,-5.792158126831055,-3.4432263374328613,2.1535942554473877,65.59127807617188,8.369711875915527,4.199615478515625,1,0.41248974204063416,-0.0026291408576071262,-0.0017190471990033984,-0.0001820901525206864,0.41248974204063416,-0.0026291408576071262,-0.0017190471990033984,-0.0001820901525206864
22771.51,-0.02028886415064335,-0.5061848759651184,1.06590735912323,-0.12810203433036804,1.239871621131897,1.0452995300292969,-5.174548149108887,-3.5116379261016846,2.201472520828247,86.73040008544922,20.269554138183594,4.52777099609375,1,0.4055180549621582,-0.0051503670401871204,-0.0030727344565093517,-0.00018865676247514784,0.4055180549621582,-0.0051503670401871204,-0.0030727344565093517,-0.00018865676247514784
22781.372,-0.021729180589318275,-0.49504002928733826,1.0762728452682495,-0.12267928570508957,1.2457976341247559,1.0521624088287354,-4.378236293792725,-3.6920504570007324,2.2381198406219482,98.18766784667969,24.264755249023438,3.875943183898926,1,0.3991958200931549,-0.0036847328301519156,-0.001709691365249455,-0.00017167824262287468,0.3991958200931549,-0.0036847328301519156,-0.001709691365249455,-0.00017167824262287468
22791.236,-0.0233165193349123,-0.4846384823322296,1.087341547012329,-0.11725939810276031,1.2470855712890625,1.061273217201233,-3.405839443206787,-3.9486443996429443,2.2749598026275635,87.23383331298828,17.695280075073242,2.7193939685821533,1,0.3919103145599365,0.0011730236001312733,0.0006007067277096212,-0.00016540742944926023,0.3919103145599365,0.0011730236001312733,0.0006007067277096212,-0.00016540742944926023
22801.102,-0.024639025330543518,-0.47348496317863464,1.0978596210479736,-0.11104327440261841,1.2495343685150146,1.065908670425415,-2.5127317905426025,-4.150780200958252,2.299410820007324,64.13166809082031,2.9265334606170654,2.5022573471069336,1,0.3859593868255615,0.004489653743803501,0.0027717361226677895,-0.00014955292863305658,0.3859593868255615,0.004489653743803501,0.0027717361226677895,-0.00014955292863305658
22810.953,-0.02609267085790634,-0.46313878893852234,1.1090577840805054,-0.10481756925582886,1.2471942901611328,1.072000503540039,-1.8019999265670776,-4.229154586791992,2.3347504138946533,48.49284744262695,-7.2139739990234375,1.7184480428695679,1,0.37925660610198975,0.0035589132457971573,0.002203613054007292,-0.0001591366162756458,0.37925660610198975,0.0035589132457971573,0.002203613054007292,-0.0001591366162756458
22820.824,-0.027269672602415085,-0.4520644247531891,1.119693636894226,-0.0978621393442154,1.2461389303207397,1.0747543573379517,-1.2902534008026123,-4.188340663909912,2.3613171577453613,53.182472229003906,-4.776169300079346,1.590430736541748,1,0.3736143410205841,-0.0007220095722004771,-0.00045456274528987706,-0.0001484880776843056,0.3736143410205841,-0.0007220095722004771,-0.00045456274528987706,-0.0001484880776843056
22830.683,-0.028594007715582848,-0.44181734323501587,1.1309874057769775,-0.09159647673368454,1.2416422367095947,1.0804795026779175,-0.7846073508262634,-4.1343231201171875,2.3864569664001465,74.8863296508789,6.4826340675354,1.9322965145111084,1,0.366855651140213,-0.005053744185715914,-0.002702535130083561,-0.00015032199735287577,0.366855651140213,-0.005053744185715914,-0.002702535130083561,-0.00015032199735287577
22840.549,-0.029647108167409897,-0.43081900477409363,1.1417081356048584,-0.08482037484645844,1.239088535308838,1.0839593410491943,-0.10952858626842499,-4.16818380355835,2.4110336303710938,92.87216186523438,16.21236801147461,2.768097400665283,1,0.36089015007019043,-0.005078585352748632,-0.002832225989550352,-0.00015665197861380875,0.36089015007019043,-0.005078585352748632,-0.002832225989550352,-0.00015665197861380875
22850.399,-0.030812613666057587,-0.4207564890384674,1.1531128883361816,-0.07830438017845154,1.2320239543914795,1.0895025730133057,0.7911264300346375,-4.313660621643066,2.4461510181427,91.1258773803711,14.084256172180176,1.4235641956329346,1,0.3540200889110565,-0.0011720556067302823,-0.00042407572618685663,-0.00016179877275135368,0.3540200889110565,-0.0011720556067302823,-0.00042407572618685663,-0.00016179877275135368
22860.258,-0.03172929584980011,-0.4099029004573822,1.1639058589935303,-0.0713597983121872,1.2267731428146362,1.0897181034088135,1.7042125463485718,-4.470399856567383,2.4729831218719482,69.8409652709961,0.4077121317386627,0.712663471698761,1,0.3487311601638794,0.0035031011793762445,0.0023800828494131565,-0.0001476598554290831,0.3487311601638794,0.0035031011793762445,0.0023800828494131565,-0.0001476598554290831
22870.126,-0.03274672478437424,-0.40006208419799805,1.1753414869308472,-0.0645202100276947,1.2164734601974487,1.0905485153198242,2.4700191020965576,-4.527251243591309,2.497372627258301,47.657588958740234,-13.765905380249023,0.5170525312423706,1,0.3429240584373474,0.004452230874449015,0.0030059535056352615,-0.00014434698096010834,0.3429240584373474,0.004452230874449015,0.0030059535056352615,-0.00014434698096010834
22880.008,-0.03351004794239998,-0.3894297182559967,1.1861406564712524,-0.05711962282657623,1.2080551385879517,1.087437391281128,2.985656976699829,-4.4347381591796875,2.506340265274048,41.187591552734375,-15.43900203704834,-0.45694759488105774,1,0.3383713364601135,0.001499831210821867,0.0005366679397411644,-0.0001187313100672327,0.3383713364601135,0.001499831210821867,0.0005366679397411644,-0.0001187313100672327
22889.852,-0.034390889108181,-0.3798522651195526,1.1975443363189697,-0.05042712390422821,1.1954299211502075,1.0870290994644165,3.405794143676758,-4.282868385314941,2.4997549057006836,55.875301361083984,-5.683633327484131,-0.469119131565094,1,0.3328033983707428,-0.003420834429562092,-0.0021561887115240097,-9.909064829116687e-05,0.3328033983707428,-0.003420834429562092,-0.0021561887115240097,-9.909064829116687e-05
22899.699,-0.03501688688993454,-0.369476854801178,1.208316445350647,-0.04339141026139259,1.1852303743362427,1.0838477611541748,3.918220281600952,-4.200822830200195,2.4959988594055176,77.17729187011719,5.923567295074463,0.626867413520813,1,0.32819780707359314,-0.005285541992634535,-0.003018374089151621,-0.0001103307877201587,0.32819780707359314,-0.005285541992634535,-0.003018374089151621,-0.0001103307877201587
22909.562,-0.03574391081929207,-0.36022260785102844,1.219681978225708,-0.03691456466913223,1.1707966327667236,1.0827611684799194,4.654757976531982,-4.2517313957214355,2.514498710632324,84.45148468017578,9.211108207702637,0.8650541305541992,1,0.3227342665195465,-0.003302274039015174,-0.0015216076280921698,-0.00014050168101675808,0.3227342665195465,-0.003302274039015174,-0.0015216076280921698,-0.00014050168101675808
22919.442,-0.03624457120895386,-0.3500951826572418,1.2303779125213623,-0.030243659391999245,1.1593531370162964,1.0763866901397705,5.4663896560668945,-4.347146034240723,2.5369839668273926,69.4947738647461,-2.025726318359375,1.6255457401275635,1,0.31888043880462646,0.0016359742730855942,0.00179695850238204,-0.00015191927377600223,0.31888043880462646,0.0016359742730855942,0.00179695850238204,-0.00015191927377600223
22929.288,-0.036830101162195206,-0.3411722183227539,1.241620659828186,-0.023725291714072227,1.1428015232086182,1.0702786445617676,6.195369720458984,-4.365035057067871,2.5650103092193604,43.56760787963867,-18.677942276000977,1.0737708806991577,1,0.3146529197692871,0.0047241938300430775,0.00352245825342834,-0.00015611953858751804,0.3146529197692871,0.0047241938300430775,0.00352245825342834,-0.00015611953858751804
22939.147,-0.037220556288957596,-0.32975226640701294,1.2539154291152954,-0.016334807500243187,1.1288889646530151,1.0618680715560913,6.725667953491211,-4.181766033172607,2.56105899810791,26.918729782104492,-28.026639938354492,-0.06460237503051758,1,0.3104371726512909,0.0034514828585088253,0.002430894412100315,-0.00010820107854669914,0.3104371726512909,0.0034514828585088253,0.002430894412100315,-0.00010820107854669914
22949.007,-0.03767300024628639,-0.3213525116443634,1.2647738456726074,-0.010179550386965275,1.1100707054138184,1.0523062944412231,7.0,-3.926673412322998,2.535823106765747,33.65041732788086,-19.00527572631836,-0.1143241822719574,1,0.30718937516212463,-0.001613068743608892,-0.0016045193187892437,-8.039653766900301e-05,0.30718937516212463,-0.001613068743608892,-0.0016045193187892437,-8.039653766900301e-05
22958.884,-0.03790930286049843,-0.31149014830589294,1.2757190465927124,-0.004089260473847389,1.0956944227218628,1.044306755065918,7.34041166305542,-3.734818458557129,2.5152428150177,55.315120697021484,-0.5757452845573425,0.8094654083251953,1,0.3034785985946655,-0.005285541992634535,-0.004234950058162212,-9.193245932692662e-05,0.3034785985946655,-0.005285541992634535,-0.004234950058162212,-9.193245932692662e-05
22968.732,-0.03824123740196228,-0.3035339117050171,1.2863566875457764,0.001459769788198173,1.0753607749938965,1.0353271961212158,7.878424644470215,-3.730780601501465,2.530755043029785,71.79988861083984,10.528918266296387,1.4626134634017944,1,0.30013346672058105,-0.005285541992634535,-0.0032383964862674475,-0.00014215811097528785,0.30013346672058105,-0.005285541992634535,-0.0032383964862674475,-0.00014215811097528785
22978.599,-0.03833338990807533,-0.293040007352829,1.2981157302856445,0.007998883724212646,1.0584259033203125,1.0238138437271118,8.677730560302734,-3.8434839248657227,2.5653438568115234,65.97032165527344,4.200103759765625,0.589478611946106,1,0.29682958126068115,-0.0007778216968290508,0.00045972454245202243,-0.00016120717918965966,0.29682958126068115,-0.0007778216968290508,0.00045972454245202243,-0.00016120717918965966
22988.448,-0.038552988320589066,-0.2856543958187103,1.3083277940750122,0.013455101288855076,1.0361992120742798,1.009701132774353,9.314288139343262,-3.884272813796997,2.5840108394622803,38.595916748046875,-16.66762351989746,0.4775586426258087,1,0.2949167490005493,0.004467393271625042,0.004193171858787537,-0.00014150736387819052,0.2949167490005493,0.004467393271625042,0.004193171858787537,-0.00014150736387819052
22998.321,-0.03854839876294136,-0.276706337928772,1.3186848163604736,0.019253024831414223,1.0186909437179565,0.9943899512290955,9.698058128356934,-3.716890573501587,2.564117431640625,11.742301940917969,-34.61164855957031,-0.41815510392189026,1,0.2932097017765045,0.005285541992634535,0.004335928708314896,-8.643070759717375e-05,0.2932097017765045,0.005285541992634535,0.004335928708314896,-8.643070759717375e-05
23008.173,-0.0386565625667572,-0.2697823941707611,1.3285633325576782,0.02459695190191269,0.9948738217353821,0.9775667786598206,9.81187915802002,-3.3999102115631104,2.5090556144714355,6.8122711181640625,-34.365047454833984,-1.5306388139724731,1,0.2920995056629181,0.0010454297298565507,0.0007116859196685255,-3.2537227525608614e-05,0.2920995056629181,0.0010454297298565507,0.0007116859196685255,-3.2537227525608614e-05
23018.031,-0.03855825215578079,-0.2612617611885071,1.338573694229126,0.029674120247364044,0.9765404462814331,0.9632089734077454,9.886128425598145,-3.079962968826294,2.4370226860046387,24.40587615966797,-15.617088317871094,-0.751131534576416,1,0.29029297828674316,-0.004233821295201778,-0.003725543385371566,-1.3961428521724883e-05,0.29029297828674316,-0.004233821295201778,-0.003725543385371566,-1.3961428521724883e-05
23027.895,-0.038409631699323654,-0.2531174123287201,1.3482304811477661,0.03435396030545235,0.9575010538101196,0.9481790661811829,10.140960693359375,-2.9454214572906494,2.4094924926757812,47.612247467041016,4.697511196136475,1.1540371179580688,1,0.28881120681762695,-0.005285541992634535,-0.004859530832618475,-8.169802458724007e-05,0.28881120681762695,-0.005285541992634535,-0.004859530832618475,-8.169802458724007e-05
23037.771,-0.03838001936674118,-0.2467532902956009,1.357825517654419,0.03852050378918648,0.9329521059989929,0.9334977865219116,10.623557090759277,-3.003985643386841,2.431779384613037,51.87618637084961,9.288301467895508,1.1037678718566895,1,0.2872560918331146,-0.002934978576377034,-0.001916486769914627,-0.00014422867388930172,0.2872560918331146,-0.002934978576377034,-0.001916486769914627,-0.00014422867388930172
23047.622,-0.03832486271858215,-0.24077342450618744,1.3670427799224854,0.04254384711384773,0.9075434803962708,0.9161390662193298,11.136378288269043,-3.0960333347320557,2.463022470474243,36.49938201904297,-5.501206398010254,0.3715100884437561,1,0.2865402102470398,0.0014333728468045592,0.0025400989688932896,-0.00015156433801166713,0.2865402102470398,0.0014333728468045592,0.0025400989688932896,-0.00015156433801166713
23057.486,-0.03806360065937042,-0.2336128205060959,1.3757981061935425,0.04707058519124985,0.8866670727729797,0.8953119516372681,11.471096992492676,-3.0361011028289795,2.4535586833953857,9.526625633239746,-28.25225257873535,-0.2963443398475647,1,0.2869083881378174,0.004735485650599003,0.00505035649985075,-9.589608816895634e-05,0.2869083881378174,0.004735485650599003,0.00505035649985075,-9.589608816895634e-05
23067.336,-0.03792951628565788,-0.22806872427463531,1.38465416431427,0.051118914037942886,0.8605228662490845,0.8758594393730164,11.553885459899902,-2.7683815956115723,2.3988218307495117,-8.124106407165527,-38.90946578979492,-1.8554017543792725,1,0.2868782579898834,0.0034559995401650667,0.0030896717216819525,-2.6325575163355097e-05,0.2868782579898834,0.0034559995401650667,0.0030896717216819525,-2.6325575163355097e-05
23077.21,-0.037580106407403946,-0.22093750536441803,1.3935753107070923,0.05508190020918846,0.8402529358863831,0.8579635620117188,11.466651916503906,-2.391313314437866,2.3004374504089355,-4.209596157073975,-29.90867805480957,-1.7708091735839844,1,0.28641965985298157,-0.0010665609734132886,-0.0011659259907901287,3.1413215765496716e-05,0.28641965985298157,-0.0010665609734132886,-0.0011659259907901287,3.1413215765496716e-05
23087.06,-0.037387579679489136,-0.21587035059928894,1.402038335800171,0.058277688920497894,0.8136840462684631,0.8403338193893433,11.434510231018066,-2.133389949798584,2.2340641021728516,16.04383087158203,-8.009788513183594,1.4082084894180298,1,0.28611353039741516,-0.005274250637739897,-0.0046035367995500565,-2.8041176847182214e-05,0.28611353039741516,-0.005274250637739897,-0.0046035367995500565,-2.8041176847182214e-05
23096.919,-0.03697303310036659,-0.2092418074607849,1.410591959953308,0.06137440353631973,0.7930084466934204,0.8237982392311096,11.603669166564941,-2.0594687461853027,2.233856439590454,32.71154022216797,10.262165069580078,3.3117756843566895,1,0.28548040986061096,-0.005285541992634535,-0.0046172477304935455,-0.0001238189433934167,0.28548040986061096,-0.005285541992634535,-0.0046172477304935455,-0.0001238189433934167
23106.781,-0.03674020245671272,-0.20466411113739014,1.4186718463897705,0.06372205168008804,0.7662864923477173,0.80507892370224,11.9298677444458,-2.155252456665039,2.286010980606079,29.193132400512695,8.914752006530762,1.596856951713562,1,0.2856180965900421,-0.0012985202483832836,-0.0006490988307632506,-0.0001790139067452401,0.2856180965900421,-0.0012985202483832836,-0.0006490988307632506,-0.0001790139067452401
23116.659,-0.03625946491956711,-0.19853544235229492,1.426823377609253,0.06688284128904343,0.7454015016555786,0.7851932644844055,12.211408615112305,-2.2336690425872803,2.317373514175415,3.3627798557281494,-8.996929168701172,0.14785894751548767,1,0.2860051989555359,0.004116551484912634,0.003368571400642395,-0.00014428782742470503,0.2860051989555359,0.004116551484912634,0.003368571400642395,-0.00014428782742470503
23126.502,-0.03597119078040123,-0.19444233179092407,1.434456706047058,0.06957441568374634,0.7182503342628479,0.7634856700897217,12.234745025634766,-2.1433801651000977,2.2960243225097656,-24.31449317932129,-30.565711975097656,-1.0841108560562134,1,0.287101686000824,0.005285541992634535,0.004985188599675894,-6.921555905137211e-05,0.287101686000824,0.005285541992634535,0.004985188599675894,-6.921555905137211e-05
23136.364,-0.035454608500003815,-0.18876999616622925,1.442142128944397,0.07250861078500748,0.6974918842315674,0.7419965267181396,11.981145858764648,-1.8471227884292603,2.219180107116699,-31.418188095092773,-35.90858459472656,-2.367199420928955,1,0.2881181538105011,0.0016266184393316507,0.001984719652682543,1.2009195415885188e-05,0.2881181538105011,0.0016266184393316507,0.001984719652682543,1.2009195415885188e-05
23146.225,-0.03514060005545616,-0.1851191520690918,1.4493110179901123,0.07451866567134857,0.6706911325454712,0.7210441827774048,11.672087669372559,-1.5201929807662964,2.124990463256836,-15.940857887268066,-21.039785385131836,-2.2876243591308594,1,0.28925901651382446,-0.0035958527587354183,-0.002618171740323305,3.69741246686317e-05,0.28925901651382446,-0.0035958527587354183,-0.002618171740323305,3.69741246686317e-05
23156.094,-0.03458884358406067,-0.17992958426475525,1.4565651416778564,0.0765734612941742,0.6499420404434204,0.7027223706245422,11.519123077392578,-1.325061321258545,2.064284324645996,6.678042888641357,0.0755937322974205,0.5477357506752014,1,0.2897023558616638,-0.005285541992634535,-0.004699030425399542,-2.21253158088075e-05,0.2897023558616638,-0.005285541992634535,-0.004699030425399542,-2.21253158088075e-05
23165.947,-0.034256462007761,-0.17673757672309875,1.4633252620697021,0.07760734856128693,0.6232854127883911,0.6842149496078491,11.58317756652832,-1.3276311159133911,2.0723650455474854,11.777018547058105,9.202109336853027,2.716083526611328,1,0.2904360294342041,-0.0027985128108412027,-0.0026601115241646767,-0.00012334568600635976,0.2904360294342041,-0.0027985128108412027,-0.0026601115241646767,-0.00012334568600635976
23175.812,-0.033666424453258514,-0.17204786837100983,1.4701814651489258,0.07945070415735245,0.6025509834289551,0.664709210395813,11.698362350463867,-1.4073175191879272,2.1150035858154297,-3.723290205001831,-0.8466498255729675,2.139941453933716,1,0.2913699150085449,0.001877450617030263,0.0015729032456874847,-0.0001641059498069808,0.2913699150085449,0.001877450617030263,0.0015729032456874847,-0.0001641059498069808
23185.669,-0.033309053629636765,-0.16930216550827026,1.4765013456344604,0.08053698390722275,0.5763822197914124,0.6425839066505432,11.64401626586914,-1.3835288286209106,2.1305243968963623,-30.069438934326172,-20.492292404174805,1.338322639465332,1,0.2932257652282715,0.0050129336304962635,0.004300118423998356,-0.0001254753879038617,0.2932257652282715,0.0050129336304962635,0.004300118423998356,-0.0001254753879038617
23195.548,-0.03270665928721428,-0.16504716873168945,1.4828907251358032,0.08235297352075577,0.5561205744743347,0.62116539478302,11.335848808288574,-1.1741368770599365,2.0989019870758057,-46.58320617675781,-33.29969787597656,-0.41272595524787903,1,0.29487693309783936,0.003700379515066743,0.0034768080804497004,-5.312441862770356e-05,0.29487693309783936,0.003700379515066743,0.0034768080804497004,-5.312441862770356e-05
23205.391,-0.03233235329389572,-0.1627337485551834,1.4887539148330688,0.08327245712280273,0.5300933122634888,0.5998632311820984,10.886114120483398,-0.8601414561271667,2.0286507606506348,-41.208335876464844,-28.186359405517578,-1.2755134105682373,1,0.29676732420921326,-0.0009504201007075608,-0.00026776938466355205,3.904467575921444e-06,0.29676732420921326,-0.0009504201007075608,-0.00026776938466355205,3.904467575921444e-06
23215.254,-0.03171621635556221,-0.15890970826148987,1.4947004318237305,0.08425361663103104,0.510679304599762,0.5806289911270142,10.476302146911621,-0.5912737250328064,1.9647806882858276,-18.193370819091797,-8.27391242980957,1.4551146030426025,1,0.29810717701911926,-0.005285541992634535,-0.003999603912234306,-2.0705510905827396e-05,0.29810717701911926,-0.005285541992634535,-0.003999603912234306,-2.0705510905827396e-05
23225.111,-0.03135077655315399,-0.15699349343776703,1.5001435279846191,0.0841154083609581,0.48566028475761414,0.5615493655204773,10.311885833740234,-0.5193144679069519,1.9650102853775024,0.7536541223526001,11.165138244628906,2.94160532951355,1,0.299663782119751,-0.005285541992634535,-0.004673060029745102,-0.0001109223667299375,0.299663782119751,-0.005285541992634535,-0.004673060029745102,-0.0001109223667299375
23234.983,-0.030719246715307236,-0.15360432863235474,1.5056838989257812,0.08467051386833191,0.46690449118614197,0.5428017377853394,10.315951347351074,-0.6261261701583862,2.011045217514038,-2.042593002319336,13.666996955871582,1.980418086051941,1,0.30109432339668274,-0.001034460961818695,-0.0013978852657601237,-0.00016304109885822982,0.30109432339668274,-0.001034460961818695,-0.0013978852657601237,-0.00016304109885822982
23244.835,-0.030361786484718323,-0.15204258263111115,1.5107001066207886,0.08442964404821396,0.4428900182247162,0.5219925045967102,10.276717185974121,-0.7392141222953796,2.047961950302124,-26.989952087402344,-4.383780002593994,1.0399680137634277,1,0.3033057451248169,0.004317217040807009,0.003446643939241767,-0.000146713326103054,0.3033057451248169,0.004317217040807009,0.003446643939241767,-0.000146713326103054
23254.694,-0.029729820787906647,-0.1490624099969864,1.5158090591430664,0.08529417216777802,0.42440593242645264,0.5018526911735535,9.989501953125,-0.6826524138450623,2.046750545501709,-55.490177154541016,-25.40813636779785,-0.13470324873924255,1,0.30531346797943115,0.005285541992634535,0.004899857100099325,-9.098592272493988e-05,0.30531346797943115,0.005285541992634535,0.004899857100099325,-9.098592272493988e-05
23264.557,-0.029369793832302094,-0.1478624790906906,1.5203913450241089,0.08532790094614029,0.40083545446395874,0.4814363718032837,9.441767692565918,-0.43806982040405273,2.0007998943328857,-61.82528305053711,-30.816194534301758,-0.8283645510673523,1,0.30766189098358154,0.0019697181414812803,0.0020324664656072855,-2.85736023215577e-05,0.30766189098358154,0.0019697181414812803,0.0020324664656072855,-2.85736023215577e-05
23274.434,-0.028756646439433098,-0.1452472060918808,1.5250804424285889,0.08557295054197311,0.3835577368736267,0.46325933933258057,8.817109107971191,-0.13863730430603027,1.9407281875610352,-45.806514739990234,-15.983582496643066,-0.8595713376998901,1,0.30940917134284973,-0.003105641109868884,-0.002578651299700141,-8.282203452836256e-06,0.30940917134284973,-0.003105641109868884,-0.002578651299700141,-8.282203452836256e-06
23284.28,-0.02841784991323948,-0.144377201795578,1.5292854309082031,0.08461740612983704,0.36124929785728455,0.44677862524986267,8.383211135864258,0.0058157783932983875,1.9091410636901855,-21.72193717956543,5.220952987670898,1.4318162202835083,1,0.31098246574401855,-0.005285541992634535,-0.004679350648075342,-5.862617035745643e-05,0.31098246574401855,-0.005285541992634535,-0.004679350648075342,-5.862617035745643e-05
23294.148,-0.027805671095848083,-0.14214041829109192,1.5336264371871948,0.08430418372154236,0.34501945972442627,0.43135055899620056,8.159021377563477,-0.04891494661569595,1.924767255783081,-10.778757095336914,15.869941711425781,1.7406567335128784,1,0.3122316896915436,-0.003541814861819148,-0.003000468946993351,-0.0001202102648676373,0.3122316896915436,-0.003541814861819148,-0.003000468946993351,-0.0001202102648676373
23304.001,-0.027491191402077675,-0.14157649874687195,1.5374802350997925,0.08301353454589844,0.3242473006248474,0.41368305683135986,8.039040565490723,-0.19547545909881592,1.9614009857177734,-23.832992553710938,7.35770320892334,0.9544583559036255,1,0.31428763270378113,0.0017288868548348546,0.0011762497015297413,-0.00014233558613341302,0.31428763270378113,0.0017288868548348546,0.0011762497015297413,-0.00014233558613341302
23313.876,-0.02689450979232788,-0.13969075679779053,1.541457176208496,0.0829467624425888,0.3087153136730194,0.39627331495285034,7.785680770874023,-0.2534807622432709,1.9795949459075928,-50.15420150756836,-12.658967971801758,-0.04402115195989609,1,0.31622737646102905,0.005285541992634535,0.004285439848899841,-0.0001131703975261189,0.31622737646102905,0.005285541992634535,0.004285439848899841,-0.0001131703975261189
23323.725,-0.02659253403544426,-0.13940002024173737,1.5449323654174805,0.0820435881614685,0.28890570998191833,0.37749648094177246,7.279773235321045,-0.11734951287508011,1.9619016647338867,-69.0418472290039,-28.42240333557129,-1.0324678421020508,1,0.31876787543296814,0.0047262911684811115,0.004105743952095509,-6.087419387768023e-05,0.31876787543296814,0.0047262911684811115,0.004105743952095509,-6.087419387768023e-05
23333.59,-0.026025403290987015,-0.1378096044063568,1.5485349893569946,0.08173929154872894,0.2746521234512329,0.36094212532043457,6.58428955078125,0.16512665152549744,1.913025975227356,-64.57477569580078,-24.390918731689453,-1.3976085186004639,1,0.3207032084465027,-5.919962131883949e-05,2.064727777906228e-05,-1.745178633427713e-05,0.3207032084465027,-5.919962131883949e-05,2.064727777906228e-05,-1.745178633427713e-05
23343.444,-0.025754081085324287,-0.1377810686826706,1.551673173904419,0.08014943450689316,0.256155788898468,0.3462105989456177,5.970091342926025,0.39330410957336426,1.8703118562698364,-38.90796661376953,-3.710035562515259,0.049219582229852676,1,0.32242515683174133,-0.005285541992634535,-0.004104775842279196,-3.3602082112338394e-05,0.32242515683174133,-0.005285541992634535,-0.004104775842279196,-3.3602082112338394e-05
23353.32,-0.025209831073880196,-0.13647989928722382,1.5549718141555786,0.07904529571533203,0.24349632859230042,0.3335907757282257,5.583792686462402,0.4227141737937927,1.8652483224868774,-14.9923734664917,17.017160415649414,1.4481974840164185,1,0.3235483765602112,-0.005285541992634535,-0.004943894222378731,-9.015770046971738e-05,0.3235483765602112,-0.005285541992634535,-0.004943894222378731,-9.015770046971738e-05
23363.17,-0.024983100593090057,-0.1366601288318634,1.5578320026397705,0.07682312279939651,0.22697068750858307,0.31974151730537415,5.4302144050598145,0.2568003535270691,1.895043969154358,-13.45981216430664,19.852294921875,0.5891579389572144,1,0.32520201802253723,-0.001536609255708754,-0.001480313017964363,-0.00012872910883743316,0.32520201802253723,-0.001536609255708754,-0.001480313017964363,-0.00012872910883743316
23373.03,-0.024463605135679245,-0.13561950623989105,1.5608422756195068,0.07598964124917984,0.21534565091133118,0.3054634928703308,5.260368347167969,0.07866865396499634,1.9097278118133545,-36.89338302612305,1.4985756874084473,0.10592888295650482,1,0.32689565420150757,0.004423034377396107,0.003488744841888547,-0.00010719537385739386,0.32689565420150757,0.004423034377396107,0.003488744841888547,-0.00010719537385739386
23382.891,-0.024257062003016472,-0.13601809740066528,1.5633944272994995,0.07442524284124374,0.1993938684463501,0.2895648181438446,4.862033843994141,0.09943798184394836,1.9071639776229858,-64.8245620727539,-21.285297393798828,0.4278837740421295,1,0.32923072576522827,0.005285541992634535,0.005285541992634535,-8.79688304848969e-05,0.32923072576522827,0.005285541992634535,0.005285541992634535,-8.79688304848969e-05
23392.762,-0.023775853216648102,-0.13521595299243927,1.5660901069641113,0.0736948773264885,0.18860366940498352,0.27524223923683167,4.187934398651123,0.33165624737739563,1.888931155204773,-72.24137878417969,-27.84800148010254,0.5410159230232239,1,0.3311132788658142,0.0027276992332190275,0.0023734690621495247,-6.856481195427477e-05,0.3311132788658142,0.0027276992332190275,0.0023734690621495247,-6.856481195427477e-05
23402.617,-0.023595385253429413,-0.13579528033733368,1.568352222442627,0.07183090597391129,0.17416538298130035,0.2616506516933441,3.507727861404419,0.5811375975608826,1.8733556270599365,-56.16392517089844,-10.706045150756836,0.8923259377479553,1,0.333039790391922,-0.0025857489090412855,-0.0030230518896132708,-7.377077417913824e-05,0.333039790391922,-0.0025857489090412855,-0.0030230518896132708,-7.377077417913824e-05
23412.474,-0.023149410262703896,-0.13520321249961853,1.570784091949463,0.07025966048240662,0.16520577669143677,0.2514653205871582,2.988091230392456,0.6544914245605469,1.8793723583221436,-29.31940269470215,13.311107635498047,1.7061402797698975,1,0.33404186367988586,-0.005285541992634535,-0.005285541992634535,-0.00010666294838301837,0.33404186367988586,-0.005285541992634535,-0.005285541992634535,-0.00010666294838301837
23422.332,-0.023041659966111183,-0.13593636453151703,1.5728291273117065,0.06735803931951523,0.15261279046535492,0.24107672274112701,2.7462406158447266,0.5124587416648865,1.8942559957504272,-15.920289993286133,25.088943481445312,1.2464710474014282,1,0.3352924585342407,-0.003623113501816988,-0.0033826050348579884,-0.00011512263881741092,0.3352924585342407,-0.003623113501816988,-0.0033826050348579884,-0.00011512263881741092
23432.212,-0.022635774686932564,-0.13552594184875488,1.5750459432601929,0.06587809324264526,0.14492331445217133,0.2306804209947586,2.5764546394348145,0.2728534936904907,1.9139680862426758,-26.5095157623291,13.675686836242676,-0.29169216752052307,1,0.33646535873413086,0.0016371032688766718,0.0016988839488476515,-0.00011109984188806266,0.33646535873413086,0.0016371032688766718,0.0016988839488476515,-0.00011109984188806266
23442.057,-0.022565152496099472,-0.13634368777275085,1.5768582820892334,0.06361947953701019,0.1338518261909485,0.21782030165195465,2.272766351699829,0.1700073778629303,1.9152412414550781,-52.15448760986328,-10.013853073120117,-0.6267286539077759,1,0.33846065402030945,0.005285541992634535,0.005121331661939621,-8.589828212279826e-05,0.33846065402030945,0.005285541992634535,0.005121331661939621,-8.589828212279826e-05
23451.917,-0.022206764668226242,-0.13606740534305573,1.5788257122039795,0.0625658929347992,0.1272357553243637,0.20569321513175964,1.708810806274414,0.3051285743713379,1.9019967317581177,-70.36079406738281,-27.15941047668457,-0.7757490873336792,1,0.340206503868103,0.005043420474976301,0.0045333681628108025,-6.631678843405098e-05,0.340206503868103,0.005043420474976301,0.0045333681628108025,-6.631678843405098e-05
23461.778,-0.02216647006571293,-0.13699498772621155,1.5804026126861572,0.06038729473948479,0.11734559386968613,0.1942838579416275,1.0181761980056763,0.5696006417274475,1.8795881271362305,-65.26541900634766,-21.554729461669922,-0.6363712549209595,1,0.3419777452945709,0.00024002463032957166,-0.00019711698405444622,-5.501749546965584e-05,0.3419777452945709,0.00024002463032957166,-0.00019711698405444622,-5.501749546965584e-05
23471.657,-0.021850239485502243,-0.1368476301431656,1.5821579694747925,0.05859214812517166,0.11253178864717484,0.1864107996225357,0.3965189456939697,0.7567721605300903,1.8680944442749023,-38.68302917480469,2.3817391395568848,1.1892815828323364,1,0.34278732538223267,-0.005040678195655346,-0.004805492702871561,-8.104727749014273e-05,0.34278732538223267,-0.005040678195655346,-0.004805492702871561,-8.104727749014273e-05
23481.495,-0.021877625957131386,-0.13782745599746704,1.583566427230835,0.055322177708148956,0.1050318256020546,0.1782177835702896,0.055933862924575806,0.7038322687149048,1.877655029296875,-12.97919750213623,25.146486282348633,1.8854929208755493,1,0.3438538908958435,-0.005285541992634535,-0.005285541992634535,-0.00011263797205174342,0.3438538908958435,-0.005285541992634535,-0.005285541992634535,-0.00011263797205174342
23491.369,-0.021614959463477135,-0.13776353001594543,1.5851577520370483,0.0532645508646965,0.1018592044711113,0.17048130929470062,-0.0726700872182846,0.4445503354072571,1.8838918209075928,-11.613679885864258,26.416948318481445,0.9068763852119446,1,0.3447208106517792,-0.0010165558196604252,-0.0012551287654787302,-0.00010187110456172377,0.3447208106517792,-0.0010165558196604252,-0.0012551287654787302,-0.00010187110456172377
23501.218,-0.021690187975764275,-0.13878469169139862,1.586398720741272,0.05049951374530792,0.09531963616609573,0.16006684303283691,-0.21835339069366455,0.21195362508296967,1.8974025249481201,-35.14868927001953,5.189751148223877,0.6908234357833862,1,0.3464350402355194,0.004936796613037586,0.0040996139869093895,-0.00011003499093931168,0.3464350402355194,0.004936796613037586,0.0040996139869093895,-0.00011003499093931168
23511.098,-0.021464388817548752,-0.13878262042999268,1.5877938270568848,0.04932732507586479,0.09272867441177368,0.14996685087680817,-0.6199986934661865,0.2004702240228653,1.906325340270996,-61.60297775268555,-20.346158981323242,0.7887068390846252,1,0.3480033874511719,0.005285541992634535,0.005285541992634535,-0.00010542062227614224,0.3480033874511719,0.005285541992634535,0.005285541992634535,-0.00010542062227614224
23520.94,-0.02127554640173912,-0.1388426423072815,1.5890529155731201,0.048005733639001846,0.09041702002286911,0.14000724256038666,-1.2475874423980713,0.4188074767589569,1.9173349142074585,-66.19864654541016,-24.908241271972656,0.6077960133552551,1,0.349613219499588,0.002599298721179366,0.0020227881614118814,-0.0001072545419447124,0.349613219499588,0.002599298721179366,0.0020227881614118814,-0.0001072545419447124
23530.801,-0.021414507180452347,-0.13988745212554932,1.5900371074676514,0.045187290757894516,0.08584580570459366,0.1312338262796402,-1.8662950992584229,0.6623839139938354,1.9170587062835693,-45.500335693359375,-8.06049919128418,1.2230721712112427,1,0.3510735034942627,-0.0032222657464444637,-0.0028920709155499935,-9.767084702616557e-05,0.3510735034942627,-0.0032222657464444637,-0.0028920709155499935,-9.767084702616557e-05
23540.67,-0.02159201353788376,-0.1409256011247635,1.5909333229064941,0.04182229936122894,0.08236999064683914,0.12412012368440628,-2.260331392288208,0.7208428382873535,1.921942949295044,-16.726438522338867,16.469093322753906,1.7420299053192139,1,0.35217201709747314,-0.005285541992634535,-0.005285541992634535,-0.00010802358883665875,0.35217201709747314,-0.005285541992634535,-0.005285541992634535,-0.00010802358883665875
23550.544,-0.021474085748195648,-0.1409769207239151,1.5920000076293945,0.0395362563431263,0.08319462835788727,0.11864016950130463,-2.404597520828247,0.5350273251533508,1.9278303384780884,-4.644501209259033,27.855680465698242,0.5123375058174133,1,0.35278379917144775,-0.003034827532246709,-0.003239041892811656,-0.00010086541442433372,0.35278379917144775,-0.003034827532246709,-0.003239041892811656,-0.00010086541442433372
23560.384,-0.02139236405491829,-0.1410486251115799,1.5929774045944214,0.037473566830158234,0.08406617492437363,0.11192870885133743,-2.4641947746276855,0.2728968560695648,1.9189016819000244,-16.633974075317383,15.2094087600708,-0.1634017378091812,1,0.35375043749809265,0.002320237923413515,0.0020626308396458626,-7.73202846175991e-05,0.35375043749809265,0.002320237923413515,0.0020626308396458626,-7.73202846175991e-05
23570.253,-0.021638406440615654,-0.1419934630393982,1.593705177307129,0.03474271669983864,0.08227438479661942,0.10294011235237122,-2.677602529525757,0.17175202071666718,1.9023504257202148,-43.163021087646484,-9.170068740844727,-0.21150070428848267,1,0.35541510581970215,0.005285541992634535,0.005285541992634535,-6.684922118438408e-05,0.35541510581970215,0.005285541992634535,0.005285541992634535,-6.684922118438408e-05
23580.106,-0.021599696949124336,-0.14204247295856476,1.5945243835449219,0.03330475091934204,0.08359719812870026,0.0946260541677475,-3.1370620727539062,0.2930038273334503,1.9077212810516357,-59.01785659790039,-25.320627212524414,-0.2960206866264343,1,0.3568754196166992,0.004967444576323032,0.004443681333214045,-9.376637899549678e-05,0.3568754196166992,0.004967444576323032,0.004443681333214045,-9.376637899549678e-05
23589.987,-0.021890413016080856,-0.14293533563613892,1.5951122045516968,0.030506106093525887,0.08301281183958054,0.08752471208572388,-3.723663568496704,0.5513799786567688,1.9136075973510742,-51.18174743652344,-18.037349700927734,0.939665675163269,1,0.35815712809562683,8.710570909897797e-06,-0.0004871467244811356,-0.00010346838098485023,0.35815712809562683,8.710570909897797e-06,-0.0004871467244811356,-0.00010346838098485023
23599.828,-0.022215815261006355,-0.14377589523792267,1.5956499576568604,0.02722104638814926,0.08375466614961624,0.08234628289937973,-4.208600997924805,0.6983731985092163,1.9306939840316772,-22.51637840270996,8.694811820983887,2.5850718021392822,1,0.3589915633201599,-0.0052326335571706295,-0.005285541992634535,-0.00012985311332158744,0.3589915633201599,-0.0052326335571706295,-0.005285541992634535,-0.00012985311332158744
23609.697,-0.022252008318901062,-0.14369642734527588,1.5963364839553833,0.024790098890662193,0.08841874450445175,0.07918275147676468,-4.406985282897949,0.5738080739974976,1.943810224533081,4.272496223449707,32.74333953857422,2.539097785949707,1,0.35925373435020447,-0.005285541992634535,-0.005285541992634535,-0.00012523875921033323,0.35925373435020447,-0.005285541992634535,-0.005285541992634535,-0.00012523875921033323
23619.552,-0.02264026179909706,-0.1444215029478073,1.5968159437179565,0.0213018786162138,0.09057096391916275,0.07445723563432693,-4.37208890914917,0.2528002858161926,1.9322153329849243,5.90824556350708,33.055198669433594,0.9949989914894104,1,0.36001020669937134,-0.0008591203368268907,-0.001157376798801124,-8.311782585224137e-05,0.36001020669937134,-0.0008591203368268907,-0.001157376798801124,-8.311782585224137e-05
23629.43,-0.02271958254277706,-0.14427323639392853,1.597416639328003,0.01974024437367916,0.09508997201919556,0.0689375251531601,-4.343648910522461,-0.04557923972606659,1.9179409742355347,-17.262468338012695,9.43458080291748,1.1746175289154053,1,0.3609083592891693,0.005101007409393787,0.0045570801012218,-8.051484473980963e-05,0.3609083592891693,0.005101007409393787,0.0045570801012218,-8.051484473980963e-05
23639.276,-0.0231342650949955,-0.1449168622493744,1.5977975130081177,0.01749430224299431,0.09666339308023453,0.06155779957771301,-4.55374002456665,-0.09432622045278549,1.922235369682312,-44.70928192138672,-16.8917236328125,1.3053176403045654,1,0.36238548159599304,0.005285541992634535,0.005285541992634535,-0.00010471071436768398,0.36238548159599304,0.005285541992634535,0.005285541992634535,-0.00010471071436768398
23649.133,-0.02326136827468872,-0.14466457068920135,1.5982744693756104,0.016331234946846962,0.10173545032739639,0.0553118996322155,-5.019604206085205,0.09411169588565826,1.9485704898834229,-47.03102111816406,-22.441024780273438,1.6195604801177979,1,0.36354029178619385,0.0023110434412956238,0.0022678133100271225,-0.00013553236203733832,0.36354029178619385,0.0023110434412956238,0.0022678133100271225,-0.00013553236203733832
