timestamp,stateEstimate.x,stateEstimate.y,stateEstimate.z,stateEstimate.vx,stateEstimate.vy,stateEstimate.vz,stateEstimate.roll,stateEstimate.pitch,stateEstimate.yaw,gyro.x,gyro.y,gyro.z,ILBC.nominal_controller,ILBC.nominal_thrust,ILBC.nominal_torqueX,ILBC.nominal_torqueY,ILBC.nominal_torqueZ,ILBC.full_thrust,ILBC.full_torqueX,ILBC.full_torqueY,ILBC.full_torqueZ
19190.992,0.058288607746362686,-0.8099280595779419,0.7045078873634338,0.14510944485664368,0.020231781527400017,-0.004084859974682331,-0.5229392647743225,-2.9272098541259766,-10.837507247924805,0.07343772798776627,-0.12188517302274704,-0.10174848139286041,1,0.0,0.0,0.0,0.0,0.0,0.0,0.0,0.0
19200.835,0.05879165977239609,-0.8098571300506592,0.7044918537139893,0.1468188613653183,0.02047106996178627,-0.004156121518462896,-0.5225207805633545,-2.92366886138916,-10.834098815917969,0.06196462735533714,-0.10489001870155334,-0.06320503354072571,1,0.0,0.0,0.0,0.0,0.0,0.0,0.0,0.0
19210.699,0.058244314044713974,-0.8099343180656433,0.7045028209686279,0.14505735039710999,0.02025081403553486,-0.0041744462214410305,-0.5218862891197205,-2.9239063262939453,-10.8389892578125,-0.010701987892389297,0.14067989587783813,0.12746363878250122,1,0.0,0.0,0.0,0.0,0.0,0.0,0.0,0.0
19220.558,0.05874912813305855,-0.8098636865615845,0.7044870257377625,0.1467243731021881,0.020445913076400757,-0.004200556315481663,-0.5223888754844666,-2.9249024391174316,-10.833348274230957,0.0960678979754448,0.007044568657875061,0.12963569164276123,1,0.0,0.0,0.0,0.0,0.0,0.0,0.0,0.0
19230.436,0.058202169835567474,-0.8099390864372253,0.7045010924339294,0.1449185609817505,0.020238375291228294,-0.004000161308795214,-0.5218338966369629,-2.9254910945892334,-10.836519241333008,-0.07363315671682358,0.4140373170375824,0.13431330025196075,1,0.0,0.0,0.0,0.0,0.0,0.0,0.0,0.0
19457.25,0.05625336244702339,-0.8035244941711426,0.7259522676467896,0.08015333116054535,0.17173148691654205,0.39215731620788574,-11.263256072998047,6.258657932281494,-7.5654706954956055,-125.0726318359375,-83.04275512695312,19.86322593688965,1,0.5620625615119934,0.005285541992634535,0.0005463463603518903,-0.00022503931540995836,0.5620625615119934,0.005285541992634535,0.0005463463603518903,-0.00022503931540995836
19467.118,0.05594755709171295,-0.8016448020935059,0.7302579283714294,0.06473837792873383,0.20192839205265045,0.4292293190956116,-12.604693412780762,7.038567066192627,-7.218182563781738,-130.06097412109375,-73.64810180664062,18.626192092895508,1,0.5538681745529175,0.004268179647624493,0.0004777909489348531,-0.0002489393809810281,0.5538681745529175,0.004268179647624493,0.0004777909489348531,-0.0002489393809810281
19476.971,0.05545501783490181,-0.7994946241378784,0.7348534464836121,0.04807719215750694,0.23492780327796936,0.46528780460357666,-13.914214134216309,7.691555023193359,-6.901825904846191,-111.32320404052734,-60.09482955932617,17.038198471069336,1,0.5458714365959167,-0.0009441290749236941,-0.0005623157485388219,-0.00021267516422085464,0.5458714365959167,-0.0009441290749236941,-0.0005623157485388219,-0.00021267516422085464
19486.83,0.053698018193244934,-0.7970367670059204,0.7399224638938904,0.02674003317952156,0.270438015460968,0.500175416469574,-14.99009895324707,8.230314254760742,-6.645150661468506,-80.95967102050781,-49.99964904785156,15.973731994628906,1,0.5381131172180176,-0.004245758056640625,8.016950596356764e-05,-0.00014186231419444084,0.5381131172180176,-0.004245758056640625,8.016950596356764e-05,-0.00014186231419444084
19496.69,0.0527958981692791,-0.7941961288452148,0.745198667049408,0.008193829096853733,0.3074171543121338,0.5315090417861938,-15.765850067138672,8.677371978759766,-6.385141372680664,-60.18674087524414,-49.05915832519531,14.744352340698242,1,0.5311894416809082,-0.002957722870633006,0.002192644402384758,-0.00014831060252618045,0.5311894416809082,-0.002957722870633006,0.002192644402384758,-0.00014831060252618045
19506.56,0.05059415474534035,-0.7910085916519165,0.7508767247200012,-0.014622463844716549,0.34512344002723694,0.5596209764480591,-16.38155746459961,9.132843017578125,-6.155055999755859,-59.39094161987305,-47.81584548950195,14.60997486114502,1,0.5250228047370911,0.0013848195085301995,0.0024258941411972046,-0.00011991447536274791,0.5250228047370911,0.0013848195085301995,0.0024258941411972046,-0.00011991447536274791
19516.413,0.04816749691963196,-0.7875257134437561,0.7566781044006348,-0.03795068711042404,0.3827798664569855,0.5839371681213379,-17.015546798706055,9.565144538879395,-5.920217037200928,-71.6434555053711,-42.11854934692383,16.118602752685547,1,0.5197611451148987,0.004884371999651194,0.0016422652406618,-0.00014653585094492882,0.5197611451148987,0.004884371999651194,0.0016422652406618,-0.00014653585094492882
19526.281,0.046597715467214584,-0.7834666967391968,0.7628413438796997,-0.05829695984721184,0.4226742386817932,0.6064305901527405,-17.814903259277344,9.904038429260254,-5.665233612060547,-79.62439727783203,-27.39623260498047,15.73493480682373,1,0.5149180293083191,0.004779845010489225,-0.0004760165757033974,-0.00017966465384233743,0.5149180293083191,0.004779845010489225,-0.0004760165757033974,-0.00017966465384233743
19536.132,0.0448097325861454,-0.7790820598602295,0.7690960168838501,-0.07888786494731903,0.46342697739601135,0.626935601234436,-18.626705169677734,10.079882621765137,-5.464169979095459,-68.88412475585938,-8.207691192626953,16.0549373626709,1,0.5105373859405518,0.00101574941072613,-0.0019001949112862349,-0.00012346399307716638,0.5105373859405518,0.00101574941072613,-0.0019001949112862349,-0.00012346399307716638
19546.005,0.04168112948536873,-0.7743238806724548,0.7756269574165344,-0.10337016731500626,0.5057246088981628,0.647246778011322,-19.278688430786133,10.098268508911133,-5.338971138000488,-43.11000061035156,3.6609578132629395,16.627883911132812,1,0.5061746835708618,-0.002644625958055258,-0.0006610354757867754,-3.857140472973697e-05,0.5061746835708618,-0.002644625958055258,-0.0006610354757867754,-3.857140472973697e-05
19555.854,0.039427462965250015,-0.7691129446029663,0.782265841960907,-0.1240290105342865,0.5487674474716187,0.6661586761474609,-19.6610107421875,10.010435104370117,-5.217472553253174,-19.041200637817383,5.755297660827637,17.151002883911133,1,0.5021307468414307,-0.002921267179772258,0.0014075638027861714,-4.277166590327397e-05,0.5021307468414307,-0.002921267179772258,0.0014075638027861714,-4.277166590327397e-05
19565.716,0.0358319990336895,-0.7635255455970764,0.7891377210617065,-0.1479577273130417,0.5917516350746155,0.6834967136383057,-19.832406997680664,9.920599937438965,-5.112838268280029,-11.065204620361328,4.769624710083008,17.970380783081055,1,0.49845123291015625,0.0002992242225445807,0.0022849116940051317,-3.200480205123313e-05,0.49845123291015625,0.0002992242225445807,0.0022849116940051317,-3.200480205123313e-05
19575.574,0.03313656896352768,-0.7574529647827148,0.7960968613624573,-0.16770417988300323,0.6346372365951538,0.6985273957252502,-19.976926803588867,9.825850486755371,-4.969635009765625,-16.588302612304688,5.623326301574707,19.882831573486328,1,0.4953215420246124,0.0035403629299253225,0.0020626308396458626,-9.956392750609666e-05,0.4953215420246124,0.0035403629299253225,0.0020626308396458626,-9.956392750609666e-05
19585.448,0.029135357588529587,-0.7513777017593384,0.8027918338775635,-0.19102126359939575,0.6753095388412476,0.7104300856590271,-20.161226272583008,9.709114074707031,-4.854790687561035,-23.419708251953125,15.296921730041504,19.787553787231445,1,0.4929497241973877,0.004373189993202686,0.00010339769505662844,-6.850565841887146e-05,0.4929497241973877,0.004373189993202686,0.00010339769505662844,-6.850565841887146e-05
19595.295,0.026011405512690544,-0.7444809079170227,0.8100178837776184,-0.21014122664928436,0.7179498076438904,0.7235230803489685,-20.404476165771484,9.469454765319824,-4.749035358428955,-17.414621353149414,29.5015926361084,20.792749404907227,1,0.49026331305503845,0.0018655138555914164,-0.001240933663211763,-6.880144792376086e-05,0.49026331305503845,0.0018655138555914164,-0.001240933663211763,-6.880144792376086e-05
19605.155,0.021563436836004257,-0.7372400760650635,0.8174102902412415,-0.23243291676044464,0.7608717083930969,0.7369440793991089,-20.539350509643555,9.095852851867676,-4.69957160949707,2.995859384536743,43.7609977722168,21.15326690673828,1,0.48747560381889343,-0.0015683866804465652,-0.0016888829413801432,-3.490357130431221e-06,0.48747560381889343,-0.0015683866804465652,-0.0016888829413801432,-3.490357130431221e-06
19615.015,0.01803356036543846,-0.7295036315917969,0.8248767852783203,-0.25027745962142944,0.8039832711219788,0.7500247955322266,-20.450931549072266,8.599276542663574,-4.670233726501465,28.307634353637695,50.541969299316406,22.20656394958496,1,0.4847528040409088,-0.0033376002684235573,-0.0003861686564050615,1.2778256859746762e-05,0.4847528040409088,-0.0033376002684235573,-0.0003861686564050615,1.2778256859746762e-05
19624.889,0.013199301436543465,-0.7214641571044922,0.8324881792068481,-0.2707745134830475,0.8459869623184204,0.7626975774765015,-20.119064331054688,8.062395095825195,-4.6563944816589355,43.46895217895508,48.73246383666992,22.709592819213867,1,0.4821122884750366,-0.0017314680153504014,0.0015082191675901413,2.798201603582129e-05,0.4821122884750366,-0.0017314680153504014,0.0015082191675901413,2.798201603582129e-05
19634.738,0.00930232647806406,-0.7129167914390564,0.8401806354522705,-0.28652364015579224,0.8869776129722595,0.7739274501800537,-19.68733024597168,7.5380048751831055,-4.609807968139648,42.68820571899414,45.06172180175781,24.711671829223633,1,0.4798128604888916,0.0016595249762758613,0.0020868268329650164,-2.8810236472054385e-05,0.4798128604888916,0.0016595249762758613,0.0020868268329650164,-2.8810236472054385e-05
19644.597,0.004131828434765339,-0.7041205763816833,0.8479700088500977,-0.3048393726348877,0.9261208772659302,0.7841658592224121,-19.296045303344727,7.031111240386963,-4.535470962524414,32.79261779785156,47.55788803100586,26.48834991455078,1,0.4777440130710602,0.004042834043502808,0.000833311234600842,-7.903588993940502e-05,0.4777440130710602,0.004042834043502808,0.000833311234600842,-7.903588993940502e-05
19654.463,-0.0011608899803832173,-0.6951017379760742,0.8556496500968933,-0.32234683632850647,0.9640309810638428,0.7927567362785339,-19.011600494384766,6.494844436645508,-4.4590373039245605,29.75612449645996,56.2988166809082,26.98992156982422,1,0.47607094049453735,0.0029490122105926275,-0.0007000718032941222,-8.838294161250815e-05,0.47607094049453735,0.0029490122105926275,-0.0007000718032941222,-8.838294161250815e-05
19664.333,-0.005549879744648933,-0.6852909922599792,0.8637842535972595,-0.33499443531036377,1.0022658109664917,0.8037082552909851,-18.697587966918945,5.826788425445557,-4.398035049438477,40.5301628112793,69.65370178222656,27.237754821777344,1,0.4737962782382965,-0.00010726906475611031,-0.0021657058969140053,-7.353413093369454e-05,0.4737962782382965,-0.00010726906475611031,-0.0021657058969140053,-7.353413093369454e-05
19674.187,-0.010049404576420784,-0.6752562522888184,0.8718368411064148,-0.346710741519928,1.0395783185958862,0.8144179582595825,-18.245656967163086,5.047950744628906,-4.3694748878479,61.967079162597656,78.07295989990234,28.22182273864746,1,0.4715655744075775,-0.0030015979427844286,-0.0015414482913911343,-4.141102181165479e-05,0.4715655744075775,-0.0030015979427844286,-0.0015414482913911343,-4.141102181165479e-05
19684.042,-0.015755418688058853,-0.6650956273078918,0.8799504041671753,-0.36060261726379395,1.0750648975372314,0.8254468441009521,-17.58897590637207,4.208957195281982,-4.345346450805664,78.31253814697266,78.5756607055664,27.890239715576172,1,0.46923932433128357,-0.0025780063588172197,1.4840232324786484e-05,-3.448946154094301e-05,0.46923932433128357,-0.0025780063588172197,1.4840232324786484e-05,-3.448946154094301e-05
19693.91,-0.020479166880249977,-0.6543864011764526,0.8881974220275879,-0.3694552779197693,1.1096267700195312,0.8360405564308167,-16.80330467224121,3.3833372592926025,-4.307936668395996,82.82545471191406,73.51600646972656,28.425498962402344,1,0.46700519323349,-0.0003522941842675209,0.001282550860196352,-5.637814319925383e-05,0.46700519323349,-0.0003522941842675209,0.001282550860196352,-5.637814319925383e-05
19703.772,-0.02636718936264515,-0.6436312198638916,0.896481454372406,-0.38048532605171204,1.1413588523864746,0.8457905650138855,-16.002498626708984,2.6223535537719727,-4.222070217132568,76.92720031738281,66.52294158935547,28.91773223876953,1,0.4649657905101776,0.001988107105717063,0.0019397152354940772,-0.00012370062177069485,0.4649657905101776,0.001988107105717063,0.0019397152354940772,-0.00012370062177069485
19713.619,-0.027406148612499237,-0.643899142742157,0.8964122533798218,-0.38389337062835693,1.1407182216644287,0.8453789353370667,-16.012615203857422,2.6215856075286865,-4.216789245605469,69.87059783935547,66.58705139160156,29.010311126708984,1,0.46544668078422546,0.00251154787838459,0.0005527986213564873,-2.4373342967010103e-05,0.46544668078422546,0.00251154787838459,0.0005527986213564873,-2.4373342967010103e-05
19723.48,-0.03369542956352234,-0.6318230032920837,0.9054973721504211,-0.3937867283821106,1.1738334894180298,0.8551576733589172,-15.237469673156738,1.8380447626113892,-4.089911937713623,69.97102355957031,74.74224853515625,29.71609878540039,1,0.4633862376213074,0.0010867243399843574,-0.0014293401036411524,-0.0001858763280324638,0.4633862376213074,0.0010867243399843574,-0.0014293401036411524,-0.0001858763280324638
19733.34,-0.039044708013534546,-0.6191480755805969,0.914769172668457,-0.3988458216190338,1.205441951751709,0.8656345009803772,-14.495610237121582,1.0231389999389648,-3.967498779296875,81.35801696777344,84.07210540771484,30.669002532958984,1,0.461137056350708,-0.0016264572041109204,-0.002116023562848568,-0.00019232460181228817,0.461137056350708,-0.0016264572041109204,-0.002116023562848568,-0.00019232460181228817
19743.21,-0.04511038959026337,-0.6073287129402161,0.9236810207366943,-0.4050407111644745,1.2325178384780884,0.8781530857086182,-13.752405166625977,0.13747380673885345,-3.84167218208313,94.9412612915039,89.25652313232422,29.89748764038086,1,0.45836302638053894,-0.002625430468469858,-0.0015696771442890167,-0.0001964065304491669,0.45836302638053894,-0.002625430468469858,-0.0015696771442890167,-0.0001964065304491669
19753.061,-0.0501413531601429,-0.5953443646430969,0.9322848320007324,-0.4070979654788971,1.2582372426986694,0.8884968757629395,-12.88817310333252,-0.7736292481422424,-3.7343616485595703,102.12230682373047,86.3123779296875,28.326311111450195,1,0.4561128616333008,-0.0016703325090929866,6.210314313648269e-05,-0.00016682724526617676,0.4561128616333008,-0.0016703325090929866,6.210314313648269e-05,-0.00016682724526617676
19762.924,-0.05621911585330963,-0.5831393599510193,0.9413886666297913,-0.40998438000679016,1.2814135551452637,0.9010855555534363,-11.89528751373291,-1.7464982271194458,-3.6138839721679688,98.88590240478516,76.71451568603516,27.88140106201172,1,0.4532873332500458,0.00046827385085634887,0.001666622469201684,-0.0001851664128480479,0.4532873332500458,0.00046827385085634887,0.001666622469201684,-0.0001851664128480479
19772.784,-0.06125689670443535,-0.5707505345344543,0.9501810073852539,-0.4087606370449066,1.3030439615249634,0.9105328321456909,-10.914820671081543,-2.5981833934783936,-3.490342140197754,91.13182067871094,69.04693603515625,27.55655860900879,1,0.45122668147087097,0.0015958088915795088,0.0014533749781548977,-0.00019191049796063453,0.45122668147087097,0.0015958088915795088,0.0014533749781548977,-0.00019191049796063453
19782.652,-0.0676957368850708,-0.5569766759872437,0.9603241682052612,-0.40809255838394165,1.32353937625885,0.9227851033210754,-9.87796688079834,-3.470319986343384,-3.2964460849761963,83.9556655883789,72.0773696899414,25.771106719970703,1,0.44845226407051086,0.001656298991292715,-0.0009467100026085973,-0.0002749691775534302,0.44845226407051086,0.001656298991292715,-0.0009467100026085973,-0.0002749691775534302
19792.504,-0.07267045974731445,-0.5443165302276611,0.9692388772964478,-0.4039919376373291,1.3406635522842407,0.93104487657547,-9.047821044921875,-4.203686714172363,-3.133727550506592,87.47994232177734,75.12664031982422,26.31839370727539,1,0.4466555416584015,-0.0006968457018956542,-0.0012035105610266328,-0.0002470462932251394,0.4466555416584015,-0.0006968457018956542,-0.0012035105610266328,-0.0002470462932251394
19802.365,-0.07859646528959274,-0.5316607356071472,0.9785855412483215,-0.4012700319290161,1.355234146118164,0.9416108131408691,-8.202614784240723,-5.00355863571167,-2.946018695831299,96.00114440917969,79.8624267578125,25.100990295410156,1,0.4442712664604187,-0.0020005276892334223,-0.0018650300335139036,-0.00027751296875067055,0.4442712664604187,-0.0020005276892334223,-0.0018650300335139036,-0.00027751296875067055
19812.235,-0.08347012847661972,-0.5187721848487854,0.987686276435852,-0.3945082128047943,1.3687971830368042,0.9502376914024353,-7.3015007972717285,-5.8064093589782715,-2.780176877975464,102.37212371826172,78.88371276855469,23.984825134277344,1,0.4423549473285675,-0.0017932484624907374,-0.0008434736519120634,-0.00024953094543889165,0.4423549473285675,-0.0017932484624907374,-0.0008434736519120634,-0.00024953094543889165
19822.093,-0.08870599418878555,-0.5040121674537659,0.9983251690864563,-0.3845129907131195,1.3824306726455688,0.9630042910575867,-6.176210403442383,-6.731157302856445,-2.592664957046509,101.38058471679688,71.8702392578125,21.996553421020508,1,0.43939316272735596,-0.0002668015658855438,0.00044004511437378824,-0.00027035479433834553,0.43939316272735596,-0.0002668015658855438,0.00044004511437378824,-0.00027035479433834553
19831.945,-0.09475769847631454,-0.48969730734825134,1.0090380907058716,-0.3758865296840668,1.3918358087539673,0.9741029739379883,-5.048429489135742,-7.595408916473389,-2.378880500793457,94.84740447998047,62.075294494628906,20.968854904174805,1,0.43682846426963806,0.0010862404014915228,0.001209317590110004,-0.00030484425951726735,0.43682846426963806,0.0010862404014915228,0.001209317590110004,-0.00030484425951726735
19841.806,-0.10025643557310104,-0.47710728645324707,1.0184582471847534,-0.3677116632461548,1.397031545639038,0.9804791808128357,-4.108362674713135,-8.2530517578125,-2.1726982593536377,88.93508911132812,55.6381721496582,19.95339584350586,1,0.4354252219200134,0.0011717331362888217,0.0006484535988420248,-0.00029703532345592976,0.4354252219200134,0.0011717331362888217,0.0006484535988420248,-0.00029703532345592976
19851.666,-0.10514001548290253,-0.46212342381477356,1.029491662979126,-0.3531394898891449,1.4033640623092651,0.9916493892669678,-3.0886471271514893,-8.9113187789917,-1.9619693756103516,89.02494812011719,54.59953689575195,18.384300231933594,1,0.43281665444374084,-5.113427687319927e-05,-0.0005887700244784355,-0.000300584826618433,0.43281665444374084,-5.113427687319927e-05,-0.0005887700244784355,-0.000300584826618433
19861.536,-0.11033760756254196,-0.4496907889842987,1.0389001369476318,-0.34275516867637634,1.4044898748397827,0.9962918758392334,-2.2366340160369873,-9.468841552734375,-1.7586560249328613,93.65538787841797,58.01819610595703,17.256792068481445,1,0.4318198263645172,-0.0011867345310747623,-0.0017669553635641932,-0.00029206598992459476,0.4318198263645172,-0.0011867345310747623,-0.0017669553635641932,-0.00029206598992459476
19871.386,-0.11457139253616333,-0.43618494272232056,1.049033522605896,-0.3277459442615509,1.4061877727508545,1.0051445960998535,-1.2694519758224487,-10.071807861328125,-1.5748963356018066,100.02623748779297,58.43301773071289,15.806654930114746,1,0.42976582050323486,-0.0018405114533379674,-0.001371108228340745,-0.00026532632182352245,0.42976582050323486,-0.0018405114533379674,-0.001371108228340745,-0.00026532632182352245
19881.253,-0.11945067346096039,-0.42387405037879944,1.0585857629776,-0.31526699662208557,1.4035027027130127,1.008846640586853,-0.30811581015586853,-10.664203643798828,-1.378675103187561,101.18873596191406,54.15989685058594,13.9738187789917,1,0.4279344379901886,-0.0009234818280674517,-0.00042375316843390465,-0.00027621150366030633,0.4279344379901886,-0.0009234818280674517,-0.00042375316843390465,-0.00027621150366030633
19891.11,-0.12336607277393341,-0.41046348214149475,1.068848729133606,-0.29825595021247864,1.4014196395874023,1.0160903930664062,0.7380419373512268,-11.228730201721191,-1.2061216831207275,97.03890228271484,44.98682403564453,12.684076309204102,1,0.4216744601726532,0.0002247004595119506,0.0007324944599531591,-0.0002450940664857626,0.4216744601726532,0.0002247004595119506,0.0007324944599531591,-0.0002450940664857626
19900.978,-0.1278955638408661,-0.3983592987060547,1.0785269737243652,-0.28383418917655945,1.3944745063781738,1.0184420347213745,1.682603359222412,-11.685276985168457,-1.0214488506317139,90.27912902832031,35.053733825683594,11.600409507751465,1,0.4168763756752014,0.0009133195271715522,0.0011325355153530836,-0.00026035698829218745,0.4168763756752014,0.0009133195271715522,0.0011325355153530836,-0.00026035698829218745
19910.829,-0.1314641535282135,-0.38512513041496277,1.0888943672180176,-0.2651934325695038,1.3885142803192139,1.0244985818862915,2.6276588439941406,-12.053930282592773,-0.8621113896369934,87.16960906982422,29.55082130432129,11.169695854187012,1,0.41076818108558655,0.0002108280750690028,0.00029277196153998375,-0.0002326707763131708,0.41076818108558655,0.0002108280750690028,0.00029277196153998375,-0.0002326707763131708
19920.688,-0.13560587167739868,-0.373297780752182,1.0986822843551636,-0.24929776787757874,1.3776777982711792,1.0257880687713623,3.477911949157715,-12.356492042541504,-0.6814408302307129,89.53033447265625,29.94594955444336,10.379920959472656,1,0.4060892164707184,-0.0011030163150280714,-0.0010446233209222555,-0.00026136270025745034,0.4060892164707184,-0.0011030163150280714,-0.0010446233209222555,-0.00026136270025745034
19930.551,-0.1379871517419815,-0.3595541715621948,1.1089613437652588,-0.22699250280857086,1.3711357116699219,1.0299426317214966,4.398561954498291,-12.6483793258667,-0.5538529753684998,93.07611083984375,31.78169822692871,10.530110359191895,1,0.40040966868400574,-0.0015720967203378677,-0.001596776652149856,-0.00020190828945487738,0.40040966868400574,-0.0015720967203378677,-0.001596776652149856,-0.00020190828945487738
19940.427,-0.14183244109153748,-0.3482023775577545,1.118812918663025,-0.21064473688602448,1.356289029121399,1.029706597328186,5.312374591827393,-12.964966773986816,-0.36682701110839844,93.963134765625,31.848833084106445,9.803192138671875,1,0.3959924578666687,-0.0012352879857644439,-0.0013886907836422324,-0.00027863698778674006,0.3959924578666687,-0.0012352879857644439,-0.0013886907836422324,-0.00027863698778674006
19950.279,-0.14463649690151215,-0.336174339056015,1.1285128593444824,-0.19101819396018982,1.3427366018295288,1.0281095504760742,6.236794471740723,-13.264863967895508,-0.21017710864543915,92.43330383300781,24.73495101928711,9.311600685119629,1,0.39195215702056885,-0.0008384730317629874,0.00017388880951330066,-0.00024414752260781825,0.39195215702056885,-0.0008384730317629874,0.00017388880951330066,-0.00024414752260781825
19960.13,-0.148042693734169,-0.3251507878303528,1.1384973526000977,-0.17360204458236694,1.3247120380401611,1.0267789363861084,7.151125907897949,-13.516060829162598,-0.02742915228009224,85.4766845703125,14.06676197052002,8.376656532287598,1,0.38766729831695557,0.0003481001767795533,0.0011799597414210439,-0.0002778087800834328,0.38766729831695557,0.0003481001767795533,0.0011799597414210439,-0.0002778087800834328
19969.991,-0.15045292675495148,-0.3128869831562042,1.1490319967269897,-0.15262793004512787,1.3087371587753296,1.0276912450790405,8.054367065429688,-13.665680885314941,0.10765228420495987,79.16810607910156,5.562966346740723,7.187714099884033,1,0.3825102746486664,0.00031116095487959683,0.0009402577998116612,-0.00021598802413791418,0.3825102746486664,0.00031116095487959683,0.0009402577998116612,-0.00021598802413791418
19979.861,-0.15340934693813324,-0.302316278219223,1.1590381860733032,-0.13464109599590302,1.2874720096588135,1.0242702960968018,8.837125778198242,-13.73027229309082,0.24215689301490784,76.07872009277344,3.3278310298919678,5.357223987579346,1,0.37865522503852844,-0.00039778268546797335,-0.0003343891294207424,-0.00020806078100576997,0.37865522503852844,-0.00039778268546797335,-0.0003343891294207424,-0.00020806078100576997
19989.711,-0.15539750456809998,-0.2904926538467407,1.1695475578308105,-0.11357161402702332,1.2686694860458374,1.0234180688858032,9.632338523864746,-13.76746654510498,0.3299435079097748,75.20234680175781,4.994282245635986,4.7002692222595215,1,0.37387314438819885,-0.0009696155902929604,-0.0013107794802635908,-0.00014913882478140295,0.37387314438819885,-0.0009696155902929604,-0.0013107794802635908,-0.00014913882478140295
19999.58,-0.15791313350200653,-0.28041699528694153,1.1795406341552734,-0.09555857628583908,1.2447519302368164,1.0186104774475098,10.362214088439941,-13.822068214416504,0.44204822182655334,75.80204010009766,6.044083595275879,4.4098052978515625,1,0.37029531598091125,-0.0014887010911479592,-0.0013327172491699457,-0.0001820901525206864,0.37029531598091125,-0.0014887010911479592,-0.0013327172491699457,-0.0001820901525206864
20009.433,-0.15947984158992767,-0.2690753936767578,1.189986228942871,-0.07453995198011398,1.2236160039901733,1.0162080526351929,11.143715858459473,-13.880663871765137,0.5262094736099243,73.94973754882812,1.65200936794281,4.774345397949219,1,0.3658584952354431,-0.001099628978408873,-0.00019114863243885338,-0.00015363487182185054,0.3658584952354431,-0.001099628978408873,-0.00019114863243885338,-0.00015363487182185054
20019.307,-0.1615515649318695,-0.2595732808113098,1.1999447345733643,-0.05628492683172226,1.19666588306427,1.0104652643203735,11.875475883483887,-13.90185546875,0.6267049908638,68.30589294433594,-5.000046253204346,4.57627010345459,1,0.36246034502983093,-0.0003324534627608955,0.0004318184801377356,-0.00017682506586425006,0.36246034502983093,-0.0003324534627608955,0.0004318184801377356,-0.00017682506586425006
20029.155,-0.16269755363464355,-0.24876809120178223,1.2102992534637451,-0.03551030904054642,1.1733280420303345,1.005945086479187,12.575616836547852,-13.842259407043457,0.6872027516365051,61.35049819946289,-14.130193710327148,4.761650085449219,1,0.358527809381485,3.0648305255454034e-05,0.0011952838394790888,-0.0001310954539803788,0.358527809381485,3.0648305255454034e-05,0.0011952838394790888,-0.0001310954539803788
20039.019,-0.16433511674404144,-0.23985862731933594,1.2201740741729736,-0.017578350380063057,1.1441649198532104,0.9978880286216736,13.178253173828125,-13.707799911499023,0.7514265775680542,54.12568283081055,-19.312686920166016,4.877533912658691,1,0.3556826710700989,0.0001603390119271353,0.0005461850087158382,-0.00013931849389337003,0.3556826710700989,0.0001603390119271353,0.0005461850087158382,-0.00013931849389337003
20048.879,-0.16507945954799652,-0.22963714599609375,1.230394959449768,0.002392419381067157,1.1189647912979126,0.9911013245582581,13.733132362365723,-13.512920379638672,0.7757331132888794,49.71648406982422,-20.068429946899414,4.826663970947266,1,0.3523199260234833,-0.0003960083413403481,-0.0003842329606413841,-9.045348997460678e-05,0.3523199260234833,-0.0003960083413403481,-0.0003842329606413841,-9.045348997460678e-05
20058.749,-0.16630007326602936,-0.22132572531700134,1.2401403188705444,0.01972697302699089,1.0882757902145386,0.9815706610679626,14.214159965515137,-13.319214820861816,0.8187300562858582,46.81510543823242,-19.00575828552246,5.391360759735107,1,0.3498483896255493,-0.00078782276250422,-0.0008416992495767772,-0.00011955952504649758,0.3498483896255493,-0.00078782276250422,-0.0008416992495767772,-0.00011955952504649758
20068.598,-0.16665521264076233,-0.21170905232429504,1.2501925230026245,0.038916636258363724,1.0615758895874023,0.9736812710762024,14.693254470825195,-13.119261741638184,0.8437075018882751,44.21011734008789,-17.360858917236328,5.415229797363281,1,0.34678903222084045,-0.0009083189070224762,-0.0010933378944173455,-9.843990847002715e-05,0.34678903222084045,-0.0009083189070224762,-0.0010933378944173455,-9.843990847002715e-05
20078.458,-0.16749247908592224,-0.20403876900672913,1.2597825527191162,0.055456627160310745,1.0293833017349243,0.9629431962966919,15.128654479980469,-12.945671081542969,0.8925297260284424,40.55237579345703,-20.66750144958496,6.297280311584473,1,0.3446424603462219,-0.000760077906306833,-1.4678924344480038e-05,-0.0001364788768114522,0.3446424603462219,-0.000760077906306833,-1.4678924344480038e-05,-0.0001364788768114522
20088.321,-0.1674683690071106,-0.195047527551651,1.2696349620819092,0.07379107177257538,1.001739501953125,0.9529865980148315,15.543001174926758,-12.733179092407227,0.919701337814331,35.054786682128906,-25.26722526550293,6.103896617889404,1,0.34214702248573303,-0.0003313243214506656,0.00036777963396161795,-0.00010938424384221435,0.34214702248573303,-0.0003313243214506656,0.00036777963396161795,-0.00010938424384221435
20098.188,-0.16792915761470795,-0.1880405694246292,1.279033899307251,0.08966883271932602,0.9682481288909912,0.9408432245254517,15.894170761108398,-12.489751815795898,0.9487068057060242,27.645397186279297,-31.94993782043457,5.99474573135376,1,0.34039878845214844,0.00014517617819365114,0.0010238146642223,-0.00011216470738872886,0.34039878845214844,0.00014517617819365114,0.0010238146642223,-0.00011216470738872886
20108.045,-0.1675563007593155,-0.17970170080661774,1.288650393486023,0.10701204836368561,0.9396637082099915,0.929347574710846,16.17934799194336,-12.169480323791504,0.935693085193634,22.48584747314453,-35.5613899230957,6.295583724975586,1,0.3383602201938629,-0.00024728343123570085,0.0005186015623621643,-6.15841054241173e-05,0.3383602201938629,-0.00024728343123570085,0.0005186015623621643,-6.15841054241173e-05
20117.9,-0.16768041253089905,-0.17333686351776123,1.2978119850158691,0.12179369479417801,0.9056892395019531,0.9157984852790833,16.39381217956543,-11.826613426208496,0.928623616695404,18.11121368408203,-35.10431671142578,6.286170482635498,1,0.3370395004749298,-0.00041536521166563034,-0.0003242267994210124,-6.86239727656357e-05,0.3370395004749298,-0.00041536521166563034,-0.0003242267994210124,-6.86239727656357e-05
20127.769,-0.16698725521564484,-0.16563230752944946,1.3071622848510742,0.137864887714386,0.8768450021743774,0.9033114910125732,16.565658569335938,-11.463830947875977,0.9020814895629883,14.722197532653809,-34.35972213745117,7.464771747589111,1,0.3353423476219177,-0.0006069977534934878,-0.00042923755245283246,-5.170461372472346e-05,0.3353423476219177,-0.0006069977534934878,-0.00042923755245283246,-5.170461372472346e-05
20137.629,-0.16680708527565002,-0.15991732478141785,1.316076636314392,0.1514378786087036,0.842406690120697,0.8894169330596924,16.70127296447754,-11.120832443237305,0.9004607200622559,10.798118591308594,-35.005733489990234,8.199346542358398,1,0.3341948986053467,-0.0005187628557905555,-0.00012372237688396126,-8.785052341409028e-05,0.3341948986053467,-0.0005187628557905555,-0.00012372237688396126,-8.785052341409028e-05
20147.497,-0.16580931842327118,-0.15289202332496643,1.325157880783081,0.16638484597206116,0.8130255937576294,0.8760022521018982,16.811851501464844,-10.761040687561035,0.8923258781433105,6.119831085205078,-35.29410171508789,9.041083335876465,1,0.33282867074012756,-0.0003039021394215524,-0.00019985920516774058,-8.54250174597837e-05,0.33282867074012756,-0.0003039021394215524,-0.00019985920516774058,-8.54250174597837e-05
20157.348,-0.16469283401966095,-0.14632540941238403,1.3339166641235352,0.1808302253484726,0.7830401659011841,0.8616496920585632,16.876914978027344,-10.402156829833984,0.8911016583442688,0.9420267939567566,-37.15224838256836,8.959884643554688,1,0.3318406045436859,-0.00011791531869675964,0.00017727624799590558,-9.341142867924646e-05,0.3318406045436859,-0.00011791531869675964,0.00017727624799590558,-9.341142867924646e-05
20167.204,-0.16386644542217255,-0.14075572788715363,1.3434488773345947,0.1944841891527176,0.745804488658905,0.8460431694984436,16.896268844604492,-9.988462448120117,0.8922359347343445,-4.986344337463379,-40.145748138427734,9.50814151763916,1,0.3307640850543976,0.00010404292697785422,0.0005355387693271041,-0.00010033298167400062,0.3307640850543976,0.00010404292697785422,0.0005355387693271041,-0.00010033298167400062
20177.079,-0.16315123438835144,-0.1364501267671585,1.3516916036605835,0.20574603974819183,0.7110324501991272,0.8300630450248718,16.83897590637207,-9.59532356262207,0.8921741843223572,-9.956092834472656,-42.61628723144531,9.297575950622559,1,0.33040982484817505,-3.839103374048136e-05,0.0005495725199580193,-9.737505024531856e-05,0.33040982484817505,-3.839103374048136e-05,0.0005495725199580193,-9.737505024531856e-05
20186.928,-0.1616283804178238,-0.1307935267686844,1.3601055145263672,0.2182517945766449,0.6817744374275208,0.815269947052002,16.731470108032227,-9.156889915466309,0.8645317554473877,-14.499090194702148,-42.909820556640625,9.11228084564209,1,0.3296639621257782,-2.951915485027712e-05,0.00013662691344507039,-6.069672235753387e-05,0.3296639621257782,-2.951915485027712e-05,0.00013662691344507039,-6.069672235753387e-05
20196.781,-0.16037343442440033,-0.1261359304189682,1.3693336248397827,0.22950764000415802,0.6458157300949097,0.7998314499855042,16.564950942993164,-8.661897659301758,0.8310646414756775,-17.608055114746094,-42.95991134643555,9.240147590637207,1,0.3286593556404114,-0.0003198714985046536,0.00012920679000671953,-5.29469434695784e-05,0.3286593556404114,-0.0003198714985046536,0.00012920679000671953,-5.29469434695784e-05
20206.645,-0.15864063799381256,-0.12117841094732285,1.3773667812347412,0.24069450795650482,0.6168104410171509,0.7848882079124451,16.376602172851562,-8.225691795349121,0.7996764779090881,-20.47612953186035,-42.43955612182617,9.920422554016113,1,0.3281137943267822,-0.00032842077780514956,1.2420628991094418e-05,-5.904027784708887e-05,0.3281137943267822,-0.00032842077780514956,1.2420628991094418e-05,-5.904027784708887e-05
20216.519,-0.15719161927700043,-0.11730864644050598,1.3861141204833984,0.25047239661216736,0.58134925365448,0.7691488265991211,16.131559371948242,-7.742658615112305,0.7867000699043274,-24.06884002685547,-42.499759674072266,10.688328742980957,1,0.3273989260196686,-0.00015114452980924398,0.00017453404143452644,-8.6844818724785e-05,0.3273989260196686,-0.00015114452980924398,0.00017453404143452644,-8.6844818724785e-05
20226.362,-0.15782484412193298,-0.11867494881153107,1.386156678199768,0.24857699871063232,0.5768368244171143,0.769686222076416,16.131559371948242,-7.742658615112305,0.7867000699043274,-27.703094482421875,-43.06346893310547,10.982003211975098,1,0.32696476578712463,-4.355285636847839e-05,0.0003182584187015891,-0.00010512482549529523,0.32696476578712463,-4.355285636847839e-05,0.0003182584187015891,-0.00010512482549529523
20236.223,-0.15632575750350952,-0.11526303738355637,1.3945133686065674,0.2574969530105591,0.5415052771568298,0.7527878284454346,15.844866752624512,-7.267459869384766,0.7749699950218201,-31.6191463470459,-43.41521453857422,10.735363960266113,1,0.32672157883644104,6.32322917226702e-05,0.0003353569481987506,-8.832378080114722e-05,0.32672157883644104,6.32322917226702e-05,0.0003353569481987506,-8.832378080114722e-05
20246.084,-0.15435688197612762,-0.11134956032037735,1.4019522666931152,0.2663297951221466,0.5136687159538269,0.7367681264877319,15.5487642288208,-6.822749614715576,0.7641158103942871,-35.87131881713867,-43.69389343261719,11.287861824035645,1,0.3267088234424591,0.00024857386597432196,0.00036423091660253704,-9.287899592891335e-05,0.3267088234424591,0.00024857386597432196,0.00036423091660253704,-9.287899592891335e-05
20255.958,-0.1529776006937027,-0.10908427834510803,1.4092215299606323,0.2725401818752289,0.48173055052757263,0.7210910320281982,15.210489273071289,-6.3789591789245605,0.7584777474403381,-38.991207122802734,-43.40397644042969,11.430868148803711,1,0.32668864727020264,5.807047273265198e-05,0.00029373980942182243,-0.00010021466732723638,0.32668864727020264,5.807047273265198e-05,0.00029373980942182243,-0.00010021466732723638
20265.808,-0.15088193118572235,-0.10574974864721298,1.41634202003479,0.2800403833389282,0.45477885007858276,0.7054053544998169,14.83829116821289,-5.9312968254089355,0.7559604644775391,-41.70350646972656,-43.05861282348633,11.452290534973145,1,0.32673826813697815,4.855336737819016e-05,0.00030841873376630247,-0.00010417828889330849,0.32673826813697815,4.855336737819016e-05,0.00030841873376630247,-0.00010417828889330849
20275.669,-0.1490146815776825,-0.10337849706411362,1.4243156909942627,0.28573477268218994,0.42302611470222473,0.6896011829376221,14.372883796691895,-5.425263404846191,0.7539383172988892,-43.279415130615234,-42.44087600708008,11.56298828125,1,0.32638466358184814,-0.00017163048323709518,0.0002969659399241209,-0.00010547977581154555,0.32638466358184814,-0.00017163048323709518,0.0002969659399241209,-0.00010547977581154555
20285.535,-0.1468275934457779,-0.10064143687486649,1.4310580492019653,0.29188355803489685,0.3970668315887451,0.6743124723434448,13.950693130493164,-4.99069356918335,0.7545893788337708,-45.86005401611328,-40.68718338012695,11.319990158081055,1,0.32650867104530334,0.00010920474596787244,4.081063889316283e-05,-0.00010719537385739386,0.32650867104530334,0.00010920474596787244,4.081063889316283e-05,-0.00010719537385739386
20295.396,-0.14530622959136963,-0.09951897710561752,1.437571406364441,0.2952393591403961,0.3670664429664612,0.6588250994682312,13.518034934997559,-4.5770745277404785,0.759505033493042,-48.70812225341797,-40.053306579589844,11.492345809936523,1,0.32679158449172974,0.00021131198445800692,0.0003053538966923952,-0.00011393945896998048,0.32679158449172974,0.00021131198445800692,0.0003053538966923952,-0.00011393945896998048
20305.247,-0.14304764568805695,-0.0973086804151535,1.444006323814392,0.3000374734401703,0.3424362242221832,0.6431002616882324,13.057000160217285,-4.1633100509643555,0.7710777521133423,-51.40836715698242,-39.31918716430664,11.453669548034668,1,0.3271689713001251,0.00027631866396404803,0.00030164382769726217,-0.00012245829566381872,0.3271689713001251,0.00027631866396404803,0.00030164382769726217,-0.00012245829566381872
20315.114,-0.1413646787405014,-0.09643494337797165,1.4505518674850464,0.3020000755786896,0.3155657947063446,0.6284338235855103,12.535338401794434,-3.7390732765197754,0.7796863317489624,-52.78849792480469,-39.68996047973633,11.736611366271973,1,0.32722362875938416,3.7100577173987404e-05,0.0006129660760052502,-0.00012121596955694258,0.32722362875938416,3.7100577173987404e-05,0.0006129660760052502,-0.00012121596955694258
20324.966,-0.13906821608543396,-0.09469632059335709,1.4566570520401,0.30550605058670044,0.2925781011581421,0.6126337051391602,12.021865844726562,-3.334158182144165,0.7988312244415283,-54.28401184082031,-39.362083435058594,11.675070762634277,1,0.32777589559555054,0.00012372237688396126,0.0005106975440867245,-0.0001347632787656039,0.32777589559555054,0.00012372237688396126,0.0005106975440867245,-0.0001347632787656039
20334.836,-0.13738590478897095,-0.09427951276302338,1.4628440141677856,0.30607864260673523,0.2672092616558075,0.5980651378631592,11.469366073608398,-2.912980079650879,0.815257728099823,-55.19275665283203,-37.71921920776367,11.432188987731934,1,0.32797807455062866,2.467995000188239e-05,0.00026083318516612053,-0.00013038555334787816,0.32797807455062866,2.467995000188239e-05,0.00026083318516612053,-0.00013038555334787816
20344.689,-0.13508079946041107,-0.09299065917730331,1.4686284065246582,0.3082987666130066,0.24570830166339874,0.5826517343521118,10.932500839233398,-2.5199875831604004,0.8434301614761353,-57.16752624511719,-35.23457717895508,11.13877010345459,1,0.3285881578922272,0.0003319695533718914,4.75855304102879e-05,-0.00014416950580198318,0.3285881578922272,0.0003319695533718914,4.75855304102879e-05,-0.00014416950580198318
20354.551,-0.13312628865242004,-0.09276407957077026,1.4749972820281982,0.30800291895866394,0.22038915753364563,0.567467987537384,10.28750991821289,-2.094933271408081,0.8650124669075012,-59.391685485839844,-32.642127990722656,10.4008150100708,1,0.3288474380970001,0.0004753713437821716,5.807047273265198e-06,-0.0001316870329901576,0.3288474380970001,0.0004753713437821716,5.807047273265198e-06,-0.0001316870329901576
20364.409,-0.1308514028787613,-0.09190419316291809,1.4804226160049438,0.3088759183883667,0.20074696838855743,0.5523441433906555,9.711136817932129,-1.7544714212417603,0.8966379165649414,-60.57735061645508,-32.01026153564453,10.445480346679688,1,0.3295595049858093,0.00034277705708518624,0.00042843102710321546,-0.0001458851038478315,0.3295595049858093,0.00034277705708518624,0.00042843102710321546,-0.0001458851038478315
20374.281,-0.12926994264125824,-0.09231588989496231,1.485848307609558,0.30681759119033813,0.17868275940418243,0.5383290648460388,9.098210334777832,-1.4079993963241577,0.9242804646492004,-60.90983581542969,-32.590057373046875,10.387395858764648,1,0.3299945294857025,0.00019243908172938973,0.0007774991099722683,-0.00014174400712363422,0.3299945294857025,0.00019243908172938973,0.0007774991099722683,-0.00014174400712363422
20384.129,-0.12703494727611542,-0.09182775020599365,1.4909701347351074,0.30656614899635315,0.16076970100402832,0.5233243703842163,8.50631332397461,-1.080313801765442,0.9634948372840881,-61.417236328125,-32.25950241088867,10.161849021911621,1,0.33082646131515503,0.0002871262258850038,0.0006382912979461253,-0.0001562378602102399,0.33082646131515503,0.0002871262258850038,0.0006382912979461253,-0.0001562378602102399
20393.995,-0.12552617490291595,-0.0925539955496788,1.4960637092590332,0.3033198416233063,0.14064183831214905,0.5095810294151306,7.886063575744629,-0.7389769554138184,0.9905689358711243,-60.500308990478516,-30.70674705505371,9.771652221679688,1,0.3313586711883545,-1.871159656730015e-05,0.0004181074327789247,-0.00013961429067421705,0.3313586711883545,-1.871159656730015e-05,0.0004181074327789247,-0.00013961429067421705
20403.859,-0.12335392832756042,-0.0923883467912674,1.5008869171142578,0.3019702136516571,0.12459643185138702,0.49507489800453186,7.296253681182861,-0.4227546751499176,1.03339684009552,-61.19672775268555,-27.15564727783203,9.724574089050293,1,0.3322153389453888,0.0003806842432823032,-6.549058889504522e-05,-0.0001607339218026027,0.3322153389453888,0.0003806842432823032,-6.549058889504522e-05,-0.0001607339218026027
20413.731,-0.12194165587425232,-0.0933956578373909,1.5056625604629517,0.2975383698940277,0.10631837695837021,0.4812074303627014,6.690732479095459,-0.11907420307397842,1.0692193508148193,-61.15951919555664,-24.894752502441406,9.439724922180176,1,0.332937628030777,0.0002540583082009107,0.00019130994041915983,-0.00015156433801166713,0.332937628030777,0.0002540583082009107,0.00019130994041915983,-0.00015156433801166713
20423.581,-0.11985117942094803,-0.09351161122322083,1.5101898908615112,0.29514262080192566,0.09227414429187775,0.466234415769577,6.093794345855713,0.13988599181175232,1.1192420721054077,-62.18191146850586,-22.36871910095215,9.241655349731445,1,0.334060400724411,0.0005660257884301245,9.194490849040449e-05,-0.00017002179811242968,0.334060400724411,0.0005660257884301245,9.194490849040449e-05,-0.00017002179811242968
20433.431,-0.11854133754968643,-0.09473711997270584,1.5146422386169434,0.2898135781288147,0.07612406462430954,0.45275580883026123,5.474697589874268,0.3832939565181732,1.1586031913757324,-62.626617431640625,-20.8659610748291,8.786381721496582,1,0.33485090732574463,0.0005047292215749621,0.00031793583184480667,-0.00015529131633229554,0.33485090732574463,0.0005047292215749621,0.00031793583184480667,-0.00015529131633229554
20443.298,-0.11654635518789291,-0.09510044753551483,1.5188840627670288,0.286618709564209,0.06381317228078842,0.43934115767478943,4.865729808807373,0.5969619154930115,1.2115271091461182,-61.7050666809082,-20.335853576660156,8.590408325195312,1,0.3357318937778473,0.000260026688920334,0.0005442493711598217,-0.00017303889035247266,0.3357318937778473,0.000260026688920334,0.0005442493711598217,-0.00017303889035247266
20453.172,-0.11536363512277603,-0.09650343656539917,1.5230430364608765,0.28045737743377686,0.04985147714614868,0.426676481962204,4.238391399383545,0.8116384148597717,1.2525169849395752,-60.86240768432617,-19.6505184173584,8.455370903015137,1,0.33646920323371887,0.00029244934557937086,0.00056554184993729,-0.00015907746274024248,0.33646920323371887,0.00029244934557937086,0.00056554184993729,-0.00015907746274024248
20463.016,-0.11349178850650787,-0.09704799950122833,1.5270185470581055,0.2764035761356354,0.039837826043367386,0.4137186110019684,3.6335158348083496,1.0137184858322144,1.3050904273986816,-59.59237289428711,-18.477144241333008,8.447731018066406,1,0.33737245202064514,0.00023421757214237005,0.0004756939597427845,-0.00017570104682818055,0.33737245202064514,0.00023421757214237005,0.0004756939597427845,-0.00017570104682818055
20472.873,-0.11246269196271896,-0.09856674820184708,1.5308887958526611,0.2692984342575073,0.028321512043476105,0.4007926285266876,3.013427972793579,1.2130045890808105,1.3461636304855347,-58.44095230102539,-15.112283706665039,8.120684623718262,1,0.3383226990699768,0.00027438296820037067,-1.7582447981112637e-05,-0.00016091138240881264,0.3383226990699768,0.00027438296820037067,-1.7582447981112637e-05,-0.00016091138240881264
20482.739,-0.1107216477394104,-0.09927782416343689,1.5345988273620605,0.2645260691642761,0.020120730623602867,0.3879137933254242,2.439589262008667,1.3761972188949585,1.4026150703430176,-57.70000076293945,-12.73080825805664,7.978269100189209,1,0.33934399485588074,0.00040826768963597715,0.00013662691344507039,-0.0001814985735109076,0.33934399485588074,0.00040826768963597715,0.00013662691344507039,-0.0001814985735109076
20492.609,-0.10984743386507034,-0.10090858489274979,1.5381841659545898,0.2566896677017212,0.01036781445145607,0.37504106760025024,1.8572736978530884,1.5253323316574097,1.4464619159698486,-57.89525604248047,-10.237964630126953,7.136398792266846,1,0.3404293656349182,0.0006684556719847023,9.194490849040449e-05,-0.00016179877275135368,0.3404293656349182,0.0006684556719847023,9.194490849040449e-05,-0.00016179877275135368
20502.454,-0.10824888199567795,-0.10173146426677704,1.5416349172592163,0.25128811597824097,0.004138079937547445,0.36264821887016296,1.2912957668304443,1.6371253728866577,1.4994653463363647,-57.900299072265625,-8.981917381286621,6.705793857574463,1,0.3414660394191742,0.000721041695214808,0.0003358408575877547,-0.00017244731134269387,0.3414660394191742,0.000721041695214808,0.0003358408575877547,-0.00017244731134269387
20512.315,-0.10753485560417175,-0.10340400040149689,1.544948935508728,0.24291397631168365,-0.0033953103702515364,0.3498205840587616,0.7024141550064087,1.743917465209961,1.5360170602798462,-56.185394287109375,-9.47629451751709,6.644713401794434,1,0.34268316626548767,0.00038391034468077123,0.0007820157334208488,-0.0001531616144347936,0.34268316626548767,0.00038391034468077123,0.0007820157334208488,-0.0001531616144347936
20522.183,-0.10608158260583878,-0.10431121289730072,1.5481458902359009,0.23716016113758087,-0.007806447334587574,0.3374001979827881,0.15308192372322083,1.8395130634307861,1.5855916738510132,-53.05705642700195,-7.85565710067749,5.885654926300049,1,0.3438619375228882,6.968456727918237e-05,0.0003356795641593635,-0.00016617649816907942,0.3438619375228882,6.968456727918237e-05,0.0003356795641593635,-0.00016617649816907942
20532.045,-0.10552839934825897,-0.10599420219659805,1.5511945486068726,0.22844311594963074,-0.013206390663981438,0.32530543208122253,-0.40555450320243835,1.9317630529403687,1.614284873008728,-50.070770263671875,-6.30924129486084,5.899460315704346,1,0.34503835439682007,6.226445111678913e-05,0.00036181131144985557,-0.00014156651741359383,0.34503835439682007,6.226445111678913e-05,0.00036181131144985557,-0.00014156651741359383
20541.908,-0.10423266887664795,-0.10692153126001358,1.5541491508483887,0.22228841483592987,-0.01544717326760292,0.31314361095428467,-0.9179283976554871,2.002005100250244,1.654353141784668,-48.69667434692383,-4.337332248687744,5.702794075012207,1,0.3462831974029541,0.0004331089439801872,0.00023954070638865232,-0.00015611953858751804,0.3462831974029541,0.0004331089439801872,0.00023954070638865232,-0.00015611953858751804
20551.76,-0.10385183244943619,-0.10858035832643509,1.556944727897644,0.2132081240415573,-0.018885813653469086,0.301388144493103,-1.4233423471450806,2.0570852756500244,1.681000828742981,-48.545650482177734,-1.144950032234192,5.6736741065979,1,0.34751150012016296,0.0007581422687508166,-6.678103818558156e-05,-0.00014044251292943954,0.34751150012016296,0.0007581422687508166,-6.678103818558156e-05,-0.00014044251292943954
20561.623,-0.10271602123975754,-0.10952773690223694,1.559664011001587,0.20677033066749573,-0.019682854413986206,0.28977108001708984,-1.8948109149932861,2.078963279724121,1.7223427295684814,-47.89493179321289,1.4615205526351929,5.396839618682861,1,0.34874865412712097,0.0007318492280319333,-1.9356824850547127e-05,-0.00015854505181778222,0.34874865412712097,0.0007318492280319333,-1.9356824850547127e-05,-0.00015854505181778222
20571.49,-0.10250727087259293,-0.11115303635597229,1.5622203350067139,0.19746249914169312,-0.02167050540447235,0.2784671187400818,-2.3723671436309814,2.0810413360595703,1.748911738395691,-46.706058502197266,3.117156505584717,5.477935791015625,1,0.34999457001686096,0.0006631325231865048,0.00016388777294196188,-0.0001419806358171627,0.34999457001686096,0.0006631325231865048,0.00016388777294196188,-0.0001419806358171627
20581.35,-0.10153572261333466,-0.11206727474927902,1.5647190809249878,0.190858855843544,-0.020735325291752815,0.2673969268798828,-2.8325226306915283,2.0573089122772217,1.7881757020950317,-43.704322814941406,4.052199363708496,5.355031490325928,1,0.35121652483940125,0.00028583576204255223,0.0002977724652737379,-0.00015860420535318553,0.35121652483940125,0.00028583576204255223,0.0002977724652737379,-0.00015860420535318553
20591.201,-0.10149925947189331,-0.11358505487442017,1.5670511722564697,0.18148170411586761,-0.02064250037074089,0.2563963830471039,-3.2897937297821045,2.027543067932129,1.8115864992141724,-39.289791107177734,3.6112442016601562,5.481945991516113,1,0.3525099456310272,-8.016950596356764e-05,0.0006460339645855129,-0.00014085661678109318,0.3525099456310272,-8.016950596356764e-05,0.0006460339645855129,-0.00014085661678109318
20601.07,-0.10068869590759277,-0.11442314088344574,1.5693397521972656,0.17489765584468842,-0.017857952043414116,0.2459009289741516,-3.693848133087158,1.9942196607589722,1.8494422435760498,-36.215789794921875,4.401622295379639,5.268374443054199,1,0.35370510816574097,0.00017372748698107898,0.00039149177609942853,-0.00015895914111752063,0.35370510816574097,0.00017372748698107898,0.00039149177609942853,-0.00015895914111752063
20610.929,-0.1008199155330658,-0.11582136899232864,1.5714597702026367,0.16553020477294922,-0.01605493202805519,0.23559492826461792,-4.079858303070068,1.9568655490875244,1.867415189743042,-33.88182830810547,6.032009124755859,5.619594573974609,1,0.35494276881217957,0.0003203554078936577,0.00020905371638946235,-0.00013760289584752172,0.35494276881217957,0.0003203554078936577,0.00020905371638946235,-0.00013760289584752172
20620.783,-0.10016754269599915,-0.11657939106225967,1.5735501050949097,0.15898987650871277,-0.012012029066681862,0.225873202085495,-4.418037414550781,1.9009521007537842,1.9031091928482056,-33.807857513427734,8.711386680603027,5.544526100158691,1,0.356055349111557,0.0008739606128074229,-8.920269465306774e-05,-0.0001606747682671994,0.356055349111557,0.0008739606128074229,-8.920269465306774e-05,-0.0001606747682671994
20630.642,-0.10046243667602539,-0.11785373091697693,1.5754739046096802,0.14974768459796906,-0.009038795717060566,0.21612733602523804,-4.759818077087402,1.8249385356903076,1.9285047054290771,-33.374000549316406,11.44809341430664,5.216479778289795,1,0.35726237297058105,0.0008742831996642053,-0.0001671139179961756,-0.000146713326103054,0.35726237297058105,0.0008742831996642053,-0.0001671139179961756,-0.000146713326103054
20640.501,-0.09996987134218216,-0.11849943548440933,1.577377200126648,0.14334218204021454,-0.003802734659984708,0.20642663538455963,-5.086299896240234,1.719299554824829,1.9566956758499146,-31.182096481323242,12.006876945495605,4.728764533996582,1,0.35847413539886475,0.000538764928933233,0.0002587362250778824,-0.00014801482029724866,0.35847413539886475,0.000538764928933233,0.0002587362250778824,-0.00014801482029724866
20650.37,-0.10043127089738846,-0.1195879727602005,1.579113483428955,0.13427618145942688,0.000856568687595427,0.19678419828414917,-5.428343296051025,1.5992034673690796,1.9648914337158203,-27.408899307250977,12.414956092834473,4.460932731628418,1,0.3597607910633087,0.00017082398699130863,0.0003061604220420122,-0.00012163007340859622,0.3597607910633087,0.00017082398699130863,0.0003061604220420122,-0.00012163007340859622
20660.231,-0.1000925675034523,-0.1200849637389183,1.5808383226394653,0.12814286351203918,0.007527544163167477,0.18805010616779327,-5.71254825592041,1.4782850742340088,1.9847657680511475,-23.458824157714844,13.044734954833984,4.281877040863037,1,0.36083298921585083,8.32343430374749e-05,0.00024147637304849923,-0.0001358281442662701,0.36083298921585083,8.32343430374749e-05,0.00024147637304849923,-0.0001358281442662701
20670.084,-0.10070665180683136,-0.12100550532341003,1.5823969841003418,0.1193922907114029,0.013194702565670013,0.1790531426668167,-5.9628753662109375,1.3465359210968018,1.9908853769302368,-20.27107810974121,14.060176849365234,3.547093629837036,1,0.36205896735191345,0.00019711698405444622,0.00015291890304069966,-0.00011382115189917386,0.36205896735191345,0.00019711698405444622,0.00015291890304069966,-0.00011382115189917386
20679.944,-0.10051175951957703,-0.12135206907987595,1.5839523077011108,0.11363338679075241,0.020741410553455353,0.1704300194978714,-6.169111251831055,1.212443470954895,2.0038256645202637,-18.266876220703125,15.576508522033691,3.947633981704712,1,0.36319953203201294,0.00045053011854179204,-8.06534353614552e-06,-0.00012577117013279349,0.36319953203201294,0.00045053011854179204,-8.06534353614552e-06,-0.00012577117013279349
20689.817,-0.10127165168523788,-0.12207545340061188,1.5853439569473267,0.10524214059114456,0.027405645698308945,0.16166791319847107,-6.364401817321777,1.066914677619934,2.0045688152313232,-16.162450790405273,16.339895248413086,4.084750652313232,1,0.36446231603622437,0.00042956016841344535,0.00013872390263713896,-0.00011169142817379907,0.36446231603622437,0.00042956016841344535,0.00013872390263713896,-0.00011169142817379907
20699.664,-0.10121665894985199,-0.12224368751049042,1.5867393016815186,0.09984061866998672,0.03589672967791557,0.15379120409488678,-6.533703804016113,0.9136771559715271,2.015026807785034,-14.305379867553711,16.095684051513672,4.111692428588867,1,0.36550888419151306,0.0004992447211407125,0.0003472937096375972,-0.00012441053695511073,0.36550888419151306,0.0004992447211407125,0.0003472937096375972,-0.00012441053695511073
20709.527,-0.1021127849817276,-0.12277068197727203,1.587975025177002,0.09188109636306763,0.04323588311672211,0.14587555825710297,-6.6794233322143555,0.7500051856040955,2.0196175575256348,-12.892852783203125,17.47627067565918,4.3177571296691895,1,0.36665013432502747,0.0006108690868131816,-1.5646766769350506e-05,-0.00011884962441399693,0.36665013432502747,0.0006108690868131816,-1.5646766769350506e-05,-0.00011884962441399693
20719.387,-0.10218572616577148,-0.12276338040828705,1.5892248153686523,0.08697185665369034,0.05228748172521591,0.1388086974620819,-6.808516502380371,0.5812112092971802,2.0324172973632812,-10.655165672302246,18.527999877929688,4.0559821128845215,1,0.3675785958766937,0.0004450456181075424,-1.7743755051924381e-06,-0.00012784171849489212,0.3675785958766937,0.0004450456181075424,-1.7743755051924381e-06,-0.00012784171849489212
20729.255,-0.10320904105901718,-0.12306255847215652,1.5903263092041016,0.07954204827547073,0.06048336252570152,0.13113383948802948,-6.934239387512207,0.39814332127571106,2.034213066101074,-8.331757545471191,19.425111770629883,4.262852668762207,1,0.3687373995780945,0.0004161717079114169,6.2909671214583796e-06,-0.00011577337863855064,0.3687373995780945,0.0004161717079114169,6.2909671214583796e-06,-0.00011577337863855064
20739.105,-0.10339973121881485,-0.12285896390676498,1.5914396047592163,0.07518527656793594,0.07005474716424942,0.12393691390752792,-7.021773815155029,0.20737947523593903,2.0449330806732178,-4.8703413009643555,20.511089324951172,4.724555015563965,1,0.36977726221084595,0.00013323947496246547,-9.339667303720489e-05,-0.00013062218204140663,0.36977726221084595,0.00013323947496246547,-9.339667303720489e-05,-0.00013062218204140663
20748.965,-0.10453583300113678,-0.12295015901327133,1.5924067497253418,0.0683174654841423,0.07856666296720505,0.11679840087890625,-7.075988292694092,0.004444190301001072,2.06007981300354,-1.9197731018066406,20.862415313720703,4.692128658294678,1,0.3708809018135071,0.00018630942213349044,4.661768252844922e-05,-0.00013659719843417406,0.3708809018135071,0.00018630942213349044,4.661768252844922e-05,-0.00013659719843417406
20758.827,-0.10483495891094208,-0.1225477084517479,1.593392252922058,0.06455011665821075,0.08855796605348587,0.11054155230522156,-7.100042819976807,-0.19796134531497955,2.0733368396759033,0.552852213382721,20.72121238708496,4.094875335693359,1,0.371761292219162,0.00025857490254566073,0.00012840026465710253,-0.00013068135012872517,0.371761292219162,0.00025857490254566073,0.00012840026465710253,-0.00013068135012872517
20768.697,-0.1060701385140419,-0.12240680307149887,1.5942435264587402,0.05834805965423584,0.09757264703512192,0.1041012704372406,-7.105841159820557,-0.40810129046440125,2.079176902770996,2.301177740097046,20.733375549316406,4.511971473693848,1,0.372759073972702,0.000397137482650578,9.807457536226138e-05,-0.0001247063191840425,0.372759073972702,0.000397137482650578,9.807457536226138e-05,-0.0001247063191840425
20778.549,-0.1064593493938446,-0.12180236726999283,1.5951145887374878,0.055248405784368515,0.10771165788173676,0.09829284250736237,-7.086112022399902,-0.6128649711608887,2.092068672180176,3.721928358078003,20.49615478515625,4.202546119689941,1,0.37359458208084106,0.0004742422024719417,0.00013098117779009044,-0.0001319236762356013,0.37359458208084106,0.0004742422024719417,0.00013098117779009044,-0.0001319236762356013
20788.409,-0.10777849704027176,-0.12143521755933762,1.5958596467971802,0.04971528798341751,0.11696307361125946,0.09230103343725204,-7.061154365539551,-0.8235664963722229,2.1045033931732178,5.705999374389648,20.972530364990234,4.271922588348389,1,0.374543160200119,0.00034051877446472645,-3.4358363336650655e-05,-0.00013239694817457348,0.374543160200119,0.00034051877446472645,-3.4358363336650655e-05,-0.00013239694817457348
20798.27,-0.10824762284755707,-0.12061452120542526,1.5966272354125977,0.04731493815779686,0.1273667812347412,0.08696094900369644,-7.019608497619629,-1.0292925834655762,2.116734504699707,7.861928462982178,21.326868057250977,4.337423801422119,1,0.3753229081630707,0.0002861583780031651,-5.500563929672353e-05,-0.00013322515587788075,0.3753229081630707,0.0002861583780031651,-5.500563929672353e-05,-0.00013322515587788075
20808.138,-0.10963816195726395,-0.12003278732299805,1.5972810983657837,0.04247146472334862,0.1365840882062912,0.08175758272409439,-6.946291446685791,-1.2421925067901611,2.132444381713867,9.992166519165039,22.073251724243164,4.4266462326049805,1,0.3761294186115265,0.00025583268143236637,-0.00017082398699130863,-0.0001389043900417164,0.3761294186115265,0.00025583268143236637,-0.00017082398699130863,-0.0001389043900417164
