timestamp,stateEstimate.x,stateEstimate.y,stateEstimate.z,stateEstimate.vx,stateEstimate.vy,stateEstimate.vz,stateEstimate.roll,stateEstimate.pitch,stateEstimate.yaw,gyro.x,gyro.y,gyro.z,ILBC.nominal_controller,ILBC.nominal_thrust,ILBC.nominal_torqueX,ILBC.nominal_torqueY,ILBC.nominal_torqueZ,ILBC.full_thrust,ILBC.full_torqueX,ILBC.full_torqueY,ILBC.full_torqueZ
38571.635,0.10440466552972794,-0.7769365906715393,0.7045945525169373,0.1422366350889206,0.0015955748967826366,-0.0055818273685872555,-0.42364439368247986,-3.0053951740264893,-19.222131729125977,0.130610853433609,-0.021922389045357704,0.02280162274837494,1,0.0,0.0,0.0,0.0,0.0,0.0,0.0,0.0
38581.489,0.1048460453748703,-0.7769309282302856,0.7045774459838867,0.14343291521072388,0.0017658363794907928,-0.005369037389755249,-0.42301684617996216,-3.0035221576690674,-19.216886520385742,-0.1522994488477707,0.38934919238090515,-0.06263253837823868,1,0.0,0.0,0.0,0.0,0.0,0.0,0.0,0.0
38591.344,0.10535380989313126,-0.7769237160682678,0.7045589685440063,0.14504987001419067,0.001805054722353816,-0.005449855700135231,-0.4235410988330841,-3.004633903503418,-19.21083641052246,0.05963417887687683,-0.28967511653900146,-0.05450710281729698,1,0.0,0.0,0.0,0.0,0.0,0.0,0.0,0.0
38601.219,0.10483020544052124,-0.7769272327423096,0.7045783400535583,0.14329835772514343,0.001808183267712593,-0.005381958559155464,-0.42446884512901306,-3.003384590148926,-19.217374801635742,0.238326296210289,-0.014582016505300999,-0.10534070432186127,1,0.0,0.0,0.0,0.0,0.0,0.0,0.0,0.0
38611.075,0.10437127947807312,-0.7769319415092468,0.7045964002609253,0.14167116582393646,0.0017916361102834344,-0.005276909563690424,-0.4221571087837219,-3.00477933883667,-19.223207473754883,0.056699540466070175,0.2805246412754059,0.05175042524933815,1,0.0,0.0,0.0,0.0,0.0,0.0,0.0,0.0
38828.024,0.10352610796689987,-0.7721672058105469,0.7207427024841309,0.09527096152305603,0.12529787421226501,0.32996997237205505,-10.823144912719727,6.867274761199951,-15.133333206176758,-103.028076171875,-107.72698974609375,28.94743537902832,1,0.5767793655395508,0.002765122102573514,0.004348349291831255,-6.643510278081521e-05,0.5767793655395508,0.002765122102573514,0.004348349291831255,-6.643510278081521e-05
38837.888,0.10350675135850906,-0.7704158425331116,0.7248247861862183,0.08110930025577545,0.1596788465976715,0.36953896284103394,-12.07560920715332,8.04231071472168,-14.592473030090332,-119.19574737548828,-133.98797607421875,26.890670776367188,1,0.5680546760559082,0.005285541992634535,0.005285541992634535,-0.00022770145733375102,0.5680546760559082,0.005285541992634535,0.005285541992634535,-0.00022770145733375102
38847.753,0.10219011455774307,-0.7684599161148071,0.7289074063301086,0.0629340410232544,0.19283555448055267,0.4031606912612915,-13.330865859985352,9.313613891601562,-14.094576835632324,-124.54153442382812,-144.5249786376953,25.383901596069336,1,0.5607545375823975,0.004298505373299122,0.005285541992634535,-0.00018469315546099097,0.5607545375823975,0.004298505373299122,0.005285541992634535,-0.00018469315546099097
38857.613,0.10169648379087448,-0.7661424279212952,0.7333281636238098,0.04511328786611557,0.2305234968662262,0.4348258674144745,-14.684998512268066,10.687614440917969,-13.509198188781738,-109.6116714477539,-133.93333435058594,24.17037582397461,1,0.5538924932479858,-5.306995444698259e-05,0.0022758785635232925,-0.00030957694980315864,0.5538924932479858,-5.306995444698259e-05,0.0022758785635232925,-0.00030957694980315864
38867.464,0.09995567053556442,-0.7634175419807434,0.7380421161651611,0.02211000584065914,0.27059847116470337,0.4654138684272766,-15.827536582946777,11.868967056274414,-13.004548072814941,-82.86870574951172,-99.46903228759766,23.642993927001953,1,0.5472520589828491,-0.0032290411181747913,-0.003345504403114319,-0.00022693238861393183,0.5472520589828491,-0.0032290411181747913,-0.003345504403114319,-0.00022693238861393183
38877.328,0.09901134669780731,-0.7602832913398743,0.7430781126022339,4.592175901052542e-05,0.31386542320251465,0.49361100792884827,-16.733795166015625,12.754064559936523,-12.521427154541016,-56.91066360473633,-65.39202880859375,21.603727340698242,1,0.5411624908447266,-0.003893302520737052,-0.004150425549596548,-0.0002061677078017965,0.5411624908447266,-0.003893302520737052,-0.004150425549596548,-0.0002061677078017965
38887.192,0.09783067554235458,-0.7567874193191528,0.748285174369812,-0.022763993591070175,0.3574192523956299,0.5182351469993591,-17.367298126220703,13.31523323059082,-12.153060913085938,-53.25380325317383,-55.23101043701172,20.022489547729492,1,0.5359222292900085,0.0008250846294686198,0.0006660360377281904,-6.791407213313505e-05,0.5359222292900085,0.0008250846294686198,0.0006660360377281904,-6.791407213313505e-05
38897.051,0.09532778710126877,-0.7529192566871643,0.7535496950149536,-0.049266595393419266,0.4006236791610718,0.539530336856842,-17.950361251831055,13.77742862701416,-11.879706382751465,-67.43739318847656,-58.2166633605957,18.307849884033203,1,0.5314757227897644,0.005285541992634535,0.0038441040087491274,5.075807712273672e-05,0.5314757227897644,0.005285541992634535,0.0038441040087491274,5.075807712273672e-05
38906.903,0.09363328665494919,-0.7485321760177612,0.7591937780380249,-0.07330875843763351,0.4459579885005951,0.5594161152839661,-18.725034713745117,14.296778678894043,-11.534916877746582,-75.23081970214844,-66.91725158691406,20.207765579223633,1,0.5273491144180298,0.004839044529944658,0.005285541992634535,-6.596183811780065e-05,0.5273491144180298,0.004839044529944658,0.005285541992634535,-6.596183811780065e-05
38916.762,0.09057527780532837,-0.7435078620910645,0.7651630640029907,-0.10179045796394348,0.4937165081501007,0.5784986019134521,-19.579357147216797,14.880168914794922,-11.171852111816406,-67.30867004394531,-58.83291244506836,22.12421417236328,1,0.5233932733535767,0.0018268001731485128,0.0025168710853904486,-0.0001176072983071208,0.5233932733535767,0.0018268001731485128,0.0025168710853904486,-0.0001176072983071208
38926.633,0.08833064138889313,-0.7381654381752014,0.7711659669876099,-0.12754103541374207,0.5423487424850464,0.595726728439331,-20.32073974609375,15.337855339050293,-10.791311264038086,-40.28130340576172,-31.689178466796875,22.82958984375,1,0.5198716521263123,-0.002657208126038313,-0.002008754527196288,-0.00016043811046984047,0.5198716521263123,-0.002657208126038313,-0.002008754527196288,-0.00016043811046984047
38936.482,0.08469126373529434,-0.7322178483009338,0.777457058429718,-0.15763325989246368,0.59210604429245,0.612930417060852,-20.734642028808594,15.530217170715332,-10.520341873168945,-10.82884693145752,-0.5769975185394287,23.682893753051758,1,0.5163304805755615,-0.003956212196499109,-0.0036879591643810272,-4.1765972127905115e-05,0.5163304805755615,-0.003956212196499109,-0.0036879591643810272,-4.1765972127905115e-05
38946.348,0.0807764083147049,-0.7258734107017517,0.7837494015693665,-0.18771763145923615,0.6418030858039856,0.6279564499855042,-20.862083435058594,15.439335823059082,-10.359173774719238,1.7194130420684814,16.186115264892578,23.60394859313965,1,0.5133069157600403,-0.0007476573227904737,-0.0011730236001312733,8.844210969982669e-05,0.5133069157600403,-0.0007476573227904737,-0.0011730236001312733,8.844210969982669e-05
38956.202,0.0776536837220192,-0.718999445438385,0.7903202772140503,-0.21350885927677155,0.6906009316444397,0.6413139700889587,-20.882076263427734,15.192098617553711,-10.219106674194336,-4.480532646179199,17.971071243286133,24.53891372680664,1,0.5106772184371948,0.0035648818593472242,0.0019973015878349543,0.00010222605487797409,0.5106772184371948,0.0035648818593472242,0.0019973015878349543,0.00010222605487797409
38966.072,0.07317524403333664,-0.7117475271224976,0.796822190284729,-0.24244602024555206,0.7382728457450867,0.6525672078132629,-20.96714973449707,14.958107948303223,-10.091268539428711,-17.447858810424805,13.74647331237793,26.942989349365234,1,0.5085525512695312,0.005285541992634535,0.0036389215383678675,9.506786591373384e-05,0.5085525512695312,0.005285541992634535,0.0036389215383678675,9.506786591373384e-05
38975.921,0.06950531154870987,-0.7038877010345459,0.8036047220230103,-0.2669641971588135,0.7866412997245789,0.6635401248931885,-21.20333480834961,14.732460975646973,-9.895949363708496,-14.751115798950195,14.6672945022583,28.6512508392334,1,0.5064810514450073,0.0028201278764754534,0.0027959318831562996,-8.99210681382101e-06,0.5064810514450073,0.0028201278764754534,0.0027959318831562996,-8.99210681382101e-06
38985.787,0.06558462977409363,-0.6956949830055237,0.8103585839271545,-0.2914360761642456,0.8344815969467163,0.6743649244308472,-21.358919143676758,14.480546951293945,-9.69408130645752,6.866118431091309,30.365633010864258,30.827762603759766,1,0.5044302344322205,-0.0015466102631762624,-0.0005918348906561732,-4.105606421944685e-05,0.5044302344322205,-0.0015466102631762624,-0.0005918348906561732,-4.105606421944685e-05
38995.643,0.060291968286037445,-0.6869093179702759,0.8172586560249329,-0.3190256953239441,0.8835480809211731,0.6862248182296753,-21.28518295288086,14.06314754486084,-9.555146217346191,36.789268493652344,53.61910629272461,32.47673034667969,1,0.5021050572395325,-0.004164620768278837,-0.0028391622472554445,1.9581497326726094e-05,0.5021050572395325,-0.004164620768278837,-0.0028391622472554445,1.9581497326726094e-05
39005.511,0.05585889518260956,-0.677761435508728,0.8242172598838806,-0.3425154685974121,0.9314948320388794,0.6982799768447876,-20.906457901000977,13.4242582321167,-9.465034484863281,56.17546844482422,71.17396545410156,32.222312927246094,1,0.4997135102748871,-0.002638496458530426,-0.002279427368193865,7.832598930690438e-05,0.4997135102748871,-0.002638496458530426,-0.002279427368193865,7.832598930690438e-05
39015.362,0.050063926726579666,-0.668110728263855,0.8313130140304565,-0.3683415353298187,0.9779300093650818,0.7099895477294922,-20.344938278198242,12.636066436767578,-9.436403274536133,54.155670166015625,74.58401489257812,32.80372619628906,1,0.4973902702331543,0.0018850320484489202,0.0005437654326669872,0.00014955292863305658,0.4973902702331543,0.0018850320484489202,0.0005437654326669872,0.00014955292863305658
39025.224,0.04515586793422699,-0.6580918431282043,0.8384787440299988,-0.3891555964946747,1.0218782424926758,0.7201627492904663,-19.8238582611084,11.822670936584473,-9.39133071899414,38.964969635009766,72.65682220458984,33.70851135253906,1,0.4954327940940857,0.005283445119857788,0.0017588899936527014,0.00012092017277609557,0.4954327940940857,0.005283445119857788,0.0017588899936527014,0.00012092017277609557
39035.081,0.038925789296627045,-0.6476191282272339,0.8457289934158325,-0.4121299982070923,1.0648492574691772,0.7303587794303894,-19.463279724121094,11.0274076461792,-9.319230079650879,33.16351318359375,67.57950592041016,36.2652702331543,1,0.49345454573631287,0.003788936883211136,0.0026946314610540867,6.631678843405098e-05,0.49345454573631287,0.003788936883211136,0.0026946314610540867,6.631678843405098e-05
39044.95,0.033608775585889816,-0.6367404460906982,0.853064775466919,-0.4302879571914673,1.1072055101394653,0.7412155866622925,-19.152481079101562,10.263923645019531,-9.200567245483398,46.63726043701172,71.70689392089844,37.428226470947266,1,0.49129629135131836,-0.00046069241943769157,0.0007362044998444617,-4.673529019783018e-06,0.49129629135131836,-0.00046069241943769157,0.0007362044998444617,-4.673529019783018e-06
39054.8,0.026992395520210266,-0.6254950165748596,0.8604836463928223,-0.4510096311569214,1.1488438844680786,0.7535593509674072,-18.680166244506836,9.446267127990723,-9.077723503112793,73.98155975341797,84.71038055419922,39.53788375854492,1,0.48875096440315247,-0.004228820558637381,-0.00149902468547225,-2.9934250051155686e-05,0.48875096440315247,-0.004228820558637381,-0.00149902468547225,-2.9934250051155686e-05
39064.66,0.021305721253156662,-0.6138474345207214,0.868042528629303,-0.46688181161880493,1.1890738010406494,0.7666247487068176,-17.933252334594727,8.49099063873291,-8.974919319152832,94.33563232421875,101.61708068847656,40.277496337890625,1,0.4860072433948517,-0.003582625649869442,-0.00296740117482841,-1.4553014807461295e-05,0.4860072433948517,-0.003582625649869442,-0.00296740117482841,-1.4553014807461295e-05
39074.53,0.014373715035617352,-0.6019092202186584,0.8756757974624634,-0.4846300184726715,1.2270959615707397,0.7796875834465027,-16.999143600463867,7.3791961669921875,-8.894102096557617,96.40351104736328,111.27418518066406,39.91810989379883,1,0.48324474692344666,1.6775915355538018e-05,-0.001911002560518682,1.1950036423513666e-05,0.48324474692344666,1.6775915355538018e-05,-0.001911002560518682,1.1950036423513666e-05
39084.391,0.007364596705883741,-0.5898215174674988,0.8831847906112671,-0.5007009506225586,1.2626762390136719,0.7905014753341675,-16.109636306762695,6.216032981872559,-8.817464828491211,80.91936492919922,108.47069549560547,40.51994705200195,1,0.48102378845214844,0.004176396410912275,0.0006744239944964647,9.702010174805764e-06,0.48102378845214844,0.004176396410912275,0.0006744239944964647,9.702010174805764e-06
39094.243,0.001218919176608324,-0.5769786834716797,0.89128577709198,-0.5108597278594971,1.2962312698364258,0.8042603135108948,-15.330440521240234,5.046432018280029,-8.705412864685059,67.3250961303711,101.32002258300781,41.64400100708008,1,0.47805213928222656,0.004365124739706516,0.001751308678649366,-4.685360909206793e-05,0.47805213928222656,0.004365124739706516,0.001751308678649366,-4.685360909206793e-05
39104.103,-0.005993966478854418,-0.5643733143806458,0.898997962474823,-0.5231106877326965,1.32685124874115,0.8151381015777588,-14.705570220947266,3.983410120010376,-8.54036808013916,71.36128997802734,95.424560546875,43.191314697265625,1,0.4757786989212036,0.0006908773211762309,0.0016948513220995665,-0.00013062218204140663,0.4757786989212036,0.0006908773211762309,0.0016948513220995665,-0.00013062218204140663
39113.965,-0.012339437380433083,-0.5509498119354248,0.9073390364646912,-0.5298007726669312,1.3570375442504883,0.8302127122879028,-13.96746826171875,2.9187495708465576,-8.343363761901855,92.58626556396484,101.81717681884766,43.87694549560547,1,0.4724422097206116,-0.003575205337256193,-0.0011285028886049986,-0.00018356912187300622,0.4724422097206116,-0.003575205337256193,-0.0011285028886049986,-0.00018356912187300622
39123.83,-0.019672881811857224,-0.5378583073616028,0.9152606725692749,-0.5385255217552185,1.3847471475601196,0.8427035808563232,-13.05645751953125,1.8156895637512207,-8.136134147644043,115.3742904663086,114.15837097167969,44.585357666015625,1,0.4697277843952179,-0.004710160195827484,-0.002906427253037691,-0.0002100721758324653,0.4697277843952179,-0.004710160195827484,-0.002906427253037691,-0.0002100721758324653
39133.679,-0.026124877855181694,-0.5239511132240295,0.9238883852958679,-0.5416136384010315,1.4108541011810303,0.8596205711364746,-11.885239601135254,0.5601067543029785,-7.935500144958496,122.2516860961914,123.2592544555664,43.233795166015625,1,0.46589067578315735,-0.001736791105940938,-0.002786253346130252,-0.00020072511688340455,0.46589067578315735,-0.001736791105940938,-0.002786253346130252,-0.00020072511688340455
39143.549,-0.0325491689145565,-0.5100035071372986,0.9324238300323486,-0.5428903102874756,1.4340598583221436,0.873996376991272,-10.6998872756958,-0.7379162311553955,-7.738734722137451,109.42365264892578,119.8586654663086,41.528839111328125,1,0.46266230940818787,0.002780607668682933,-0.0003208393172826618,-0.000192147126654163,0.46266230940818787,0.002780607668682933,-0.0003208393172826618,-0.000192147126654163
39153.407,-0.03997604176402092,-0.4961824417114258,0.9409419298171997,-0.5453341007232666,1.4537047147750854,0.8864766955375671,-9.668815612792969,-1.9849647283554077,-7.504988193511963,91.6644058227539,107.56040954589844,40.60083770751953,1,0.4598853886127472,0.0045365942642092705,0.0018024429446086287,-0.0002414262417005375,0.4598853886127472,0.0045365942642092705,0.0018024429446086287,-0.0002414262417005375
39163.269,-0.04729994386434555,-0.4824642241001129,0.9493219256401062,-0.5457913279533386,1.4704786539077759,0.8966151475906372,-8.818901062011719,-3.0883865356445312,-7.23875617980957,87.28616333007812,96.22520446777344,40.05476760864258,1,0.4576740562915802,0.002092311391606927,0.00191568024456501,-0.0002892263582907617,0.4576740562915802,0.002092311391606927,0.00191568024456501,-0.0002892263582907617
39173.119,-0.05372874066233635,-0.4678555130958557,0.9584524631500244,-0.5406773686408997,1.4865235090255737,0.9115419387817383,-7.919027805328369,-4.127464771270752,-6.963047504425049,101.97164154052734,96.34294891357422,37.44960021972656,1,0.4542531967163086,-0.0022668454330414534,-0.0005797368939965963,-0.00029425485990941525,0.4542531967163086,-0.0022668454330414534,-0.0005797368939965963,-0.00029425485990941525
39182.985,-0.06004664674401283,-0.4533407390117645,0.9674794673919678,-0.5339487195014954,1.5003178119659424,0.9257986545562744,-6.864062309265137,-5.148303031921387,-6.696269989013672,125.52220153808594,103.63858032226562,36.179725646972656,1,0.45097729563713074,-0.0049816397950053215,-0.0025152580346912146,-0.0002854993799701333,0.45097729563713074,-0.0049816397950053215,-0.0025152580346912146,-0.0002854993799701333
39192.84,-0.06721705943346024,-0.43920058012008667,0.9764825701713562,-0.528616726398468,1.5106672048568726,0.9391845464706421,-5.5957417488098145,-6.250029563903809,-6.410772800445557,139.06863403320312,109.52960205078125,34.48539733886719,1,0.44789737462997437,-0.003567785257473588,-0.0026728548109531403,-0.000308867049170658,0.44789737462997437,-0.003567785257473588,-0.0026728548109531403,-0.000308867049170658
39202.709,-0.07336276024580002,-0.4245568513870239,0.98577880859375,-0.518426775932312,1.5192058086395264,0.9526511430740356,-4.196462154388428,-7.377199649810791,-6.1420207023620605,132.92848205566406,106.5116195678711,32.06074523925781,1,0.4447774291038513,0.0005602187593467534,-0.0010084905661642551,-0.0002823048271238804,0.4447774291038513,0.0005602187593467534,-0.0010084905661642551,-0.0002823048271238804
39212.561,-0.080283522605896,-0.410417377948761,0.995016872882843,-0.5094465613365173,1.5233585834503174,0.9632049798965454,-2.911329746246338,-8.460786819458008,-5.843799591064453,112.90071868896484,94.07609558105469,29.51058578491211,1,0.44236400723457336,0.004078160040080547,0.0011586672626435757,-0.00031354057136923075,0.44236400723457336,0.004078160040080547,0.0011586672626435757,-0.00031354057136923075
39222.428,-0.08700097352266312,-0.39656099677085876,1.0040936470031738,-0.4990367591381073,1.5241676568984985,0.9704129695892334,-1.8357124328613281,-9.389777183532715,-5.539308071136475,99.76622009277344,80.29049682617188,27.629873275756836,1,0.4407695531845093,0.0031588722486048937,0.0017764725489541888,-0.0003209353890269995,0.4407695531845093,0.0031588722486048937,0.0017764725489541888,-0.0003209353890269995
39232.28,-0.09280578047037125,-0.38172483444213867,1.0139473676681519,-0.48353078961372375,1.5246726274490356,0.9820340275764465,-0.7955177426338196,-10.210611343383789,-5.249694347381592,103.5536880493164,75.19512176513672,25.406692504882812,1,0.43806350231170654,-0.0004440777993295342,3.5487510103848763e-06,-0.00029898755019530654,0.43806350231170654,-0.0004440777993295342,3.5487510103848763e-06,-0.00029898755019530654
39242.152,-0.09918694198131561,-0.3680254817008972,1.0232175588607788,-0.4698004424571991,1.520850658416748,0.9900117516517639,0.24463911354541779,-10.966448783874512,-4.950900554656982,122.57907104492188,78.24768829345703,24.118804931640625,1,0.4362489879131317,-0.004366254433989525,-0.0019626205321401358,-0.0003140138287562877,0.4362489879131317,-0.004366254433989525,-0.0019626205321401358,-0.0003140138287562877
39251.998,-0.1046486496925354,-0.3533295691013336,1.0332810878753662,-0.4514341354370117,1.5169230699539185,1.0021350383758545,1.55046546459198,-11.782843589782715,-4.660669803619385,139.5648193359375,85.20899963378906,22.393571853637695,1,0.43338850140571594,-0.004776135087013245,-0.00328791793435812,-0.00030354276532307267,0.43338850140571594,-0.004776135087013245,-0.00328791793435812,-0.00030354276532307267
39261.858,-0.10987730324268341,-0.33892327547073364,1.0431747436523438,-0.4321911036968231,1.5105016231536865,1.011139154434204,2.9806251525878906,-12.628893852233887,-4.370823383331299,139.5557098388672,82.16423034667969,20.280973434448242,1,0.4312880337238312,-0.0015346736181527376,-0.001423210371285677,-0.00030040735146030784,0.4312880337238312,-0.0015346736181527376,-0.001423210371285677,-0.00030040735146030784
39271.717,-0.11568966507911682,-0.32543155550956726,1.0529828071594238,-0.41450729966163635,1.498980164527893,1.0172107219696045,4.3562188148498535,-13.431257247924805,-4.056029319763184,122.49974060058594,69.56370544433594,19.479331970214844,1,0.4299056828022003,0.0023779859766364098,0.0007570131565444171,-0.000339156249538064,0.4299056828022003,0.0023779859766364098,0.0007570131565444171,-0.000339156249538064
39281.588,-0.12121666967868805,-0.3123728930950165,1.062603235244751,-0.39586707949638367,1.4842525720596313,1.019752860069275,5.52913236618042,-14.080163955688477,-3.742624044418335,101.79222106933594,54.24340057373047,17.684608459472656,1,0.42790934443473816,0.0037176392506808043,0.0016953351441770792,-0.0003380913694854826,0.42790934443473816,0.0037176392506808043,0.0016953351441770792,-0.0003380913694854826
39291.437,-0.12584491074085236,-0.298245906829834,1.0729376077651978,-0.37314286828041077,1.4701151847839355,1.025928258895874,6.576730728149414,-14.598618507385254,-3.4715261459350586,94.58928680419922,45.24755096435547,15.722622871398926,1,0.4218562841415405,0.0010328477947041392,0.0005552182556129992,-0.0002831922029145062,0.4218562841415405,0.0010328477947041392,0.0005552182556129992,-0.0002831922029145062
39301.3,-0.13090181350708008,-0.28564590215682983,1.0826703310012817,-0.352383553981781,1.450596809387207,1.0283328294754028,7.537837505340576,-15.036170959472656,-3.2045881748199463,104.66853332519531,45.97035598754883,13.490630149841309,1,0.41699516773223877,-0.0030922528821974993,-0.00162903789896518,-0.0002735493762884289,0.41699516773223877,-0.0030922528821974993,-0.00162903789896518,-0.0002735493762884289
39311.162,-0.13505540788173676,-0.2719498574733734,1.0931005477905273,-0.32781338691711426,1.4324666261672974,1.0347708463668823,8.686028480529785,-15.501306533813477,-2.9573612213134766,122.836181640625,49.26118850708008,13.860157012939453,1,0.4107375144958496,-0.005285541992634535,-0.0025150966830551624,-0.00026225007604807615,0.4107375144958496,-0.005285541992634535,-0.0025150966830551624,-0.00026225007604807615
39321.03,-0.13892538845539093,-0.2586883008480072,1.1033214330673218,-0.3029317557811737,1.4122388362884521,1.0380604267120361,9.973358154296875,-15.979890823364258,-2.702514410018921,127.2354736328125,48.759273529052734,12.261617660522461,1,0.40531930327415466,-0.0034601932857185602,-0.0019774609245359898,-0.0002713013382162899,0.40531930327415466,-0.0034601932857185602,-0.0019774609245359898,-0.0002713013382162899
39330.885,-0.14323674142360687,-0.2467145174741745,1.1134439706802368,-0.2801058888435364,1.386586308479309,1.0386896133422852,11.252525329589844,-16.433408737182617,-2.4285101890563965,113.59403228759766,37.53963851928711,10.922001838684082,1,0.40056878328323364,0.00041036464972421527,0.00040859030559659004,-0.00029727196670137346,0.40056878328323364,0.00041036464972421527,0.00040859030559659004,-0.00029727196670137346
39340.746,-0.14659927785396576,-0.2340022176504135,1.1236937046051025,-0.254473477602005,1.3621279001235962,1.0381739139556885,12.358116149902344,-16.755250930786133,-2.2120275497436523,89.2597885131836,23.478403091430664,9.483943939208984,1,0.3959994316101074,0.0032753359992057085,0.0013319108402356505,-0.00022486182569991797,0.3959994316101074,0.0032753359992057085,0.0013319108402356505,-0.00022486182569991797
39350.596,-0.15038205683231354,-0.22269101440906525,1.1338212490081787,-0.23109883069992065,1.3322534561157227,1.035560965538025,13.219675064086914,-16.94280433654785,-2.004350185394287,70.84235382080078,10.67905044555664,8.6469144821167,1,0.39197465777397156,0.0026136550586670637,0.001428210991434753,-0.00021687541448045522,0.39197465777397156,0.0026136550586670637,0.001428210991434753,-0.00021687541448045522
39360.467,-0.15385866165161133,-0.21192306280136108,1.143707275390625,-0.20739363133907318,1.30056631565094,1.0312095880508423,13.90629768371582,-17.03586196899414,-1.8290722370147705,69.22894287109375,8.355480194091797,7.722269535064697,1,0.3884681463241577,-0.000878961116541177,-0.0007360432064160705,-0.00017753493739292026,0.3884681463241577,-0.000878961116541177,-0.0007360432064160705,-0.00017753493739292026
39370.326,-0.15646252036094666,-0.20001333951950073,1.1541626453399658,-0.18104253709316254,1.2714474201202393,1.0299627780914307,14.6519775390625,-17.112812042236328,-1.6968300342559814,80.70271301269531,12.035088539123535,7.143763542175293,1,0.38386985659599304,-0.004167201463133097,-0.0022597480565309525,-0.00012565286306198686,0.38386985659599304,-0.004167201463133097,-0.0022597480565309525,-0.00012565286306198686
39380.178,-0.15940694510936737,-0.18996818363666534,1.1640281677246094,-0.157276913523674,1.2373369932174683,1.0246814489364624,15.468002319335938,-17.22816276550293,-1.5250439643859863,90.14140319824219,14.298141479492188,8.102022171020508,1,0.38053321838378906,-0.004343671258538961,-0.0022260346449911594,-0.00018889340572059155,0.38053321838378906,-0.004343671258538961,-0.0022260346449911594,-0.00018889340572059155
39390.042,-0.16146838665008545,-0.17879457771778107,1.1744345426559448,-0.13089939951896667,1.2055329084396362,1.0214751958847046,16.412878036499023,-17.343040466308594,-1.3739063739776611,83.49158477783203,10.991382598876953,7.732063293457031,1,0.3763771951198578,-0.0010689806658774614,-0.001153989345766604,-0.00016706388851162046,0.3763771951198578,-0.0010689806658774614,-0.001153989345766604,-0.00016706388851162046
39399.905,-0.1632649302482605,-0.16814708709716797,1.1845487356185913,-0.10514102876186371,1.1726391315460205,1.0146058797836304,17.224973678588867,-17.390981674194336,-1.2480928897857666,63.6816520690918,-4.86832332611084,7.934755802154541,1,0.3732442557811737,0.002180223586037755,0.0018529320368543267,-0.00014245390775613487,0.3732442557811737,0.002180223586037755,0.0018529320368543267,-0.00014245390775613487
39409.759,-0.1654197722673416,-0.15911971032619476,1.1945191621780396,-0.08198218792676926,1.1351183652877808,1.0057029724121094,17.78945541381836,-17.29195213317871,-1.1444053649902344,40.79903793334961,-18.718509674072266,7.565552234649658,1,0.37066036462783813,0.00358246429823339,0.0019010015530511737,-0.00011677906877594069,0.37066036462783813,0.00358246429823339,0.0019010015530511737,-0.00011677906877594069
39419.616,-0.16670852899551392,-0.1492464691400528,1.2044858932495117,-0.05695701017975807,1.1004048585891724,0.9962595105171204,18.172365188598633,-17.07180404663086,-1.1147549152374268,31.847761154174805,-27.330141067504883,7.111922264099121,1,0.3681865930557251,0.000981552293524146,0.0011023711413145065,-2.2835218260297552e-05,0.3681865930557251,0.000981552293524146,0.0011023711413145065,-2.2835218260297552e-05
39429.478,-0.1683531552553177,-0.14104245603084564,1.2143075466156006,-0.03425972908735275,1.0611481666564941,0.987210750579834,18.46841049194336,-16.8044376373291,-1.078247308731079,38.28975296020508,-24.96231460571289,8.007608413696289,1,0.36566105484962463,-0.002591072116047144,-0.001268678461201489,-3.9281309000216424e-05,0.36566105484962463,-0.002591072116047144,-0.001268678461201489,-3.9281309000216424e-05
39439.349,-0.16915881633758545,-0.13194766640663147,1.2241086959838867,-0.009858391247689724,1.0251777172088623,0.9784560799598694,18.87854766845703,-16.557958602905273,-1.0459877252578735,49.78594207763672,-15.135417938232422,9.224103927612305,1,0.3630465567111969,-0.004282697569578886,-0.0032572695054113865,-4.401399928610772e-05,0.3630465567111969,-0.004282697569578886,-0.0032572695054113865,-4.401399928610772e-05
39449.198,-0.17029376327991486,-0.1246269941329956,1.2338060140609741,0.012081452645361423,0.9843246936798096,0.9686567187309265,19.4017391204834,-16.39632225036621,-0.953589141368866,52.80518341064453,-15.89197063446045,10.678634643554688,1,0.3607182502746582,-0.0029827251564711332,-0.0011886702850461006,-0.00013298852718435228,0.3607182502746582,-0.0029827251564711332,-0.0011886702850461006,-0.00013298852718435228
39459.056,-0.17062394320964813,-0.11636300384998322,1.2434303760528564,0.03528279438614845,0.947384238243103,0.9574431777000427,19.917903900146484,-16.205486297607422,-0.8849619030952454,39.3948860168457,-24.536882400512695,11.188807487487793,1,0.35875481367111206,0.0006199022755026817,0.000647808366920799,-0.00011003499093931168,0.35875481367111206,0.0006199022755026817,0.000647808366920799,-0.00011003499093931168
39468.915,-0.17131146788597107,-0.10987024009227753,1.2529122829437256,0.055810753256082535,0.9060383439064026,0.9449644684791565,20.245132446289062,-15.911523818969727,-0.8304226994514465,17.66683578491211,-38.634788513183594,10.527499198913574,1,0.3571561574935913,0.002921267179772258,0.002261360874399543,-9.015770046971738e-05,0.3571561574935913,0.002921267179772258,0.002261360874399543,-9.015770046971738e-05
39478.795,-0.1712093949317932,-0.10240907967090607,1.2622897624969482,0.07767770439386368,0.8686448335647583,0.9317856431007385,20.349544525146484,-15.488155364990234,-0.8599153161048889,-0.49310892820358276,-48.926090240478516,10.505986213684082,1,0.3557647466659546,0.002771252067759633,0.0018759988015517592,1.5617870303685777e-05,0.3557647466659546,0.002771252067759633,0.0018759988015517592,1.5617870303685777e-05
39488.646,-0.17147785425186157,-0.09720852971076965,1.2709795236587524,0.09768658131361008,0.824780285358429,0.9171381592750549,20.294403076171875,-15.022316932678223,-0.8943395018577576,-4.6597185134887695,-49.23766326904297,11.034781455993652,1,0.35506537556648254,-7.33946289983578e-05,-0.00013098117779009044,1.9463177522993647e-05,0.35506537556648254,-7.33946289983578e-05,-0.00013098117779009044,1.9463177522993647e-05
39498.496,-0.17095214128494263,-0.09056414663791656,1.2801339626312256,0.11845889687538147,0.7870239019393921,0.9052093029022217,20.24669075012207,-14.538169860839844,-0.940168023109436,3.882873058319092,-41.94890213012695,12.601004600524902,1,0.3534422814846039,-0.0031211262103170156,-0.0019747186452150345,2.4491659132763743e-05,0.3534422814846039,-0.0031211262103170156,-0.0019747186452150345,2.4491659132763743e-05
39508.356,-0.17078369855880737,-0.08578599989414215,1.2892292737960815,0.13674889504909515,0.7443116307258606,0.8937344551086426,20.322385787963867,-14.121428489685059,-0.9284389019012451,13.024638175964355,-35.41948318481445,14.696292877197266,1,0.3517162799835205,-0.003835231764242053,-0.002105054445564747,-6.235315959202126e-05,0.3517162799835205,-0.003835231764242053,-0.002105054445564747,-6.235315959202126e-05
39518.227,-0.16987963020801544,-0.07996811717748642,1.298147439956665,0.15582337975502014,0.7070083022117615,0.8805548548698425,20.45380210876465,-13.743379592895508,-0.8993858098983765,9.521936416625977,-36.4836311340332,14.753731727600098,1,0.35048428177833557,-0.0013370726956054568,-0.0005744138034060597,-8.554333180654794e-05,0.35048428177833557,-0.0013370726956054568,-0.0005744138034060597,-8.554333180654794e-05
39528.075,-0.16936330497264862,-0.07598399370908737,1.3069723844528198,0.17233039438724518,0.6652818918228149,0.8670465350151062,20.505678176879883,-13.330270767211914,-0.8724403977394104,-7.366539001464844,-46.66203689575195,15.014617919921875,1,0.34936442971229553,0.0018216384341940284,0.0016600089147686958,-8.59574502101168e-05,0.34936442971229553,0.0018216384341940284,0.0016600089147686958,-8.59574502101168e-05
39537.935,-0.16811250150203705,-0.07097289711236954,1.3156145811080933,0.1899079531431198,0.6282408833503723,0.8525043725967407,20.374059677124023,-12.81032657623291,-0.8996691703796387,-27.601491928100586,-59.36836242675781,14.916095733642578,1,0.3485780656337738,0.003178067971020937,0.0026846302207559347,-1.674188388278708e-05,0.3485780656337738,0.003178067971020937,0.0026846302207559347,-1.674188388278708e-05
39547.795,-0.16726945340633392,-0.06781508028507233,1.324155330657959,0.20496803522109985,0.5865894556045532,0.8385753631591797,20.047849655151367,-12.186956405639648,-0.9601484537124634,-39.26595687866211,-64.25863647460938,14.303308486938477,1,0.34767603874206543,0.0017834088066592813,0.0013549777213484049,3.1413215765496716e-05,0.34767603874206543,0.0017834088066592813,0.0013549777213484049,3.1413215765496716e-05
39557.664,-0.16571329534053802,-0.06357903778553009,1.3325096368789673,0.22081220149993896,0.5504536628723145,0.8244588375091553,19.632427215576172,-11.539656639099121,-1.0354934930801392,-37.095523834228516,-60.33124923706055,15.495826721191406,1,0.34689998626708984,-0.0011631838278844953,-0.0005389262223616242,4.466473910724744e-05,0.34689998626708984,-0.0011631838278844953,-0.0005389262223616242,4.466473910724744e-05
39567.518,-0.16459332406520844,-0.06118779256939888,1.3407706022262573,0.2341536283493042,0.509727954864502,0.8119087219238281,19.27581024169922,-10.940335273742676,-1.071632981300354,-28.478656768798828,-50.99058532714844,17.45487403869629,1,0.3457668125629425,-0.00294610857963562,-0.001960362307727337,-1.632777275517583e-05,0.3457668125629425,-0.00294610857963562,-0.001960362307727337,-1.632777275517583e-05
39577.379,-0.16338732838630676,-0.05922885239124298,1.348732829093933,0.24663178622722626,0.46948644518852234,0.798608124256134,19.015010833740234,-10.430628776550293,-1.0624873638153076,-22.3447322845459,-44.768165588378906,19.312026977539062,1,0.34495532512664795,-0.0028554543387144804,-0.0015561273321509361,-8.619407890364528e-05,0.34495532512664795,-0.0028554543387144804,-0.0015561273321509361,-8.619407890364528e-05
39587.237,-0.16140730679035187,-0.05603113770484924,1.356839895248413,0.259857714176178,0.43569329380989075,0.7853161096572876,18.777517318725586,-9.941025733947754,-1.0226361751556396,-29.174331665039062,-46.07343292236328,19.04167366027832,1,0.34405648708343506,-7.936298061395064e-05,2.1937734345556237e-05,-0.0001241147256223485,0.34405648708343506,-7.936298061395064e-05,2.1937734345556237e-05,-0.0001241147256223485
39597.104,-0.15998828411102295,-0.05478832498192787,1.364518404006958,0.2705475091934204,0.3967258334159851,0.7706596851348877,18.461339950561523,-9.434840202331543,-0.9966320991516113,-47.021121978759766,-55.737754821777344,18.685928344726562,1,0.3436989188194275,0.0027138267178088427,0.0021324767731130123,-0.00010553892934694886,0.3436989188194275,0.0027138267178088427,0.0021324767731130123,-0.00010553892934694886
39606.958,-0.1577988713979721,-0.052305907011032104,1.3723256587982178,0.28213223814964294,0.3641027510166168,0.7570216059684753,17.94146728515625,-8.817948341369629,-1.0014088153839111,-62.59587478637695,-63.74831008911133,18.562959671020508,1,0.34301334619522095,0.002841097768396139,0.00217280350625515,-6.619847408728674e-05,0.34301334619522095,0.002841097768396139,0.00217280350625515,-6.619847408728674e-05
39616.816,-0.15554869174957275,-0.050243549048900604,1.3798398971557617,0.29286515712738037,0.331785649061203,0.7431350350379944,17.28925323486328,-8.149596214294434,-1.0212323665618896,-67.4249496459961,-65.30458068847656,18.123676300048828,1,0.34252461791038513,0.0008557329420000315,0.0010026834206655622,-4.354072370915674e-05,0.34252461791038513,0.0008557329420000315,0.0010026834206655622,-4.354072370915674e-05
39626.682,-0.15384936332702637,-0.049903977662324905,1.3872275352478027,0.3008054196834564,0.2958105504512787,0.7305231690406799,16.617395401000977,-7.484235763549805,-1.0484766960144043,-61.23827362060547,-58.67848587036133,18.849342346191406,1,0.34177103638648987,-0.0016680742846801877,-0.0008242780459113419,-3.833477239822969e-05,0.34177103638648987,-0.0016680742846801877,-0.0008242780459113419,-3.833477239822969e-05
39636.546,-0.15144476294517517,-0.04847656935453415,1.394473910331726,0.3096853792667389,0.26557013392448425,0.7178400158882141,16.02930450439453,-6.890449047088623,-1.031858205795288,-51.00387191772461,-49.26364517211914,20.231319427490234,1,0.3410942554473877,-0.0029243321623653173,-0.0017092075431719422,-0.0001033500739140436,0.3410942554473877,-0.0029243321623653173,-0.0017092075431719422,-0.0001033500739140436
39646.395,-0.1496327966451645,-0.048737380653619766,1.4015891551971436,0.31576278805732727,0.2316478043794632,0.705691933631897,15.536466598510742,-6.3799614906311035,-0.9802677631378174,-49.67109298706055,-43.96343231201172,20.301488876342773,1,0.34033870697021484,-0.0012773891212418675,-0.0010339770233258605,-0.00014955292863305658,0.34033870697021484,-0.0012773891212418675,-0.0010339770233258605,-0.00014955292863305658
39656.267,-0.14782699942588806,-0.04932026565074921,1.4084185361862183,0.3210197389125824,0.1982877552509308,0.692363977432251,15.05061149597168,-5.9168925285339355,-0.9156713485717773,-58.878684997558594,-46.12837219238281,20.27723503112793,1,0.3400091528892517,0.0011231796815991402,0.0006121595506556332,-0.0001683062146184966,0.3400091528892517,0.0011231796815991402,0.0006121595506556332,-0.0001683062146184966
39666.115,-0.14521953463554382,-0.04873691871762276,1.4153972864151,0.3275110721588135,0.17125794291496277,0.6796662211418152,14.418111801147461,-5.389691352844238,-0.8521198630332947,-72.74575805664062,-53.63373565673828,19.66764259338379,1,0.33943939208984375,0.002616397337988019,0.0020463387481868267,-0.00016540742944926023,0.33943939208984375,0.002616397337988019,0.0020463387481868267,-0.00016540742944926023
39675.986,-0.1459055244922638,-0.05003131553530693,1.4153717756271362,0.32544589042663574,0.16692842543125153,0.6799389719963074,14.418163299560547,-5.391692161560059,-0.861362099647522,-83.53184509277344,-58.96921157836914,19.047502517700195,1,0.3391273617744446,0.002386373933404684,0.0018455118406563997,-7.016209565335885e-05,0.3391273617744446,0.002386373933404684,0.0018455118406563997,-7.016209565335885e-05
39685.834,-0.14035148918628693,-0.049627628177404404,1.42929208278656,0.33673587441444397,0.11353635787963867,0.6530181765556335,12.725737571716309,-4.127401351928711,-0.7787647247314453,-83.10537719726562,-57.195037841796875,18.014759063720703,1,0.33862408995628357,0.00020002051314804703,0.0005084392032586038,-0.00018049287609755993,0.33862408995628357,0.00020002051314804703,0.0005084392032586038,-0.00018049287609755993
39695.693,-0.14107997715473175,-0.050889670848846436,1.4292162656784058,0.33455270528793335,0.10930543392896652,0.6530491709709167,12.726113319396973,-4.131669044494629,-0.7949427366256714,-74.34890747070312,-50.11199951171875,18.97221565246582,1,0.3383796215057373,-0.0018768053269013762,-0.0008257298613898456,-6.38912824797444e-05,0.3383796215057373,-0.0018768053269013762,-0.0008257298613898456,-6.38912824797444e-05
39705.552,-0.13873572647571564,-0.052172236144542694,1.4364948272705078,0.3367004096508026,0.08071821182966232,0.641248881816864,11.81397819519043,-3.47932767868042,-0.7541384696960449,-65.32984161376953,-42.59565353393555,18.884138107299805,1,0.33740901947021484,-0.0022652321495115757,-0.0011015646159648895,-0.0001358281442662701,0.33740901947021484,-0.0022652321495115757,-0.0011015646159648895,-0.0001358281442662701
39715.425,-0.1361253559589386,-0.05268924683332443,1.4427030086517334,0.33949515223503113,0.058361928910017014,0.6287426948547363,11.134693145751953,-2.999506950378418,-0.6775982975959778,-65.4158706665039,-37.87771987915039,19.157697677612305,1,0.3371371328830719,-0.0004071385192219168,-0.0006611968274228275,-0.00018552137771621346,0.3371371328830719,-0.0004071385192219168,-0.0006611968274228275,-0.00018552137771621346
39725.281,-0.13414864242076874,-0.05453037843108177,1.4490010738372803,0.33927977085113525,0.03395070880651474,0.6173975467681885,10.477129936218262,-2.56246280670166,-0.5956560969352722,-74.57866668701172,-40.4950065612793,18.757638931274414,1,0.33652350306510925,0.001778085483238101,0.0010060709901154041,-0.00019291620992589742,0.33652350306510925,0.001778085483238101,0.0010060709901154041,-0.00019291620992589742
39735.134,-0.1315527707338333,-0.05547241121530533,1.4549460411071777,0.34057870507240295,0.013643210753798485,0.6042975783348083,9.801334381103516,-2.1577563285827637,-0.49610814452171326,-85.30632019042969,-44.81802749633789,17.664247512817383,1,0.33651483058929443,0.002553971717134118,0.001584678771905601,-0.00021131450193934143,0.33651483058929443,0.002553971717134118,0.001584678771905601,-0.00021131450193934143
39744.992,-0.12930959463119507,-0.05767179653048515,1.4615015983581543,0.3391951024532318,-0.009824436157941818,0.590831995010376,8.886491775512695,-1.6433974504470825,-0.4138713479042053,-90.97561645507812,-46.42962646484375,17.012868881225586,1,0.336286723613739,0.001814863528124988,0.0012110918760299683,-0.00018871591601055115,0.336286723613739,0.001814863528124988,0.0012110918760299683,-0.00018871591601055115
39754.864,-0.12676580250263214,-0.05899170786142349,1.4671294689178467,0.3391202390193939,-0.027680514380335808,0.578037440776825,8.014460563659668,-1.1725515127182007,-0.3334820568561554,-86.60336303710938,-44.415283203125,16.440553665161133,1,0.3363478183746338,-0.0002998694544658065,0.0004855336737819016,-0.00018581714539323002,0.3363478183746338,-0.0002998694544658065,0.0004855336737819016,-0.00018581714539323002
39764.713,-0.12496841698884964,-0.061514176428318024,1.4727730751037598,0.3356377184391022,-0.04718690738081932,0.567208468914032,7.119157314300537,-0.6830442547798157,-0.26654714345932007,-76.18521118164062,-38.279537200927734,16.231021881103516,1,0.3359062969684601,-0.001873417990282178,-0.0004721451841760427,-0.0001705542381387204,0.3359062969684601,-0.001873417990282178,-0.0004721451841760427,-0.0001705542381387204
39774.575,-0.12250250577926636,-0.06314589828252792,1.478161334991455,0.3339114785194397,-0.06242063641548157,0.5553830862045288,6.343384265899658,-0.26844534277915955,-0.17476733028888702,-69.06639862060547,-31.611745834350586,15.555192947387695,1,0.33583348989486694,-0.0014228876680135727,-0.0007644332363270223,-0.00020054765627719462,0.33583348989486694,-0.0014228876680135727,-0.0007644332363270223,-0.00020054765627719462
39784.433,-0.12081138044595718,-0.06591347604990005,1.4835456609725952,0.3289538025856018,-0.07919950038194656,0.5440621972084045,5.6325297355651855,0.0928894504904747,-0.09281998127698898,-70.99040222167969,-26.925506591796875,14.951468467712402,1,0.3356318175792694,0.000511826656293124,-0.00045391751336865127,-0.00018759191152639687,0.3356318175792694,0.000511826656293124,-0.00045391751336865127,-0.00018759191152639687
39794.301,-0.11843888461589813,-0.06778375059366226,1.4886876344680786,0.32597559690475464,-0.0917319729924202,0.5316258072853088,4.957304954528809,0.3897554278373718,0.006062770262360573,-77.97117614746094,-28.23769187927246,14.217460632324219,1,0.33582380414009094,0.0018761601531878114,0.0008737992611713707,-0.00020770584524143487,0.33582380414009094,0.0018761601531878114,0.0008737992611713707,-0.00020770584524143487
39804.156,-0.11688023060560226,-0.07069899886846542,1.4938011169433594,0.31986522674560547,-0.1055057942867279,0.5195138454437256,4.185365200042725,0.6924580931663513,0.0976838618516922,-85.52999114990234,-31.422725677490234,14.008323669433594,1,0.33594605326652527,0.0023655651602894068,0.0014766030944883823,-0.0002011392207350582,0.33594605326652527,0.0023655651602894068,0.0014766030944883823,-0.0002011392207350582
39814.021,-0.11463157087564468,-0.07276515662670135,1.4986841678619385,0.3158530592918396,-0.1156788244843483,0.5060319900512695,3.3723621368408203,0.9972332715988159,0.19437900185585022,-86.59941101074219,-31.369443893432617,13.418299674987793,1,0.3365217447280884,0.0012107692891731858,0.00089847925119102,-0.00020746920199599117,0.3365217447280884,0.0012107692891731858,0.00089847925119102,-0.00020746920199599117
39823.871,-0.11323641985654831,-0.0758051648736,1.503512978553772,0.30847519636154175,-0.12688469886779785,0.4937528371810913,2.488184690475464,1.3355400562286377,0.27226686477661133,-80.88175201416016,-27.134593963623047,12.968360900878906,1,0.3368239402770996,-0.0002784156531561166,1.6130685764892405e-07,-0.00018427905160933733,0.3368239402770996,-0.0002784156531561166,1.6130685764892405e-07,-0.00018427905160933733
39833.755,-0.11112681031227112,-0.07800836116075516,1.5081379413604736,0.30337798595428467,-0.13428696990013123,0.4813774526119232,1.6724679470062256,1.624965786933899,0.3653944730758667,-71.07052612304688,-21.781713485717773,12.878379821777344,1,0.3372499346733093,-0.0013743345625698566,-0.0003595529997255653,-0.0002065818407572806,0.3372499346733093,-0.0013743345625698566,-0.0003595529997255653,-0.0002065818407572806
39843.596,-0.10990602523088455,-0.08111560344696045,1.5127032995224,0.2948286235332489,-0.1426045447587967,0.46994850039482117,0.9120234847068787,1.8768607378005981,0.4440740942955017,-65.15644073486328,-16.792177200317383,12.630753517150879,1,0.33746853470802307,-0.0007320105796679854,-0.00038407163810916245,-0.00019031320698559284,0.33746853470802307,-0.0007320105796679854,-0.00038407163810916245,-0.00019031320698559284
39853.454,-0.10795964300632477,-0.08340515941381454,1.5170899629592896,0.28873372077941895,-0.14737339317798615,0.4577835202217102,0.2583898603916168,2.0557634830474854,0.54085373878479,-65.7197265625,-14.791501998901367,12.11003589630127,1,0.3379577100276947,0.00069749093381688,0.00020050443708896637,-0.00021326674323063344,0.3379577100276947,0.00069749093381688,0.00020050443708896637,-0.00021326674323063344
39863.312,-0.10692603886127472,-0.08652066439390182,1.5213954448699951,0.27939996123313904,-0.1531073898077011,0.44556915760040283,-0.4110216200351715,2.2222654819488525,0.6188495755195618,-70.50213623046875,-15.341876983642578,11.638317108154297,1,0.3384992182254791,0.0018318007932975888,0.0008278268505819142,-0.0001899582421174273,0.3384992182254791,0.0018318007932975888,0.0008278268505819142,-0.0001899582421174273
39873.18,-0.1051543802022934,-0.08884750306606293,1.5255275964736938,0.272661417722702,-0.1556929498910904,0.4324425160884857,-1.0807194709777832,2.3725051879882812,0.7156677842140198,-74.1748046875,-16.386573791503906,11.33163070678711,1,0.33935490250587463,0.0018761601531878114,0.001032686559483409,-0.0002153964596800506,0.33935490250587463,0.0018761601531878114,0.001032686559483409,-0.0002153964596800506
39883.032,-0.10432494431734085,-0.09194624423980713,1.529553771018982,0.26262328028678894,-0.15940867364406586,0.4194033145904541,-1.8139938116073608,2.5427839756011963,0.7941904664039612,-72.34737396240234,-14.259082794189453,11.029022216796875,1,0.3402435779571533,0.0008136318065226078,0.000406493287300691,-0.00019392187823541462,0.3402435779571533,0.0008136318065226078,0.000406493287300691,-0.00019392187823541462
39892.891,-0.10273659974336624,-0.09426581859588623,1.5334330797195435,0.2552596628665924,-0.15961278975009918,0.40738609433174133,-2.534945487976074,2.6982948780059814,0.887125551700592,-65.42922973632812,-10.302833557128906,10.574130058288574,1,0.34095299243927,-0.00034439016599208117,-5.1456889195833355e-05,-0.00021261598158162087,0.34095299243927,-0.00034439016599208117,-5.1456889195833355e-05,-0.00021261598158162087
39902.752,-0.10210733860731125,-0.09725213795900345,1.537212610244751,0.24458271265029907,-0.1601763516664505,0.39597010612487793,-3.246201992034912,2.8156561851501465,0.9518153071403503,-56.56232833862305,-5.071349143981934,10.275735855102539,1,0.3415635824203491,-0.0009604211081750691,-0.000428108440246433,-0.00017824485257733613,0.3415635824203491,-0.0009604211081750691,-0.000428108440246433,-0.00017824485257733613
39912.619,-0.10071307420730591,-0.09950445592403412,1.5408649444580078,0.23664508759975433,-0.15775929391384125,0.3845987319946289,-3.8413050174713135,2.878363847732544,1.0353704690933228,-51.44890594482422,-1.6962560415267944,9.550880432128906,1,0.34222742915153503,-0.0002769638958852738,-0.00013743345334660262,-0.00020013352332171053,0.34222742915153503,-0.0002769638958852738,-0.00013743345334660262,-0.00020013352332171053
39922.475,-0.10029051452875137,-0.10238995403051376,1.5443978309631348,0.22562943398952484,-0.1564306914806366,0.372744619846344,-4.381197929382324,2.911602258682251,1.0970598459243774,-52.02978515625,-0.3218059539794922,9.428993225097656,1,0.3430725634098053,0.0010009091347455978,0.000285674468614161,-0.0001748136564856395,0.3430725634098053,0.0010009091347455978,0.000285674468614161,-0.0001748136564856395
39932.333,-0.09909261018037796,-0.10456150025129318,1.547812819480896,0.21750189363956451,-0.15241071581840515,0.3602752685546875,-4.881632328033447,2.9136545658111572,1.1700199842453003,-55.48137664794922,-1.4878281354904175,8.551939964294434,1,0.34413260221481323,0.0018414792139083147,0.0008862199611030519,-0.0001857579918578267,0.34413260221481323,0.0018414792139083147,0.0008862199611030519,-0.0001857579918578267
39942.199,-0.09888338297605515,-0.10728224366903305,1.5510951280593872,0.20627090334892273,-0.14915110170841217,0.3480817377567291,-5.4359540939331055,2.9285285472869873,1.2239841222763062,-56.997764587402344,-0.3415990471839905,8.31633186340332,1,0.34519389271736145,0.0016383937327191234,0.0004485943936742842,-0.00016286360914818943,0.34519389271736145,0.0016383937327191234,0.0004485943936742842,-0.00016286360914818943
39952.069,-0.09788420051336288,-0.10931180417537689,1.5542725324630737,0.1980411559343338,-0.14313165843486786,0.3358912467956543,-5.996817588806152,2.9392507076263428,1.288054347038269,-52.349037170410156,0.854843020439148,8.790979385375977,1,0.3463108241558075,0.0003600369382183999,0.00043633507448248565,-0.0001816168805817142,0.3463108241558075,0.0003600369382183999,0.00043633507448248565,-0.0001816168805817142
39961.911,-0.09788447618484497,-0.11182131618261337,1.5573104619979858,0.1867051124572754,-0.1376098394393921,0.3238874673843384,-6.5599870681762695,2.9400062561035156,1.3380178213119507,-44.44542694091797,4.486953258514404,8.748800277709961,1,0.34745529294013977,-0.00047085474943742156,-0.0001272711087949574,-0.00016593986947555095,0.34745529294013977,-0.00047085474943742156,-0.0001272711087949574,-0.00016593986947555095
39971.769,-0.09708114713430405,-0.11368618160486221,1.5602550506591797,0.1783764660358429,-0.12969042360782623,0.31227222084999084,-7.027507781982422,2.90718936920166,1.4026685953140259,-37.17481994628906,8.48607063293457,8.783576965332031,1,0.3485540747642517,-0.0004940829239785671,-0.0003250333247706294,-0.00018729611474554986,0.3485540747642517,-0.0004940829239785671,-0.0003250333247706294,-0.00018729611474554986
39981.639,-0.09727969765663147,-0.11597603559494019,1.5630534887313843,0.1670490801334381,-0.12242018431425095,0.30069372057914734,-7.42963171005249,2.838949203491211,1.4522442817687988,-32.81521987915039,11.251886367797852,8.360429763793945,1,0.349721223115921,3.5003591619897634e-05,-0.0001293681125389412,-0.00016771462105680257,0.349721223115921,3.5003591619897634e-05,-0.0001293681125389412,-0.00016771462105680257
39991.511,-0.09667026996612549,-0.1176411360502243,1.565772294998169,0.1588159203529358,-0.11299221217632294,0.2890903055667877,-7.759957790374756,2.732665777206421,1.5060316324234009,-32.724971771240234,12.371940612792969,8.299463272094727,1,0.3509393036365509,0.0010133297182619572,0.00017759886395651847,-0.00017487281002104282,0.3509393036365509,0.0010133297182619572,0.00017759886395651847,-0.00017487281002104282
40001.351,-0.09706231951713562,-0.1196756437420845,1.5683364868164062,0.14777126908302307,-0.10432400554418564,0.2774774730205536,-8.091279029846191,2.6135365962982178,1.5410282611846924,-34.803104400634766,11.67495346069336,8.096418380737305,1,0.3522424101829529,0.0016485560918226838,0.0006184505182318389,-0.00015168264508247375,0.3522424101829529,0.0016485560918226838,0.0006184505182318389,-0.00015168264508247375
40011.209,-0.09664031863212585,-0.12110868096351624,1.5708342790603638,0.13988979160785675,-0.09362959116697311,0.26572537422180176,-8.430505752563477,2.4947869777679443,1.5878957509994507,-33.839656829833984,10.663737297058105,8.587213516235352,1,0.35361936688423157,0.0011317289900034666,0.0007400758331641555,-0.00017197405395563692,0.35361936688423157,0.0011317289900034666,0.0007400758331641555,-0.00017197405395563692
40021.07,-0.09721893817186356,-0.1228654757142067,1.5731691122055054,0.12923815846443176,-0.0837312862277031,0.2538069188594818,-8.775211334228516,2.384317636489868,1.6305896043777466,-29.36387825012207,12.784565925598145,8.338425636291504,1,0.35512575507164,0.0003718123189173639,7.129763253033161e-05,-0.0001668864133534953,0.35512575507164,0.0003718123189173639,7.129763253033161e-05,-0.0001668864133534953
40030.939,-0.09697449952363968,-0.12405741214752197,1.575439453125,0.1216726303100586,-0.0718790739774704,0.24243639409542084,-9.080801963806152,2.262166976928711,1.6814212799072266,-21.604244232177734,16.060148239135742,8.506884574890137,1,0.35653501749038696,-0.0004663381550926715,-0.0002772865118458867,-0.00018043372256215662,0.35653501749038696,-0.0004663381550926715,-0.0002772865118458867,-0.00018043372256215662
40040.79,-0.09772838652133942,-0.12551213800907135,1.577549934387207,0.11133680492639542,-0.06047724187374115,0.23148280382156372,-9.329829216003418,2.109701633453369,1.7205127477645874,-15.357972145080566,17.95120620727539,8.321497917175293,1,0.35792702436447144,-0.00029551415354944766,-3.726188515429385e-05,-0.00016629480523988605,0.35792702436447144,-0.00029551415354944766,-3.726188515429385e-05,-0.00016629480523988605
40050.654,-0.09765610843896866,-0.12642601132392883,1.5796147584915161,0.10410011559724808,-0.04730051010847092,0.2211591899394989,-9.502636909484863,1.9345195293426514,1.7633469104766846,-11.301037788391113,19.65822410583496,7.931902885437012,1,0.35919150710105896,9.77519666776061e-05,-6.678103818558156e-05,-0.000170080951647833,0.35919150710105896,9.77519666776061e-05,-6.678103818558156e-05,-0.000170080951647833
40060.514,-0.09857609868049622,-0.12755197286605835,1.581527829170227,0.09426354616880417,-0.03472890332341194,0.2105552852153778,-9.642329216003418,1.7383179664611816,1.7908867597579956,-11.848381996154785,21.089021682739258,7.7197980880737305,1,0.36060789227485657,0.0011509244795888662,-4.4359388994053006e-05,-0.00015079525473993272,0.36060789227485657,0.0011509244795888662,-4.4359388994053006e-05,-0.00015079525473993272
40070.38,-0.09866207093000412,-0.12818238139152527,1.5833954811096191,0.08761609345674515,-0.020963970571756363,0.20032568275928497,-9.755596160888672,1.5328028202056885,1.8243399858474731,-12.713799476623535,21.173171997070312,7.607184410095215,1,0.3619607090950012,0.0013593329349532723,0.0002159898867830634,-0.000158840834046714,0.3619607090950012,0.0013593329349532723,0.0002159898867830634,-0.000158840834046714
40080.234,-0.09972599148750305,-0.1289949268102646,1.5851064920425415,0.07852552831172943,-0.007948404178023338,0.18967373669147491,-9.882254600524902,1.316003680229187,1.8496493101119995,-10.348199844360352,19.43521499633789,7.9434638023376465,1,0.36350393295288086,0.0007192672928795218,0.0006700687226839364,-0.00015227423864416778,0.36350393295288086,0.0007192672928795218,0.0006700687226839364,-0.00015227423864416778
40090.102,-0.09995725750923157,-0.12932804226875305,1.5867815017700195,0.0725671723484993,0.006454973015934229,0.17991362512111664,-10.002337455749512,1.1148061752319336,1.8846362829208374,-5.112298488616943,20.041282653808594,7.713832855224609,1,0.3648506700992584,4.790813909494318e-05,0.00016388777294196188,-0.0001642242568777874,0.3648506700992584,4.790813909494318e-05,0.00016388777294196188,-0.0001642242568777874
40099.949,-0.10116207599639893,-0.12981081008911133,1.5883088111877441,0.06411222368478775,0.020292235538363457,0.17053425312042236,-10.079526901245117,0.9136027693748474,1.9121203422546387,1.170861005783081,21.46034812927246,7.906561851501465,1,0.3661830723285675,-0.0003132579440716654,-3.9520182326668873e-05,-0.00015748018631711602,0.3661830723285675,-0.0003132579440716654,-3.9520182326668873e-05,-0.00015748018631711602
40109.822,-0.10152372717857361,-0.12984827160835266,1.5898066759109497,0.05879778042435646,0.03512517735362053,0.16158516705036163,-10.08707332611084,0.7062222361564636,1.9492309093475342,5.496638774871826,23.782289505004883,8.1359281539917,1,0.36742979288101196,3.5487510103848763e-06,-0.0003289047162979841,-0.00017274310812354088,0.36742979288101196,3.5487510103848763e-06,-0.0003289047162979841,-0.00017274310812354088
40119.667,-0.10284904390573502,-0.1300123929977417,1.591160535812378,0.05103781446814537,0.04913651943206787,0.15249003469944,-10.044556617736816,0.4677931070327759,1.9775336980819702,8.758424758911133,25.028614044189453,7.557121753692627,1,0.36879122257232666,0.0001655008236411959,-0.00015743551193736494,-0.00015895914111752063,0.36879122257232666,0.0001655008236411959,-0.00015743551193736494,-0.00015895914111752063
40129.527,-0.10333050042390823,-0.12973392009735107,1.5924946069717407,0.04640233889222145,0.0643337294459343,0.14437419176101685,-9.970054626464844,0.22718439996242523,2.004451274871826,10.436413764953613,23.763751983642578,7.830840587615967,1,0.3699254095554352,0.0005000513046979904,0.0003745545691344887,-0.00016043811046984047,0.3699254095554352,0.0005000513046979904,0.0003745545691344887,-0.00016043811046984047
40139.392,-0.10381382703781128,-0.12928523123264313,1.59381103515625,0.04252953827381134,0.07943017780780792,0.13668476045131683,-9.871227264404297,-0.02556631714105606,2.0368924140930176,10.58225154876709,22.241668701171875,7.6493730545043945,1,0.370967835187912,0.0008818646310828626,0.00045520797721110284,-0.00016741883882787079,0.370967835187912,0.0008818646310828626,0.00045520797721110284,-0.00016741883882787079
40149.256,-0.10533900558948517,-0.1289905458688736,1.5948781967163086,0.03563762083649635,0.09340942651033401,0.12818004190921783,-9.774313926696777,-0.2597942650318146,2.0661966800689697,11.350371360778809,21.732967376708984,8.108831405639648,1,0.3723434805870056,0.0007973398314788938,0.00027422167477197945,-0.00016812875401228666,0.3723434805870056,0.0007973398314788938,0.00027422167477197945,-0.00016812875401228666
40159.114,-0.10685911029577255,-0.12849178910255432,1.5959352254867554,0.02948695793747902,0.10766229778528214,0.12035435438156128,-9.677815437316895,-0.48433780670166016,2.1007938385009766,13.721254348754883,23.38856315612793,7.940024375915527,1,0.373562216758728,0.0004547240387182683,-0.00022841051395516843,-0.00017505028517916799,0.373562216758728,0.0004547240387182683,-0.00022841051395516843,-0.00017505028517916799
40168.977,-0.10752677917480469,-0.12762004137039185,1.5969786643981934,0.0264148972928524,0.12251441925764084,0.11360429227352142,-9.552559852600098,-0.7138959169387817,2.1389691829681396,18.336339950561523,24.583606719970703,7.421907424926758,1,0.3745259642601013,-0.00010759168799268082,-0.00021421551355160773,-0.00017753493739292026,0.3745259642601013,-0.00010759168799268082,-0.00021421551355160773,-0.00017753493739292026
40178.827,-0.10911605507135391,-0.12681925296783447,1.5979121923446655,0.021078504621982574,0.13658858835697174,0.107237309217453,-9.38898754119873,-0.9636355638504028,2.171126127243042,22.609838485717773,24.548749923706055,7.053049087524414,1,0.37545400857925415,-0.0001493701565777883,2.43573358602589e-05,-0.00016889777907636017,0.37545400857925415,-0.0001493701565777883,2.43573358602589e-05,-0.00016889777907636017
