timestamp,stateEstimate.x,stateEstimate.y,stateEstimate.z,stateEstimate.vx,stateEstimate.vy,stateEstimate.vz,stateEstimate.roll,stateEstimate.pitch,stateEstimate.yaw,gyro.x,gyro.y,gyro.z,ILBC.nominal_controller,ILBC.nominal_thrust,ILBC.nominal_torqueX,ILBC.nominal_torqueY,ILBC.nominal_torqueZ,ILBC.full_thrust,ILBC.full_torqueX,ILBC.full_torqueY,ILBC.full_torqueZ
26396.454,0.007275217678397894,-0.7612079381942749,0.7052046060562134,0.035556428134441376,0.06180334836244583,0.0006105226348154247,-0.8401695489883423,-0.9633047580718994,-5.008640289306641,0.03837961703538895,0.007294883020222187,-0.007468414958566427,1,0.0,0.0,0.0,0.0,0.0,0.0,0.0,0.0
26406.299,0.0071411277167499065,-0.7614378929138184,0.7052015662193298,0.03519230708479881,0.06105078384280205,0.0005868537700735033,-0.8389594554901123,-0.9627128839492798,-5.0034098625183105,-0.09175670892000198,0.12514568865299225,-0.08987132459878922,1,0.0,0.0,0.0,0.0,0.0,0.0,0.0,0.0
26416.165,0.007261225022375584,-0.7612254023551941,0.7052030563354492,0.03557847440242767,0.06182949244976044,0.0005326519603841007,-0.8389552235603333,-0.9623964428901672,-5.005049705505371,-0.1550712287425995,0.004327690694481134,0.17678803205490112,1,0.0,0.0,0.0,0.0,0.0,0.0,0.0,0.0
26426.03,0.007125132251530886,-0.7614541053771973,0.7052001953125,0.03513510152697563,0.06108943372964859,0.0005039605312049389,-0.8407933115959167,-0.9622617363929749,-5.004875183105469,-0.02726718597114086,-0.18482409417629242,-0.039764437824487686,1,0.0,0.0,0.0,0.0,0.0,0.0,0.0,0.0
26435.894,0.007246528286486864,-0.761240541934967,0.7052017450332642,0.03564802557229996,0.06176765263080597,0.0004943647654727101,-0.8400595188140869,-0.9598491191864014,-5.000211715698242,0.05681636556982994,0.23177018761634827,0.06204678863286972,1,0.0,0.0,0.0,0.0,0.0,0.0,0.0,0.0
26603.55,0.007351307198405266,-0.7605336904525757,0.7093689441680908,0.03613593429327011,0.09509207308292389,0.1616898477077484,-6.694064617156982,0.734143853187561,-4.250556468963623,-117.5541763305664,-31.92270851135254,10.915216445922852,1,0.6119214296340942,-0.002027949783951044,-0.0006374847725965083,-5.4544227168662474e-05,0.6119214296340942,-0.002027949783951044,-0.0006374847725965083,-5.4544227168662474e-05
26613.41,0.007502323482185602,-0.7596950531005859,0.7115291357040405,0.034304965287446976,0.11474015563726425,0.2140657901763916,-7.965215682983398,1.0683199167251587,-4.090824604034424,-93.48692321777344,-26.375810623168945,10.42114543914795,1,0.6002523303031921,-0.004183171316981316,-0.0007539482903666794,-9.506786591373384e-05,0.6002523303031921,-0.004183171316981316,-0.0007539482903666794,-9.506786591373384e-05
26623.271,0.00735297380015254,-0.7591105103492737,0.7141119241714478,0.031069418415427208,0.13459576666355133,0.26325124502182007,-8.888432502746582,1.3293083906173706,-3.9543139934539795,-82.69075775146484,-25.094697952270508,11.468103408813477,1,0.5893012285232544,-0.0017196923727169633,0.00016856566071510315,-7.944999379105866e-05,0.5893012285232544,-0.0017196923727169633,0.00016856566071510315,-7.944999379105866e-05
26633.14,0.007411142345517874,-0.7579890489578247,0.7170868515968323,0.028176791965961456,0.15724137425422668,0.3103245198726654,-9.744443893432617,1.5684609413146973,-3.8067071437835693,-91.50263977050781,-29.46414566040039,11.341836929321289,1,0.5788038372993469,0.0027983514592051506,0.0015924214385449886,-9.8558230092749e-05,0.5788038372993469,0.0027983514592051506,0.0015924214385449886,-9.8558230092749e-05
26642.999,0.007208187133073807,-0.7567723989486694,0.7210046648979187,0.023431308567523956,0.18373984098434448,0.3594997227191925,-10.841358184814453,1.9119186401367188,-3.6244542598724365,-108.9127197265625,-35.97768020629883,12.052629470825195,1,0.567712128162384,0.005285541992634535,0.0024428311735391617,-0.00015440394054166973,0.567712128162384,0.005285541992634535,0.0024428311735391617,-0.00015440394054166973
26652.854,0.007176722399890423,-0.755153477191925,0.7249149680137634,0.01922500692307949,0.21065518260002136,0.4017164707183838,-11.956732749938965,2.264720916748047,-3.4314849376678467,-112.80174255371094,-37.456817626953125,12.428898811340332,1,0.5582829117774963,0.0032143620774149895,0.001641458598896861,-0.00017865895642898977,0.5582829117774963,0.0032143620774149895,0.001641458598896861,-0.00017865895642898977
26662.715,0.006856916472315788,-0.7533581256866455,0.7298116683959961,0.012825638055801392,0.2425517737865448,0.44804003834724426,-13.16728401184082,2.6363327503204346,-3.2241337299346924,-98.64759826660156,-30.599872589111328,11.67107105255127,1,0.5477665662765503,-0.0006941034807823598,-0.00013807867071591318,-0.0001999560627155006,0.5477665662765503,-0.0006941034807823598,-0.00013807867071591318,-0.0001999560627155006
26672.585,0.006607993505895138,-0.7537131309509277,0.7298997640609741,0.011841877363622189,0.24143770337104797,0.4484017491340637,-13.168224334716797,2.6468334197998047,-3.2292017936706543,-76.97113800048828,-22.227596282958984,10.894821166992188,1,0.5486462712287903,-0.003080961061641574,-0.00076749810250476,6.968883099034429e-05,0.5486462712287903,-0.003080961061641574,-0.00076749810250476,6.968883099034429e-05
26682.436,0.006233185529708862,-0.7489796876907349,0.7398324608802795,1.1177155101904646e-05,0.3065364956855774,0.5243600606918335,-14.773234367370605,3.0818448066711426,-2.9120099544525146,-63.51942443847656,-21.547168731689453,9.344779968261719,1,0.5306681394577026,-0.0015730645973235369,0.0010070387506857514,-0.0003331812040414661,0.5306681394577026,-0.0015730645973235369,0.0010070387506857514,-0.0003331812040414661
26692.297,0.005983144044876099,-0.7493479251861572,0.7399243712425232,-0.0009719337685965002,0.30526861548423767,0.5247511863708496,-14.769021034240723,3.090996026992798,-2.9158966541290283,-63.22114944458008,-25.621326446533203,10.249635696411133,1,0.5314269661903381,0.0010694644879549742,0.0021453811787068844,5.945439261267893e-05,0.5314269661903381,0.0010694644879549742,0.0021453811787068844,5.945439261267893e-05
26702.154,0.005444514099508524,-0.7468761205673218,0.745522141456604,-0.008441579528152943,0.3377079665660858,0.5578687787055969,-15.381708145141602,3.31325364112854,-2.762946367263794,-71.89653778076172,-28.690649032592773,9.465860366821289,1,0.5240216851234436,0.0035506868734955788,0.002208774909377098,-0.00013630140165332705,0.5240216851234436,0.0035506868734955788,0.002208774909377098,-0.00013630140165332705
26712.03,0.005081923212856054,-0.7437058091163635,0.7513409852981567,-0.01527076680213213,0.37214213609695435,0.5874209403991699,-16.05352020263672,3.5554068088531494,-2.6012463569641113,-75.64149475097656,-22.605266571044922,11.428902626037598,1,0.517456591129303,0.0030838646925985813,0.00025905881193466485,-0.00016801041783764958,0.517456591129303,0.0030838646925985813,0.00025905881193466485,-0.00016801041783764958
26721.875,0.004394713323563337,-0.7405728101730347,0.7575353384017944,-0.023565122857689857,0.4062509834766388,0.6150668859481812,-16.797426223754883,3.799710750579834,-2.434089183807373,-67.05305480957031,-10.595650672912598,11.169063568115234,1,0.5113229751586914,0.0006431304500438273,-0.0012669040588662028,-0.00018007875769399107,0.5113229751586914,0.0006431304500438273,-0.0012669040588662028,-0.00018007875769399107
26731.744,0.003872184781357646,-0.7367091774940491,0.763905942440033,-0.03134831041097641,0.4431847929954529,0.6410985589027405,-17.530763626098633,3.9443187713623047,-2.2793080806732178,-47.95475769042969,0.36310455203056335,10.76048469543457,1,0.5055509209632874,-0.0018397048115730286,-0.001376270200125873,-0.00016842452168930322,0.5055509209632874,-0.0018397048115730286,-0.001376270200125873,-0.00016842452168930322
26741.597,0.0025825665798038244,-0.727888822555542,0.7773937582969666,-0.04722714424133301,0.5197396278381348,0.6885575652122498,-18.525297164916992,3.9190897941589355,-2.075575828552246,-32.1382942199707,4.342188358306885,9.57083511352539,1,0.4943951666355133,-0.0011068877065554261,2.2905574951437302e-05,-0.00022947619436308742,0.4943951666355133,-0.0011068877065554261,2.2905574951437302e-05,-0.00022947619436308742
26751.475,0.0023331816773861647,-0.7282983660697937,0.7774801850318909,-0.048220571130514145,0.5182629823684692,0.6888996958732605,-18.519302368164062,3.9273388385772705,-2.077993631362915,-28.139841079711914,2.039907693862915,8.634663581848145,1,0.4949219524860382,0.0011112429201602936,0.0013972400920465589,3.3365449780831113e-05,0.4949219524860382,0.0011112429201602936,0.0013972400920465589,3.3365449780831113e-05
26761.317,0.001320319133810699,-0.7237491607666016,0.7846390604972839,-0.05690121650695801,0.5553449988365173,0.7093779444694519,-18.80643081665039,3.881387233734131,-2.005497694015503,-32.588680267333984,-2.608983278274536,8.251213073730469,1,0.49042531847953796,0.0032956604845821857,0.0021342511754482985,-5.9986818087054417e-05,0.49042531847953796,0.0032956604845821857,0.0021342511754482985,-5.9986818087054417e-05
26771.18,0.0004726608167402446,-0.7184264063835144,0.7919018268585205,-0.06435141712427139,0.5935333371162415,0.7267946600914001,-19.106281280517578,3.8615615367889404,-1.9291757345199585,-35.01826858520508,-1.3183733224868774,9.008795738220215,1,0.4866619408130646,0.0033004998695105314,0.0009581628255546093,-7.34158165869303e-05,0.4866619408130646,0.0033004998695105314,0.0009581628255546093,-7.34158165869303e-05
26781.038,-0.0006867825286462903,-0.713148295879364,0.7994065880775452,-0.07250895351171494,0.6305080056190491,0.7428417801856995,-19.444595336914062,3.8667612075805664,-1.8408769369125366,-26.889129638671875,6.064762592315674,9.899242401123047,1,0.48321425914764404,0.0011601189617067575,-0.00048101707943715155,-9.838075493462384e-05,0.48321425914764404,0.0011601189617067575,-0.00048101707943715155,-9.838075493462384e-05
26790.922,-0.0016865574289113283,-0.7070913314819336,0.8069871664047241,-0.07985047250986099,0.6692101359367371,0.7579078078269958,-19.769620895385742,3.824054479598999,-1.7601100206375122,-7.735199451446533,13.854507446289062,11.04309368133545,1,0.4799874424934387,-0.0015127358492463827,-0.0008104056469164789,-0.0001005696103675291,0.4799874424934387,-0.0015127358492463827,-0.0008104056469164789,-0.0001005696103675291
26800.759,-0.002995183225721121,-0.7011038064956665,0.8147833347320557,-0.08792419731616974,0.7066630125045776,0.7720530033111572,-19.956405639648438,3.7115390300750732,-1.6958593130111694,12.193841934204102,18.68349838256836,11.167583465576172,1,0.4769679307937622,-0.0021931282244622707,-0.0003531007096171379,-8.365025860257447e-05,0.4769679307937622,-0.0021931282244622707,-0.0003531007096171379,-8.365025860257447e-05
26810.622,-0.0041409325785934925,-0.6942980289459229,0.8226372599601746,-0.09485314041376114,0.7456938624382019,0.7851805090904236,-19.9426212310791,3.523730754852295,-1.648512363433838,23.789297103881836,18.344707489013672,11.064970970153809,1,0.474181205034256,-0.0007403985364362597,0.0007294296519830823,-6.395044329110533e-05,0.474181205034256,-0.0007403985364362597,0.0007294296519830823,-6.395044329110533e-05
26820.488,-0.005582862999290228,-0.6876025199890137,0.8306863903999329,-0.10228705406188965,0.7826718688011169,0.7979028224945068,-19.764610290527344,3.3172922134399414,-1.6095221042633057,24.34098243713379,14.917133331298828,11.939334869384766,1,0.47147607803344727,0.0016525888349860907,0.0015188653487712145,-6.140662299003452e-05,0.47147607803344727,0.0016525888349860907,0.0015188653487712145,-6.140662299003452e-05
26830.351,-0.006859534420073032,-0.6800693869590759,0.8387835025787354,-0.10832972079515457,0.8204124569892883,0.8092251420021057,-19.519065856933594,3.12040114402771,-1.559682846069336,19.61724853515625,14.489462852478027,12.260025024414062,1,0.4691011905670166,0.0030858004465699196,0.0009521943866275251,-7.933167944429442e-05,0.4691011905670166,0.0030858004465699196,0.0009521943866275251,-7.933167944429442e-05
26840.204,-0.008413335308432579,-0.6727003455162048,0.8470550179481506,-0.11487550288438797,0.8551472425460815,0.8194116950035095,-19.294109344482422,2.9503157138824463,-1.49168860912323,20.716764450073242,17.599945068359375,13.09416675567627,1,0.4669927954673767,0.0020342408679425716,0.0001467892579967156,-0.00011068573803640902,0.4669927954673767,0.0020342408679425716,0.0001467892579967156,-0.00011068573803640902
26850.062,-0.00980176217854023,-0.6644803881645203,0.8553575873374939,-0.1201857477426529,0.891109049320221,0.8288660645484924,-19.103965759277344,2.7612695693969727,-1.4228768348693848,31.554933547973633,24.314117431640625,13.229185104370117,1,0.4650518596172333,-0.00018421246204525232,-0.0008321821806021035,-0.00011559589620446786,0.4650518596172333,-0.00018421246204525232,-0.0008321821806021035,-0.00011559589620446786
26859.925,-0.011458498425781727,-0.656463086605072,0.8638190031051636,-0.12609227001667023,0.9246742725372314,0.8386020064353943,-18.854032516479492,2.5316574573516846,-1.3623846769332886,48.891849517822266,29.137466430664062,13.362611770629883,1,0.46302664279937744,-0.002042628824710846,-0.000632322917226702,-0.00010879266483243555,0.46302664279937744,-0.002042628824710846,-0.000632322917226702,-0.00010879266483243555
26869.798,-0.012950326316058636,-0.6475763916969299,0.8723101615905762,-0.13071288168430328,0.9597223997116089,0.8485270738601685,-18.46552848815918,2.2356791496276855,-1.3217172622680664,63.294925689697266,29.1942081451416,13.362090110778809,1,0.46093979477882385,-0.0019071310525760055,0.0003126127121504396,-8.589828212279826e-05,0.46093979477882385,-0.0019071310525760055,0.0003126127121504396,-8.589828212279826e-05
26879.646,-0.014691631309688091,-0.6389434337615967,0.8809608221054077,-0.13572397828102112,0.9916181564331055,0.8580828309059143,-17.910018920898438,1.9192508459091187,-1.2866913080215454,67.29617309570312,27.171558380126953,13.2357816696167,1,0.45893025398254395,9.371928172186017e-05,0.0007992754690349102,-7.950915460241958e-05,0.45893025398254395,9.371928172186017e-05,0.0007992754690349102,-7.950915460241958e-05
26889.506,-0.016262376680970192,-0.6294340491294861,0.8896395564079285,-0.13930587470531464,1.024344563484192,0.8671568632125854,-17.256723403930664,1.6107923984527588,-1.2422511577606201,64.07100677490234,23.70884895324707,13.471319198608398,1,0.4570266604423523,0.0017284030327573419,0.0012070592492818832,-9.477206913288683e-05,0.4570266604423523,0.0017284030327573419,0.0012070592492818832,-9.477206913288683e-05
26899.367,-0.018052926287055016,-0.6202347874641418,0.8984676599502563,-0.1430293172597885,1.0534439086914062,0.8760533332824707,-16.601516723632812,1.331152319908142,-1.185365915298462,60.07358169555664,24.36467933654785,13.963295936584473,1,0.45515385270118713,0.0020715028513222933,0.00033745396649464965,-0.00011618748249020427,0.45515385270118713,0.0020715028513222933,0.00033745396649464965,-0.00011618748249020427
26909.243,-0.019678398966789246,-0.6101616024971008,0.9073237776756287,-0.14547905325889587,1.0830260515213013,0.8844360709190369,-15.981359481811523,1.0685259103775024,-1.1189444065093994,62.851558685302734,28.131919860839844,13.615021705627441,1,0.4533960223197937,0.0006310324533842504,-0.0004608537128660828,-0.00012837415852118284,0.4533960223197937,0.0006310324533842504,-0.0004608537128660828,-0.00012837415852118284
26919.084,-0.021497327834367752,-0.6004598736763,0.916324257850647,-0.14814673364162445,1.1092259883880615,0.8926559090614319,-15.380439758300781,0.7855013012886047,-1.0482690334320068,71.59712982177734,33.57529067993164,13.227592468261719,1,0.45166632533073425,-0.0009039636934176087,-0.001040913164615631,-0.00013393507106229663,0.45166632533073425,-0.0009039636934176087,-0.001040913164615631,-0.00013393507106229663
26928.944,-0.023158090189099312,-0.5898845791816711,0.9253526926040649,-0.14965899288654327,1.1362676620483398,0.9013745188713074,-14.715221405029297,0.45635005831718445,-0.996097981929779,83.75872802734375,34.85369873046875,13.254904747009277,1,0.44979995489120483,-0.0020748900715261698,-0.0002961594145745039,-0.00011340703349560499,0.44979995489120483,-0.0020748900715261698,-0.0002961594145745039,-0.00011340703349560499
26938.805,-0.02499220333993435,-0.5797390937805176,0.9345290064811707,-0.15125826001167297,1.1599467992782593,0.9103783369064331,-13.95330810546875,0.09226355701684952,-0.9447174668312073,89.82432556152344,32.714141845703125,12.418157577514648,1,0.44784948229789734,-0.0011268897214904428,0.00042907625902444124,-0.0001086743432097137,0.44784948229789734,-0.0011268897214904428,0.00042907625902444124,-0.0001086743432097137
26948.674,-0.026664534583687782,-0.5687107443809509,0.9437345862388611,-0.15152184665203094,1.184080958366394,0.919333279132843,-13.083593368530273,-0.27254587411880493,-0.9012647271156311,89.74219512939453,27.66177749633789,12.329870223999023,1,0.4458978474140167,5.565086757997051e-05,0.0011601189617067575,-0.00010009633842855692,0.4458978474140167,5.565086757997051e-05,0.0011601189617067575,-0.00010009633842855692
26958.53,-0.028479164466261864,-0.5581813454627991,0.9530847668647766,-0.1516754925251007,1.2043360471725464,0.9277628660202026,-12.186930656433105,-0.5962714552879333,-0.8335261940956116,85.35511016845703,24.056507110595703,12.415002822875977,1,0.44406387209892273,0.0010112327290698886,0.0009638084447942674,-0.00013375759590417147,0.44406387209892273,0.0010112327290698886,0.0009638084447942674,-0.00013375759590417147
26968.388,-0.030131451785564423,-0.5467689633369446,0.9624632596969604,-0.15071643888950348,1.2248934507369995,0.9361842274665833,-11.31531810760498,-0.8778613805770874,-0.7638260126113892,79.92813110351562,25.940404891967773,12.204754829406738,1,0.44221943616867065,0.0013940139906480908,-0.0002680920297279954,-0.00013772121747024357,0.44221943616867065,0.0013940139906480908,-0.0002680920297279954,-0.00013772121747024357
26978.247,-0.03190075606107712,-0.5359435081481934,0.9719864726066589,-0.14966171979904175,1.241209626197815,0.9438508152961731,-10.506325721740723,-1.1480470895767212,-0.6858659386634827,79.8514633178711,29.853199005126953,10.852472305297852,1,0.4405507743358612,0.0003585851809475571,-0.0008826712146401405,-0.00014168483903631568,0.4405507743358612,0.0003585851809475571,-0.0008826712146401405,-0.00014168483903631568
26988.12,-0.033518072217702866,-0.5242236852645874,0.9815260767936707,-0.14778219163417816,1.2582690715789795,0.951515257358551,-9.713138580322266,-1.4367579221725464,-0.6131614446640015,86.84473419189453,30.954458236694336,10.96849536895752,1,0.4388711750507355,-0.001289971056394279,-0.0004202043928671628,-0.00013914101873524487,0.4388711750507355,-0.001289971056394279,-0.0004202043928671628,-0.00013914101873524487
26997.975,-0.035230498760938644,-0.5131715536117554,0.9912163019180298,-0.14571340382099152,1.2713055610656738,0.959713339805603,-8.893868446350098,-1.760949730873108,-0.5447324514389038,95.10194396972656,27.876968383789062,10.604724884033203,1,0.4370471239089966,-0.0018590616527944803,0.0004773070104420185,-0.0001341716997558251,0.4370471239089966,-0.0018590616527944803,0.0004773070104420185,-0.0001341716997558251
27007.833,-0.036784395575523376,-0.5012192130088806,1.0009284019470215,-0.14260610938072205,1.285148024559021,0.9682489633560181,-7.983121871948242,-2.068065643310547,-0.4808747470378876,97.69493103027344,24.981779098510742,9.889235496520996,1,0.4351266324520111,-0.0008094378281384706,0.00048392059397883713,-0.00012618528853636235,0.4351266324520111,-0.0008094378281384706,0.00048392059397883713,-0.00012618528853636235
27017.692,-0.038406964391469955,-0.4900099039077759,1.0107959508895874,-0.13923810422420502,1.2946408987045288,0.9766667485237122,-7.029294490814209,-2.3592567443847656,-0.4090525209903717,95.05709075927734,21.92866325378418,9.212382316589355,1,0.43322286009788513,0.000318581034662202,0.0005678001325577497,-0.00013434917491395026,0.43322286009788513,0.000318581034662202,0.0005678001325577497,-0.00013434917491395026
27027.569,-0.039879802614450455,-0.4778788387775421,1.0206750631332397,-0.13506507873535156,1.3050140142440796,0.9849235415458679,-6.059922695159912,-2.604875087738037,-0.3365379571914673,90.34893798828125,20.448848724365234,9.986846923828125,1,0.43134671449661255,0.0009063832694664598,0.00024292814487125725,-0.00014381455548573285,0.43134671449661255,0.0009063832694664598,0.00024292814487125725,-0.00014381455548573285
27037.413,-0.041402943432331085,-0.46658897399902344,1.0307154655456543,-0.13072770833969116,1.3105037212371826,0.9927041530609131,-5.138363838195801,-2.8388235569000244,-0.25296810269355774,87.77391052246094,21.0134220123291,9.444342613220215,1,0.4295770823955536,0.0005327966064214706,-0.00025841358001343906,-0.00015730271115899086,0.4295770823955536,0.0005327966064214706,-0.00025841358001343906,-0.00015730271115899086
27047.269,-0.0427745096385479,-0.4543706476688385,1.0407593250274658,-0.12569178640842438,1.3169810771942139,1.0004898309707642,-4.247936725616455,-3.0573835372924805,-0.17472538352012634,89.60728454589844,21.7625675201416,9.231464385986328,1,0.42779457569122314,-0.00045262707863003016,-0.0003952018159907311,-0.00015257002087309957,0.42779457569122314,-0.00045262707863003016,-0.0003952018159907311,-0.00015257002087309957
27057.13,-0.04407953470945358,-0.4423066973686218,1.0506398677825928,-0.1203245148062706,1.321628212928772,1.0064871311187744,-3.3850700855255127,-3.280510425567627,-0.09294112771749496,94.97203063964844,22.247783660888672,8.347566604614258,1,0.4264466464519501,-0.0014111123746261,-0.00043617378105409443,-0.00015422646538354456,0.4264466464519501,-0.0014111123746261,-0.00043617378105409443,-0.00015422646538354456
27067.01,-0.045428402721881866,-0.43083107471466064,1.0611579418182373,-0.11455012857913971,1.3219292163848877,1.0156214237213135,-2.44234299659729,-3.5158565044403076,-0.01093918178230524,98.13063049316406,19.968324661254883,8.218473434448242,1,0.4202558994293213,-0.0011773788137361407,0.00013307816698215902,-0.0001571252360008657,0.4202558994293213,-0.0011773788137361407,0.00013307816698215902,-0.0001571252360008657
27076.851,-0.04668966680765152,-0.41958728432655334,1.0715131759643555,-0.10841220617294312,1.3203009366989136,1.023040533065796,-1.4845107793807983,-3.744389772415161,0.07574230432510376,97.9886474609375,17.243803024291992,7.534480571746826,1,0.4138748049736023,-0.0006084495107643306,0.0002505095617379993,-0.00016179877275135368,0.4138748049736023,-0.0006084495107643306,0.0002505095617379993,-0.00016179877275135368
27086.724,-0.04780611768364906,-0.4074018597602844,1.081863522529602,-0.10167849063873291,1.3198211193084717,1.029934048652649,-0.4989266097545624,-3.934908390045166,0.15502791106700897,94.85845184326172,12.689701080322266,7.086715221405029,1,0.4075757563114166,2.951915485027712e-05,0.0007250743801705539,-0.00015286581765394658,0.4075757563114166,2.951915485027712e-05,0.0007250743801705539,-0.00015286581765394658
27096.577,-0.048912063241004944,-0.39630126953125,1.0923656225204468,-0.09471064060926437,1.3142108917236328,1.0364289283752441,0.456401526927948,-4.094605445861816,0.23417796194553375,91.43768310546875,10.250896453857422,6.571574687957764,1,0.40124937891960144,9.823587606661022e-05,0.0003245494153816253,-0.00015245169925037771,0.40124937891960144,9.823587606661022e-05,0.0003245494153816253,-0.00015245169925037771
27106.45,-0.049880560487508774,-0.38423869013786316,1.1028469800949097,-0.08735273778438568,1.3101108074188232,1.0424976348876953,1.3851304054260254,-4.215392112731934,0.31013038754463196,89.25382995605469,9.099745750427246,6.01859712600708,1,0.3949887454509735,-0.00016356517153326422,4.403677303344011e-05,-0.00014783733058720827,0.3949887454509735,-0.00016356517153326422,4.403677303344011e-05,-0.00014783733058720827
27116.302,-0.05082923546433449,-0.3733493685722351,1.113476037979126,-0.07989882677793503,1.3007837533950806,1.0478837490081787,2.2786591053009033,-4.32204532623291,0.3845306932926178,89.49512481689453,9.366728782653809,5.587127685546875,1,0.3887740969657898,-0.0008012112230062485,-0.00031745192245580256,-0.00014606257900595665,0.3887740969657898,-0.0008012112230062485,-0.00031745192245580256,-0.00014606257900595665
27126.153,-0.05163859948515892,-0.36149460077285767,1.1240724325180054,-0.07212168723344803,1.2931321859359741,1.0526707172393799,3.1728219985961914,-4.421833515167236,0.4517030119895935,90.91014099121094,9.217446327209473,5.838623046875,1,0.38267529010772705,-0.0012131889816373587,-0.0002947076573036611,-0.00014174400712363422,0.38267529010772705,-0.0012131889816373587,-0.0002947076573036611,-0.00014174400712363422
27136.018,-0.05241823196411133,-0.35089150071144104,1.1348028182983398,-0.06429009884595871,1.280269742012024,1.056895136833191,4.069392681121826,-4.526978492736816,0.525389552116394,89.90386962890625,8.310681343078613,5.542219161987305,1,0.3766006529331207,-0.000850409793201834,-0.00017501795082353055,-0.00015091357636265457,0.3766006529331207,-0.000850409793201834,-0.00017501795082353055,-0.00015091357636265457
27145.886,-0.05306651443243027,-0.339305579662323,1.145480990409851,-0.056285034865140915,1.2693859338760376,1.0598961114883423,4.976550579071045,-4.614948749542236,0.5935142636299133,87.028076171875,4.4265265464782715,4.7514495849609375,1,0.370808482170105,-0.0005027935258112848,0.0005139236454851925,-0.00014138904225546867,0.370808482170105,-0.0005027935258112848,0.0005139236454851925,-0.00014138904225546867
27155.736,-0.05373251810669899,-0.3273504078388214,1.1579426527023315,-0.0473012700676918,1.2527638673782349,1.0652146339416504,5.997513771057129,-4.693206310272217,0.6654036641120911,82.2101821899414,0.6967129707336426,4.41558837890625,1,0.3634992837905884,-0.00012017361586913466,0.0005621544551104307,-0.0001467724796384573,0.3634992837905884,-0.00012017361586913466,0.0005621544551104307,-0.0001467724796384573
27165.596,-0.0542030893266201,-0.31617024540901184,1.1685726642608643,-0.03912997618317604,1.2386305332183838,1.0650237798690796,6.828393936157227,-4.716031074523926,0.7162185907363892,78.56412506103516,-2.157050609588623,4.33419942855835,1,0.3584224581718445,-0.0003614886954892427,0.00044682002044282854,-0.00012222165241837502,0.3584224581718445,-0.0003614886954892427,0.00044682002044282854,-0.00012222165241837502
27175.458,-0.054634880274534225,-0.30597126483917236,1.1798732280731201,-0.030914951115846634,1.2196072340011597,1.0671374797821045,7.651481628417969,-4.7160444259643555,0.7670448422431946,73.189453125,-0.8547455668449402,3.5671894550323486,1,0.3523932695388794,1.1614094546530396e-05,-0.0004924698732793331,-0.0001190270995721221,0.3523932695388794,1.1614094546530396e-05,-0.0004924698732793331,-0.0001190270995721221
27185.335,-0.05493498593568802,-0.29520052671432495,1.1904867887496948,-0.022776449099183083,1.2025976181030273,1.0645562410354614,8.39313793182373,-4.707897186279297,0.8054867386817932,71.62202453613281,-2.575428009033203,3.5099685192108154,1,0.3478303551673889,-0.0008463771664537489,0.00013872390263713896,-0.00010488818952580914,0.3478303551673889,-0.0008463771664537489,0.00013872390263713896,-0.00010488818952580914
27195.182,-0.05520470067858696,-0.28436824679374695,1.202708125114441,-0.013874406926333904,1.1794074773788452,1.063241958618164,9.202354431152344,-4.697657108306885,0.84902423620224,68.87578582763672,-3.886428117752075,3.731959819793701,1,0.3421086370944977,-0.0007053948938846588,5.694132414646447e-05,-0.00011470852041384205,0.3421086370944977,-0.0007053948938846588,5.694132414646447e-05,-0.00011470852041384205
27205.04,-0.055333212018013,-0.27411654591560364,1.2131807804107666,-0.0058462596498429775,1.1597949266433716,1.0582939386367798,9.879578590393066,-4.674434185028076,0.8829002976417542,65.58134460449219,-5.098018646240234,3.1509242057800293,1,0.33812040090560913,-0.0006234510219655931,4.097194323549047e-05,-0.00010003718489315361,0.33812040090560913,-0.0006234510219655931,4.097194323549047e-05,-0.00010003718489315361
27214.898,-0.05537918955087662,-0.26375123858451843,1.2240809202194214,0.002092327456921339,1.1397855281829834,1.0544315576553345,10.558937072753906,-4.63226842880249,0.913754403591156,60.75117874145508,-6.590147495269775,3.0231921672821045,1,0.333612859249115,-0.0002818030770868063,0.00011710878607118502,-9.672431042417884e-05,0.333612859249115,-0.0002818030770868063,0.00011710878607118502,-9.672431042417884e-05
27224.767,-0.05537879094481468,-0.2552877366542816,1.2345259189605713,0.009892144240438938,1.114052653312683,1.0468477010726929,11.163151741027832,-4.584714412689209,0.939728856086731,56.314414978027344,-8.408110618591309,3.081775426864624,1,0.33022305369377136,-0.00038503945688717067,0.00021857079991605133,-9.222825610777363e-05,0.33022305369377136,-0.00038503945688717067,0.00021857079991605133,-9.222825610777363e-05
27234.621,-0.05529732629656792,-0.24678193032741547,1.2453488111495972,0.017523150891065598,1.0878360271453857,1.0405279397964478,11.754042625427246,-4.513265132904053,0.9614315629005432,51.04051208496094,-10.017583847045898,2.961622714996338,1,0.3262981176376343,-0.00020582755678333342,0.00021018285769969225,-8.702229388291016e-05,0.3262981176376343,-0.00020582755678333342,0.00021018285769969225,-8.702229388291016e-05
27244.479,-0.05511460080742836,-0.23754090070724487,1.2555569410324097,0.024995487183332443,1.0644316673278809,1.030927300453186,12.2732515335083,-4.424485683441162,0.974276065826416,47.01603698730469,-11.214841842651367,3.110874652862549,1,0.323464572429657,-0.00045456274528987706,0.00014807970728725195,-7.767524220980704e-05,0.323464572429657,-0.00045456274528987706,0.00014807970728725195,-7.767524220980704e-05
27254.339,-0.05485670268535614,-0.22823265194892883,1.2661188840866089,0.03216291218996048,1.0411553382873535,1.0222532749176025,12.766016006469727,-4.312714099884033,0.9814932346343994,42.9742317199707,-11.411688804626465,2.7515835762023926,1,0.3201959431171417,-0.00043939988245256245,-6.597450556000695e-05,-6.850565841887146e-05,0.3201959431171417,-0.00043939988245256245,-6.597450556000695e-05,-6.850565841887146e-05
27264.22,-0.054561879485845566,-0.2208934724330902,1.2761708498001099,0.03922200947999954,1.0123189687728882,1.01027512550354,13.190013885498047,-4.210895538330078,0.9884840250015259,39.40195846557617,-12.825937271118164,2.8485538959503174,1,0.31797662377357483,-0.0005826404085382819,0.00021486073092091829,-6.921555905137211e-05,0.31797662377357483,-0.0005826404085382819,0.00021486073092091829,-6.921555905137211e-05
27274.06,-0.05416421592235565,-0.21213333308696747,1.2864855527877808,0.04588913917541504,0.9882621169090271,0.9991599917411804,13.593280792236328,-4.081973075866699,0.9863569736480713,34.193119049072266,-13.370339393615723,2.8174760341644287,1,0.31538766622543335,-0.00018388981698080897,4.742421879200265e-05,-5.762047294410877e-05,0.31538766622543335,-0.00018388981698080897,4.742421879200265e-05,-5.762047294410877e-05
27283.923,-0.0537450946867466,-0.20538321137428284,1.2962830066680908,0.052324626594781876,0.9581329226493835,0.9856983423233032,13.940415382385254,-3.9548308849334717,0.9835532903671265,29.400592803955078,-14.288511276245117,2.8142848014831543,1,0.3136173188686371,-0.00026357543538324535,0.0001475957833463326,-5.667393634212203e-05,0.3136173188686371,-0.00026357543538324535,0.0001475957833463326,-5.667393634212203e-05
27293.78,-0.053215980529785156,-0.19720816612243652,1.3063241243362427,0.058530379086732864,0.9331260323524475,0.9728705883026123,14.247891426086426,-3.8082361221313477,0.9767487049102783,24.748449325561523,-16.079755783081055,3.102193593978882,1,0.3115471303462982,-0.00023534671345259994,0.0003881043230649084,-5.3479372581932694e-05,0.3115471303462982,-0.00023534671345259994,0.0003881043230649084,-5.3479372581932694e-05
27303.661,-0.05266952887177467,-0.19107124209403992,1.3158358335494995,0.06465118378400803,0.9020565748214722,0.9574832320213318,14.505911827087402,-3.6670806407928467,0.9732586741447449,19.640308380126953,-16.35346221923828,3.89853572845459,1,0.31035831570625305,-0.00011791531869675964,8.517002424923703e-05,-6.312222831184044e-05,0.31035831570625305,-0.00011791531869675964,8.517002424923703e-05,-6.312222831184044e-05
27313.503,-0.05206187441945076,-0.18492108583450317,1.325569987297058,0.07035043835639954,0.8717913627624512,0.9432976245880127,14.708200454711914,-3.5085840225219727,0.9697257876396179,15.4630765914917,-17.64966583251953,4.136638641357422,1,0.30874261260032654,-0.0002992242225445807,0.00034164797398261726,-6.466034392360598e-05,0.30874261260032654,-0.0002992242225445807,0.00034164797398261726,-6.466034392360598e-05
27323.372,-0.051382504403591156,-0.17790810763835907,1.3347340822219849,0.07574670016765594,0.845284104347229,0.9263386726379395,14.86712646484375,-3.3349609375,0.9660730957984924,11.891830444335938,-18.1315975189209,3.865915536880493,1,0.3080851137638092,-0.0003960083413403481,0.00019921398779843003,-6.247148121474311e-05,0.3080851137638092,-0.0003960083413403481,0.00019921398779843003,-6.247148121474311e-05
27333.225,-0.050681136548519135,-0.17235517501831055,1.3441109657287598,0.08080164343118668,0.8146746158599854,0.9106920957565308,14.993895530700684,-3.159252166748047,0.9627053141593933,7.58949089050293,-18.17862892150879,3.7546865940093994,1,0.3069815933704376,-0.00022824920597486198,0.00011856055061798543,-6.18798949290067e-05,0.3069815933704376,-0.00022824920597486198,0.00011856055061798543,-6.18798949290067e-05
27343.093,-0.049902722239494324,-0.16592878103256226,1.3529402017593384,0.08568018674850464,0.787805438041687,0.892570436000824,15.079856872558594,-2.984604835510254,0.9541493058204651,3.180710792541504,-18.034156799316406,3.758340835571289,1,0.3067541718482971,-0.00013904651859775186,7.88790566730313e-05,-5.5135813454398885e-05,0.3067541718482971,-0.00013904651859775186,7.88790566730313e-05,-5.5135813454398885e-05
27352.944,-0.049136728048324585,-0.1613452285528183,1.3614147901535034,0.0901961401104927,0.75580894947052,0.8735121488571167,15.120277404785156,-2.8140201568603516,0.9443080425262451,-1.6818349361419678,-18.084003448486328,3.328390121459961,1,0.3069285452365875,-3.710058081196621e-06,0.0001272711087949574,-5.010733366361819e-05,0.3069285452365875,-3.710058081196621e-06,0.0001272711087949574,-5.010733366361819e-05
27362.806,-0.048274993896484375,-0.15547768771648407,1.3698928356170654,0.0944850742816925,0.7290032505989075,0.8549390435218811,15.116978645324707,-2.6354308128356934,0.9313360452651978,-5.368513584136963,-19.457870483398438,3.753145694732666,1,0.30697378516197205,-0.00018663205264601856,0.0004584341368172318,-4.868752512265928e-05,0.30697378516197205,-0.00018663205264601856,0.0004584341368172318,-4.868752512265928e-05
27372.664,-0.047407012432813644,-0.15109536051750183,1.3785228729248047,0.09832727164030075,0.6984180808067322,0.8372698426246643,15.069778442382812,-2.444446563720703,0.9175692796707153,-10.3622407913208,-19.65010643005371,3.6699259281158447,1,0.3067103326320648,0.000153402826981619,0.0002430894528515637,-4.6557812311220914e-05,0.3067103326320648,0.000153402826981619,0.0002430894528515637,-4.6557812311220914e-05
27382.544,-0.04647599160671234,-0.14578627049922943,1.386621356010437,0.1019345223903656,0.672006368637085,0.8176970481872559,14.978913307189941,-2.246068000793457,0.9024154543876648,-12.512235641479492,-20.592330932617188,4.165234088897705,1,0.3071783185005188,-0.0004106872947886586,0.00044956221245229244,-4.7740988520672545e-05,0.3071783185005188,-0.0004106872947886586,0.00044956221245229244,-4.7740988520672545e-05
27392.386,-0.045556169003248215,-0.14194802939891815,1.3948215246200562,0.10509328544139862,0.6418757438659668,0.7995831966400146,14.858201026916504,-2.038632392883301,0.8889119625091553,-15.729426383972168,-19.487354278564453,4.735391616821289,1,0.3072272539138794,-0.00017646969354245812,1.5001539395598229e-05,-5.330189742380753e-05,0.3072272539138794,-0.00017646969354245812,1.5001539395598229e-05,-5.330189742380753e-05
27402.251,-0.044569265097379684,-0.13719336688518524,1.4025322198867798,0.10817231237888336,0.6158072352409363,0.7794690728187561,14.714900970458984,-1.8430105447769165,0.8826547861099243,-19.480863571166992,-17.989789962768555,4.692954063415527,1,0.30801311135292053,1.2904550203529652e-05,-0.00010581731476122513,-6.176157330628484e-05,0.30801311135292053,1.2904550203529652e-05,-0.00010581731476122513,-6.176157330628484e-05
27412.108,-0.04359960928559303,-0.13389651477336884,1.4102981090545654,0.11072997003793716,0.5862367153167725,0.7607813477516174,14.530282020568848,-1.6546052694320679,0.881633996963501,-23.215103149414062,-17.511396408081055,5.334039211273193,1,0.30841362476348877,6.194183515617624e-05,0.00010065547394333407,-7.282423030119389e-05,0.30841362476348877,6.194183515617624e-05,0.00010065547394333407,-7.282423030119389e-05
27421.978,-0.04256492853164673,-0.12966826558113098,1.417605996131897,0.1132507473230362,0.5608081221580505,0.7403889894485474,14.314291000366211,-1.478433609008789,0.8857205510139465,-27.049524307250977,-16.877426147460938,5.179209232330322,1,0.30946406722068787,0.00018292199820280075,6.0006157582392916e-05,-7.826682849554345e-05,0.30946406722068787,0.00018292199820280075,6.0006157582392916e-05,-7.826682849554345e-05
27431.832,-0.04156452417373657,-0.1268937587738037,1.4249316453933716,0.11525924503803253,0.5319141149520874,0.721432089805603,14.058304786682129,-1.2937183380126953,0.8943463563919067,-29.47237777709961,-18.28767204284668,5.513393402099609,1,0.3101476728916168,-8.662178879603744e-05,0.0005516694509424269,-8.666734356665984e-05,0.3101476728916168,-8.662178879603744e-05,0.0005516694509424269,-8.666734356665984e-05
27441.698,-0.040497589856386185,-0.12316946685314178,1.431833028793335,0.11714039742946625,0.5073906183242798,0.7010259032249451,13.768425941467285,-1.107022762298584,0.9038784503936768,-32.3602294921875,-19.062664031982422,5.223634719848633,1,0.311402827501297,8.710571273695678e-05,0.0004776296264026314,-8.619407890364528e-05,0.311402827501297,8.710571273695678e-05,0.0004776296264026314,-8.619407890364528e-05
27451.554,-0.03948242962360382,-0.12087135761976242,1.4387186765670776,0.11850204318761826,0.4795314073562622,0.6823412179946899,13.442020416259766,-0.9085012078285217,0.9073128700256348,-34.605613708496094,-18.621578216552734,5.523036479949951,1,0.3122381269931793,-1.6775915355538018e-05,0.0002448638260830194,-8.09289631433785e-05,0.3122381269931793,-1.6775915355538018e-05,0.0002448638260830194,-8.09289631433785e-05
27461.419,-0.038396574556827545,-0.11764444410800934,1.4452275037765503,0.11991182714700699,0.4556015133857727,0.6628231406211853,13.112885475158691,-0.7209136486053467,0.9189848303794861,-37.77399444580078,-16.980043411254883,5.388376712799072,1,0.3134689927101135,0.0002679307071957737,-3.774580909521319e-05,-9.07492867554538e-05,0.3134689927101135,0.0002679307071957737,-3.774580909521319e-05,-9.07492867554538e-05
27471.27,-0.037373773753643036,-0.11581297218799591,1.4516875743865967,0.1206795796751976,0.42882609367370605,0.6442413926124573,12.736349105834961,-0.5388158559799194,0.9293955564498901,-39.26060485839844,-15.445866584777832,5.392947673797607,1,0.3144926130771637,-6.258706707740203e-05,-4.855336737819016e-05,-8.968443580670282e-05,0.3144926130771637,-6.258706707740203e-05,-4.855336737819016e-05,-8.968443580670282e-05
27481.131,-0.03628021851181984,-0.11304546892642975,1.4578046798706055,0.1215047761797905,0.4060050845146179,0.6251295208930969,12.354854583740234,-0.3778097331523895,0.9435892105102539,-40.9861946105957,-14.79393482208252,5.024619102478027,1,0.31582072377204895,4.00040989916306e-05,0.00012533542758319527,-9.24057312658988e-05,0.31582072377204895,4.00040989916306e-05,0.00012533542758319527,-9.24057312658988e-05
27490.991,-0.035265494138002396,-0.11166027933359146,1.4638521671295166,0.12172839790582657,0.38019901514053345,0.6070013046264648,11.947484970092773,-0.2202003449201584,0.9605137705802917,-42.30725860595703,-14.530060768127441,4.617977142333984,1,0.31694120168685913,-3.177745020366274e-05,0.00021986124920658767,-9.364805737277493e-05,0.31694120168685913,-3.177745020366274e-05,0.00021986124920658767,-9.364805737277493e-05
27500.87,-0.03400620073080063,-0.10874231159687042,1.4705134630203247,0.12208854407072067,0.35814955830574036,0.5878729224205017,11.461299896240234,-0.04339912533760071,0.9759348630905151,-44.6824951171875,-15.48269271850586,5.0757832527160645,1,0.31800588965415955,0.0002935785159934312,0.0005310222040861845,-9.571860573487356e-05,0.31800588965415955,0.0002935785159934312,0.0005310222040861845,-9.571860573487356e-05
27510.71,-0.03289240226149559,-0.10651596635580063,1.4762331247329712,0.12210511416196823,0.3379659354686737,0.5698826909065247,11.00554084777832,0.11854555457830429,0.9929929971694946,-47.839195251464844,-16.495361328125,4.716909408569336,1,0.3192581534385681,0.000591673597227782,0.000611998257227242,-9.601440251572058e-05,0.3192581534385681,0.000591673597227782,0.000611998257227242,-9.601440251572058e-05
27520.574,-0.03194174915552139,-0.1059650331735611,1.4813563823699951,0.12150876224040985,0.31320494413375854,0.5506049394607544,10.546875,0.28042834997177124,1.008261799812317,-49.10506057739258,-15.361488342285156,4.926424980163574,1,0.32113268971443176,0.00022760398860555142,0.00016792042879387736,-9.595524898031726e-05,0.32113268971443176,0.00022760398860555142,0.00016792042879387736,-9.595524898031726e-05
27530.442,-0.0309696476906538,-0.10541511327028275,1.486499547958374,0.1206645593047142,0.29022476077079773,0.5328017473220825,10.046480178833008,0.44080063700675964,1.027299404144287,-48.5411491394043,-13.45954418182373,4.894256591796875,1,0.32263657450675964,-0.00017711494001559913,-2.839000808307901e-05,-0.00010127951827598736,0.32263657450675964,-0.00017711494001559913,-2.839000808307901e-05,-0.00010127951827598736
27540.305,-0.02975095435976982,-0.1034584790468216,1.4922586679458618,0.11990564316511154,0.27094700932502747,0.5143570899963379,9.493019104003906,0.602614164352417,1.0527153015136719,-49.257179260253906,-11.664955139160156,4.793132781982422,1,0.3239973485469818,0.00014888623263686895,-4.790813909494318e-05,-0.00010962087981170043,0.3239973485469818,0.00014888623263686895,-4.790813909494318e-05,-0.00010962087981170043
27550.154,-0.02868705615401268,-0.10207099467515945,1.4971816539764404,0.11891729384660721,0.25314757227897644,0.4978390634059906,9.000383377075195,0.7264953255653381,1.0812854766845703,-50.80165100097656,-10.713408470153809,4.697526454925537,1,0.32529884576797485,0.0004050415300298482,0.0001087208220269531,-0.00011411693412810564,0.32529884576797485,0.0004050415300298482,0.0001087208220269531,-0.00011411693412810564
27560.015,-0.027776183560490608,-0.10205308347940445,1.5017750263214111,0.11726508289575577,0.23242850601673126,0.4808700680732727,8.487204551696777,0.8446835279464722,1.1043815612792969,-51.9030647277832,-10.989036560058594,4.41078519821167,1,0.3268814980983734,0.00035793991992250085,0.0003979440371040255,-0.00010630799079081044,0.3268814980983734,0.00035793991992250085,0.0003979440371040255,-0.00010630799079081044
27569.873,-0.026910854503512383,-0.10220680385828018,1.506089210510254,0.11528577655553818,0.21236801147460938,0.4640409052371979,7.958307266235352,0.9632506370544434,1.127105474472046,-53.245662689208984,-11.439793586730957,4.410644054412842,1,0.3285747170448303,0.00046456378186121583,0.0004850497643928975,-0.00010684042354114354,0.3285747170448303,0.00046456378186121583,0.0004850497643928975,-0.00010684042354114354
27579.754,-0.025893431156873703,-0.1012529730796814,1.5105749368667603,0.11369526386260986,0.19739118218421936,0.4485871493816376,7.411023139953613,1.0851284265518188,1.1528815031051636,-52.86077880859375,-10.368919372558594,4.228850364685059,1,0.3298458755016327,0.00015324151900131255,0.00016453300486318767,-0.00011050825560232624,0.3298458755016327,0.00015324151900131255,0.00016453300486318767,-0.00011050825560232624
27589.596,-0.025076882913708687,-0.1016802191734314,1.5145421028137207,0.11138468980789185,0.17887446284294128,0.4321916997432709,6.886656761169434,1.1947498321533203,1.175840973854065,-52.54716873168945,-9.867040634155273,4.3076019287109375,1,0.33161526918411255,0.00016388777294196188,0.0002930945483967662,-0.00010855602158699185,0.33161526918411255,0.00016388777294196188,0.0002930945483967662,-0.00010855602158699185
27599.464,-0.02411002106964588,-0.10102057456970215,1.5186920166015625,0.1093534603714943,0.16547022759914398,0.4176768660545349,6.344054222106934,1.301893949508667,1.2039941549301147,-52.73746109008789,-8.909605026245117,4.660670280456543,1,0.33283165097236633,0.00033084035385400057,0.00019179386436007917,-0.00011879047087859362,0.33283165097236633,0.00033084035385400057,0.00019179386436007917,-0.00011879047087859362
27609.317,-0.023352859541773796,-0.1016893982887268,1.5223281383514404,0.10660282522439957,0.14852069318294525,0.4021127223968506,5.828718662261963,1.3955267667770386,1.2364823818206787,-52.201927185058594,-7.972751140594482,4.827518463134766,1,0.33457067608833313,0.00017646969354245812,0.00019195517234038562,-0.00012677688209805638,0.33457067608833313,0.00017646969354245812,0.00019195517234038562,-0.00012677688209805638
27619.184,-0.022336561232805252,-0.101140096783638,1.526545524597168,0.10400761663913727,0.13603729009628296,0.38669446110725403,5.225055694580078,1.493389368057251,1.2724205255508423,-52.63456726074219,-6.828420639038086,4.656215190887451,1,0.33599022030830383,0.0004660155391320586,0.00013388469233177602,-0.00013145040429662913,0.33599022030830383,0.0004660155391320586,0.00013388469233177602,-0.00013145040429662913
27629.036,-0.02165721170604229,-0.10206666588783264,1.5298138856887817,0.10088048875331879,0.12045016139745712,0.3713628947734833,4.724841594696045,1.5634849071502686,1.317358374595642,-53.29938888549805,-6.11288595199585,4.425235748291016,1,0.33786773681640625,0.0005552182556129992,0.0002230874088127166,-0.00014292717969510704,0.33786773681640625,0.0005552182556129992,0.0002230874088127166,-0.00014292717969510704
27638.896,-0.020814312621951103,-0.10192960500717163,1.533312201499939,0.09819242358207703,0.11005644500255585,0.35843467712402344,4.182163238525391,1.630393624305725,1.353867769241333,-53.36153793334961,-4.798210144042969,4.231342315673828,1,0.33903956413269043,0.0005066648591309786,7.420115434797481e-05,-0.00013269273040350527,0.33903956413269043,0.0005066648591309786,7.420115434797481e-05,-0.00013269273040350527
27648.762,-0.020205210894346237,-0.1030004471540451,1.5362967252731323,0.09473025053739548,0.09646996855735779,0.3440476655960083,3.6616859436035156,1.6861960887908936,1.3886001110076904,-52.75288772583008,-4.862597942352295,3.929995059967041,1,0.34083637595176697,0.0003782646090257913,0.0003858460404444486,-0.00012991228140890598,0.34083637595176697,0.0003782646090257913,0.0003858460404444486,-0.00012991228140890598
27658.633,-0.019438164308667183,-0.10305703431367874,1.5395175218582153,0.0917019173502922,0.0877145454287529,0.3318043053150177,3.1311845779418945,1.7448594570159912,1.4245129823684692,-50.434112548828125,-5.8551411628723145,4.320279598236084,1,0.3419888913631439,1.5001539395598229e-05,0.0006394204101525247,-0.00013570982264354825,0.3419888913631439,1.5001539395598229e-05,0.0006394204101525247,-0.00013570982264354825
27668.478,-0.018919015303254128,-0.1042572632431984,1.5422420501708984,0.08782324194908142,0.07582330703735352,0.3183170557022095,2.649351119995117,1.810405969619751,1.458397388458252,-49.92045593261719,-4.867422103881836,4.042810916900635,1,0.34370413422584534,0.00038907217094674706,0.00023744371719658375,-0.00013275188393890858,0.34370413422584534,0.00038907217094674706,0.00023744371719658375,-0.00013275188393890858
27678.35,-0.01822984404861927,-0.1044640839099884,1.5452028512954712,0.08451874554157257,0.06881255656480789,0.30661994218826294,2.139683246612549,1.8646817207336426,1.4940571784973145,-49.29804229736328,-2.879020929336548,3.796663522720337,1,0.34486302733421326,0.0004211722407490015,-1.6614605556242168e-05,-0.0001347632787656039,0.34486302733421326,0.0004211722407490015,-1.6614605556242168e-05,-0.0001347632787656039
27688.204,-0.017794160172343254,-0.10573074221611023,1.5476809740066528,0.08033672720193863,0.05906520411372185,0.29349851608276367,1.6494238376617432,1.9034327268600464,1.522317886352539,-48.857093811035156,-1.3557504415512085,4.07785177230835,1,0.34662312269210815,0.0004855336737819016,4.87146717205178e-05,-0.000128847430460155,0.34662312269210815,0.0004855336737819016,4.87146717205178e-05,-0.000128847430460155
27698.074,-0.017183011397719383,-0.10606139898300171,1.550392746925354,0.07685505598783493,0.05362603813409805,0.2823306620121002,1.1479452848434448,1.9194339513778687,1.5586808919906616,-48.40713119506836,-0.4765229821205139,4.1115403175354,1,0.3477877378463745,0.0005513468640856445,0.00016340386355295777,-0.00014073830971028656,0.3477877378463745,0.0005513468640856445,0.00016340386355295777,-0.00014073830971028656
27707.919,-0.016825709491968155,-0.10741233080625534,1.552640438079834,0.07255488634109497,0.04521464183926582,0.2701778709888458,0.6902247667312622,1.9321186542510986,1.590606689453125,-47.4993782043457,0.5867137312889099,4.136322498321533,1,0.3494349718093872,0.00046762858983129263,0.00011178565910086036,-0.00013683384167961776,0.3494349718093872,0.00046762858983129263,0.00011178565910086036,-0.00013683384167961776
27717.79,-0.016301387920975685,-0.10784273594617844,1.5551230907440186,0.06890717148780823,0.04119133576750755,0.26017647981643677,0.2156747579574585,1.936403751373291,1.6207867860794067,-46.13827896118164,0.5393015742301941,3.9006433486938477,1,0.35043618083000183,0.00040826768963597715,0.0003569721011444926,-0.00013434917491395026,0.35043618083000183,0.00040826768963597715,0.0003569721011444926,-0.00013434917491395026
27727.641,-0.01602613553404808,-0.10922860354185104,1.5571725368499756,0.06453371047973633,0.03440326824784279,0.24916009604930878,-0.21209588646888733,1.9362293481826782,1.6586326360702515,-44.14255905151367,0.5836142897605896,3.925940752029419,1,0.3519112765789032,0.00024728343123570085,0.0003635857137851417,-0.00014570762868970633,0.3519112765789032,0.00024728343123570085,0.0003635857137851417,-0.00014570762868970633
27737.51,-0.015583354979753494,-0.10971339792013168,1.5594531297683716,0.06085303798317909,0.031986773014068604,0.2397695779800415,-0.6526731252670288,1.926093578338623,1.6964707374572754,-42.2606086730957,1.0998681783676147,3.8028299808502197,1,0.35287246108055115,0.00028212572215124965,0.00026486587012186646,-0.00014653585094492882,0.35287246108055115,0.00028212572215124965,0.00026486587012186646,-0.00014653585094492882
27747.362,-0.015403426252305508,-0.1110600009560585,1.5613181591033936,0.05629997327923775,0.02741621620953083,0.22896750271320343,-1.071397066116333,1.925723910331726,1.7277014255523682,-41.05022048950195,2.142948627471924,4.137099742889404,1,0.3543975353240967,0.00042826973367482424,0.00014517617819365114,-0.00014209894288796932,0.3543975353240967,0.00042826973367482424,0.00014517617819365114,-0.00014209894288796932
27757.235,-0.015046589076519012,-0.11156497150659561,1.5634021759033203,0.052527233958244324,0.026547318324446678,0.22004185616970062,-1.4897427558898926,1.9044495820999146,1.7674158811569214,-40.877010345458984,4.479849815368652,3.903935670852661,1,0.3553527295589447,0.0007224935106933117,-0.00019421346951276064,-0.00015268834249582142,0.3553527295589447,0.0007224935106933117,-0.00019421346951276064,-0.00015268834249582142
27767.084,-0.014953750185668468,-0.11288865655660629,1.5650935173034668,0.04787614941596985,0.02339799702167511,0.21011531352996826,-1.8843039274215698,1.8761011362075806,1.8023875951766968,-39.51279067993164,4.845119476318359,3.833416223526001,1,0.3567580282688141,0.0004905341775156558,0.00021163462952245027,-0.0001478964986745268,0.3567580282688141,0.0004905341775156558,0.00021163462952245027,-0.0001478964986745268
27776.963,-0.014681302942335606,-0.11338745802640915,1.5669984817504883,0.04412408173084259,0.02396705001592636,0.20200523734092712,-2.285507917404175,1.8320623636245728,1.8408393859863281,-36.96881866455078,4.2762885093688965,4.213020324707031,1,0.35761046409606934,0.00024696081527508795,0.0004339154693298042,-0.0001565928105264902,0.35761046409606934,0.00024696081527508795,0.0004339154693298042,-0.0001565928105264902
27786.804,-0.014667438343167305,-0.11463318020105362,1.5685354471206665,0.03963139280676842,0.02260870486497879,0.19239188730716705,-2.6512746810913086,1.7929285764694214,1.87796151638031,-35.208133697509766,4.873286247253418,3.8085367679595947,1,0.3590254485607147,0.00040197669295594096,0.0001951813028426841,-0.0001537531934445724,0.3590254485607147,0.00040197669295594096,0.0001951813028426841,-0.0001537531934445724
27796.666,-0.01447783038020134,-0.11509694159030914,1.570272445678711,0.03595764935016632,0.024525918066501617,0.18469266593456268,-3.005237340927124,1.746506690979004,1.9125339984893799,-33.125083923339844,5.498586177825928,3.4856927394866943,1,0.3598702847957611,0.0003472937096375972,0.00017469533486291766,-0.00014978957187850028,0.3598702847957611,0.0003472937096375972,0.00017469533486291766,-0.00014978957187850028
27806.531,-0.01454170886427164,-0.11626727133989334,1.5716694593429565,0.03151640668511391,0.024460282176733017,0.17642389237880707,-3.3250198364257812,1.7071417570114136,1.9429752826690674,-31.806371688842773,4.8826680183410645,3.8367581367492676,1,0.36103078722953796,0.0005142462905496359,0.00047053213347680867,-0.00014854723121970892,0.36103078722953796,0.0005142462905496359,0.00047053213347680867,-0.00014854723121970892
27816.394,-0.014433637261390686,-0.11666520684957504,1.5732585191726685,0.027930844575166702,0.027673983946442604,0.16926883161067963,-3.646909236907959,1.6598535776138306,1.9764798879623413,-29.12492561340332,5.62882661819458,3.4180800914764404,1,0.3618233799934387,0.00022679746325593442,0.00017646969354245812,-0.00015085442282725126,0.3618233799934387,0.00022679746325593442,0.00017646969354245812,-0.00015085442282725126
27826.254,-0.014370698481798172,-0.1170348972082138,1.574739933013916,0.024358578026294708,0.031411319971084595,0.16224901378154755,-3.9464962482452393,1.605697512626648,2.005801200866699,-28.107479095458984,7.44424295425415,3.7217485904693604,1,0.36263933777809143,0.00061522435862571,-0.00010323640162823722,-0.00014913882478140295,0.36263933777809143,0.00061522435862571,-0.00010323640162823722,-0.00014913882478140295
27836.105,-0.014541023410856724,-0.11801937222480774,1.5759838819503784,0.020186658948659897,0.03357125073671341,0.15483194589614868,-4.230568885803223,1.5344301462173462,2.0406196117401123,-26.461259841918945,7.907771110534668,3.7395949363708496,1,0.36367684602737427,0.0004955346812494099,0.00016227470769081265,-0.00015765766147524118,0.36367684602737427,0.0004955346812494099,0.00016227470769081265,-0.00015765766147524118
27845.971,-0.014551474712789059,-0.11830427497625351,1.5773342847824097,0.01679847575724125,0.03820253908634186,0.1481456458568573,-4.492077827453613,1.4530125856399536,2.0718154907226562,-24.48198127746582,8.105047225952148,3.928485631942749,1,0.364484041929245,0.00043988379184156656,0.0002098602126352489,-0.00015588289534207433,0.364484041929245,0.00043988379184156656,0.0002098602126352489,-0.00015588289534207433
27855.845,-0.014793639071285725,-0.1191580668091774,1.5784627199172974,0.012846306897699833,0.04138427972793579,0.14073877036571503,-4.74306583404541,1.371931791305542,2.102862596511841,-21.861398696899414,7.51678466796875,3.998030662536621,1,0.36558565497398376,0.00027825433062389493,0.00040084755164571106,-0.00015759849338792264,0.36558565497398376,0.00027825433062389493,0.00040084755164571106,-0.00015759849338792264
27865.688,-0.01507633551955223,-0.11994880437850952,1.5795081853866577,0.008921010419726372,0.04483452066779137,0.13323228061199188,-4.9532647132873535,1.2983052730560303,2.1353704929351807,-20.15961456298828,8.234500885009766,3.85744309425354,1,0.3667593002319336,0.0004608537128660828,0.00011936708324356005,-0.0001599056995473802,0.3667593002319336,0.0004608537128660828,0.00011936708324356005,-0.0001599056995473802
27875.559,-0.015188546851277351,-0.12004030495882034,1.5806986093521118,0.0058839893899858,0.0509556382894516,0.12722130119800568,-5.152055740356445,1.2132070064544678,2.1668524742126465,-18.16005516052246,9.09937572479248,3.938153028488159,1,0.36749356985092163,0.0004077837220393121,5.436041101347655e-05,-0.00016061558562796563,0.36749356985092163,0.0004077837220393121,5.436041101347655e-05,-0.00016061558562796563
27885.411,-0.015530998818576336,-0.12066511809825897,1.5816471576690674,0.0022255945950746536,0.05549939349293709,0.120879165828228,-5.33142614364624,1.1246272325515747,2.195866823196411,-16.44063949584961,9.588445663452148,4.184695243835449,1,0.36843469738960266,0.0004623054410330951,0.00011614094546530396,-0.00016061558562796563,0.36843469738960266,0.0004623054410330951,0.00011614094546530396,-0.00016061558562796563
27895.281,-0.01570713147521019,-0.12061993777751923,1.5827301740646362,-0.0005795179749839008,0.06238481029868126,0.1157044991850853,-5.4924845695495605,1.0240658521652222,2.2276246547698975,-14.642900466918945,9.93311595916748,3.853545665740967,1,0.3690221607685089,0.0004589180462062359,0.0001261419674847275,-0.00016310025239363313,0.3690221607685089,0.0004589180462062359,0.0001261419674847275,-0.00016310025239363313
27905.131,-0.016106192022562027,-0.12108854204416275,1.5835939645767212,-0.003996026236563921,0.06749561429023743,0.10975038260221481,-5.62472677230835,0.93198162317276,2.2574946880340576,-12.029863357543945,10.558985710144043,4.323245525360107,1,0.36991629004478455,0.0002505095617379993,4.774683475261554e-05,-0.00016540742944926023,0.36991629004478455,0.0002505095617379993,4.774683475261554e-05,-0.00016540742944926023
27914.989,-0.01633806712925434,-0.12088755518198013,1.5845777988433838,-0.006469036918133497,0.07505393028259277,0.104723259806633,-5.742040157318115,0.8247791528701782,2.2891921997070312,-10.083622932434082,10.254669189453125,4.377777576446533,1,0.3705236613750458,0.00038681388832628727,0.00023905676789581776,-0.00016948938718996942,0.3705236613750458,0.00038681388832628727,0.00023905676789581776,-0.00016948938718996942
27924.85,-0.016785502433776855,-0.12117338925600052,1.5853631496429443,-0.009540249593555927,0.08089103549718857,0.09930488467216492,-5.833984375,0.7304213047027588,2.3225760459899902,-8.42367935180664,9.959485054016113,4.604081153869629,1,0.3713306188583374,0.0004356898716650903,0.0002505095617379993,-0.00017469533486291766,0.3713306188583374,0.0004356898716650903,0.0002505095617379993,-0.00017469533486291766
27934.719,-0.017070092260837555,-0.12081598490476608,1.5862548351287842,-0.011738212779164314,0.08887657523155212,0.0947553813457489,-5.91281795501709,0.6284782886505127,2.3575594425201416,-6.257657527923584,9.724776268005371,4.3958845138549805,1,0.3718717694282532,0.0003219685168005526,0.0002392180758761242,-0.0001767658832250163,0.3718717694282532,0.0003219685168005526,0.0002392180758761242,-0.0001767658832250163
27944.575,-0.01738077774643898,-0.12038423866033554,1.5870821475982666,-0.013842595741152763,0.09711030125617981,0.09011557698249817,-5.977787494659424,0.5350760817527771,2.3908350467681885,-3.905317544937134,9.145654678344727,4.255975723266602,1,0.37247002124786377,0.00026405934477224946,0.0003251946181990206,-0.00017516860680188984,0.37247002124786377,0.00026405934477224946,0.0003251946181990206,-0.00017516860680188984
