timestamp,stateEstimate.x,stateEstimate.y,stateEstimate.z,stateEstimate.vx,stateEstimate.vy,stateEstimate.vz,stateEstimate.roll,stateEstimate.pitch,stateEstimate.yaw,gyro.x,gyro.y,gyro.z,ILBC.nominal_controller,ILBC.nominal_thrust,ILBC.nominal_torqueX,ILBC.nominal_torqueY,ILBC.nominal_torqueZ,ILBC.full_thrust,ILBC.full_torqueX,ILBC.full_torqueY,ILBC.full_torqueZ
26574.648,0.0329558402299881,-0.7719088196754456,0.7050011157989502,0.051472097635269165,0.053063634783029556,0.0012036568950861692,-0.8897980451583862,-1.0213443040847778,-22.227474212646484,-0.02634306624531746,-0.0212709940969944,-0.13132096827030182,1,0.0,0.0,0.0,0.0,0.0,0.0,0.0,0.0
26584.5,0.032782021909952164,-0.7720929980278015,0.7050002217292786,0.05093661695718765,0.052506327629089355,0.001095788786187768,-0.8915174007415771,-1.0216675996780396,-22.235782623291016,0.0444042831659317,0.0170697383582592,0.27545204758644104,1,0.0,0.0,0.0,0.0,0.0,0.0,0.0,0.0
26594.359,0.03296807408332825,-0.7719029188156128,0.705005943775177,0.05163666605949402,0.053220637142658234,0.0010005049407482147,-0.8911364078521729,-1.0217138528823853,-22.226285934448242,0.09956777095794678,0.09566156566143036,0.20087045431137085,1,0.0,0.0,0.0,0.0,0.0,0.0,0.0,0.0
26604.217,0.03279212862253189,-0.7720871567726135,0.705004096031189,0.05112877115607262,0.05259955674409866,0.0008519295952282846,-0.8915544748306274,-1.022873878479004,-22.23349952697754,-0.11664989590644836,-0.12521284818649292,-0.061074577271938324,1,0.0,0.0,0.0,0.0,0.0,0.0,0.0,0.0
26614.086,0.03297759220004082,-0.7718985080718994,0.7050070762634277,0.051682546734809875,0.0531369149684906,0.0008695040014572442,-0.8917115330696106,-1.0212115049362183,-22.227272033691406,-0.06126942113041878,0.1757730394601822,-0.13800546526908875,1,0.0,0.0,0.0,0.0,0.0,0.0,0.0,0.0
26781.729,0.03419316187500954,-0.7704941630363464,0.7093023061752319,0.054631270468235016,0.07991985976696014,0.15149980783462524,-5.079049587249756,2.8988513946533203,-20.425886154174805,-120.67788696289062,-97.80803680419922,31.130210876464844,1,0.614402711391449,0.0033761525992304087,0.00022776529658585787,0.00021723036479670554,0.614402711391449,0.0033761525992304087,0.00022776529658585787,0.00021723036479670554
26791.596,0.03392281010746956,-0.7704557776451111,0.7109894752502441,0.0499555766582489,0.09040294587612152,0.19069845974445343,-6.2108283042907715,3.7746047973632812,-20.07207489013672,-109.52629089355469,-83.20572662353516,33.937931060791016,1,0.6060358881950378,-0.0013896586606279016,-0.0025855875574052334,0.00018936667765956372,0.6060358881950378,-0.0013896586606279016,-0.0025855875574052334,0.00018936667765956372
26801.448,0.0344049297273159,-0.7694628834724426,0.7131165266036987,0.04608921706676483,0.10918135195970535,0.23432490229606628,-7.321900844573975,4.557517051696777,-19.637298583984375,-84.91610717773438,-72.03630065917969,34.956092834472656,1,0.5965062379837036,-0.0048288824036717415,-0.0020374669693410397,6.329969619400799e-05,0.5965062379837036,-0.0048288824036717415,-0.0020374669693410397,6.329969619400799e-05
26811.316,0.03435995802283287,-0.768629252910614,0.7157224416732788,0.03960023447871208,0.12982222437858582,0.2790627181529999,-8.19001579284668,5.226145267486572,-19.210189819335938,-69.42889404296875,-72.19355010986328,33.11335372924805,1,0.5866343975067139,-0.003407284850254655,0.0005545730236917734,6.803238647989929e-05,0.5866343975067139,-0.003407284850254655,0.0005545730236917734,6.803238647989929e-05
26821.171,0.0347285158932209,-0.7672132849693298,0.718729555606842,0.03367147594690323,0.15405303239822388,0.3219887316226959,-8.934008598327637,5.8947553634643555,-18.768619537353516,-76.89031219482422,-79.23625946044922,33.71658706665039,1,0.5771480202674866,0.0016993677709251642,0.002533324295654893,2.7212954591959715e-05,0.5771480202674866,0.0016993677709251642,0.002533324295654893,2.7212954591959715e-05
26831.033,0.03352685645222664,-0.7667615413665771,0.7221615314483643,0.02214072085916996,0.17476850748062134,0.3630978763103485,-9.68567180633545,6.605332374572754,-18.386842727661133,-97.57855987548828,-87.57859802246094,34.25239944458008,1,0.5680509209632874,0.005285541992634535,0.0034813249949365854,8.175717812264338e-05,0.5680509209632874,0.005285541992634535,0.0034813249949365854,8.175717812264338e-05
26840.892,0.03273150697350502,-0.765476644039154,0.7261635661125183,0.010600399225950241,0.20138384401798248,0.4029158651828766,-10.7280912399292,7.423366069793701,-17.9189453125,-112.07255554199219,-86.40223693847656,34.634334564208984,1,0.5592147707939148,0.004979865625500679,0.0019114863825961947,-4.762267417390831e-05,0.5592147707939148,0.004979865625500679,0.0019114863825961947,-4.762267417390831e-05
26850.766,0.032297465950250626,-0.76347815990448,0.7306047677993774,-0.0007598378579132259,0.23308996856212616,0.441255122423172,-11.953242301940918,8.234636306762695,-17.404014587402344,-106.2823715209961,-79.01325988769531,35.49630355834961,1,0.5506882667541504,0.0009597758762538433,0.0007676593959331512,-0.00013387591752689332,0.5506882667541504,0.0009597758762538433,0.0007676593959331512,-0.00013387591752689332
26860.618,0.031265001744031906,-0.7613305449485779,0.7358018159866333,-0.015695076435804367,0.26860299706459045,0.48161086440086365,-13.15711498260498,9.001858711242676,-16.867238998413086,-82.31671905517578,-68.27033996582031,35.49197769165039,1,0.5416017174720764,-0.003375184955075383,8.920269465306774e-05,-0.00018368744349572808,0.5416017174720764,-0.003375184955075383,8.920269465306774e-05,-0.00018368744349572808
26870.467,0.03057066537439823,-0.7586472034454346,0.7409884333610535,-0.028851138427853584,0.3050558269023895,0.5150795578956604,-14.032208442687988,9.583298683166504,-16.363161087036133,-56.73223114013672,-57.651283264160156,35.060760498046875,1,0.5341730117797852,-0.004520141053944826,5.3876494348514825e-05,-0.00016126633272506297,0.5341730117797852,-0.004520141053944826,5.3876494348514825e-05,-0.00016126633272506297
26880.331,0.029217245057225227,-0.755455493927002,0.7472243309020996,-0.04571935161948204,0.34575656056404114,0.5477467775344849,-14.733443260192871,10.127097129821777,-15.836857795715332,-47.829280853271484,-50.735347747802734,34.2808723449707,1,0.5268945693969727,-0.0012791634071618319,0.0009181586792692542,-0.0002055761287920177,0.5268945693969727,-0.0012791634071618319,0.0009181586792692542,-0.0002055761287920177
26890.202,0.028164610266685486,-0.751645565032959,0.7535533905029297,-0.061294641345739365,0.3871343731880188,0.575451672077179,-15.391061782836914,10.578032493591309,-15.32990837097168,-59.30171585083008,-49.16007995605469,34.74192428588867,1,0.5208052396774292,0.0036777963396161795,0.0022928158286958933,-0.00020628602942451835,0.5208052396774292,0.0036777963396161795,0.0022928158286958933,-0.00020628602942451835
26900.046,0.02655896544456482,-0.7480844855308533,0.7596359252929688,-0.07761585712432861,0.4245375096797943,0.597856342792511,-16.14262580871582,10.963292121887207,-14.884419441223145,-76.53893280029297,-42.07304000854492,32.73109436035156,1,0.5159968733787537,0.005285541992634535,0.0012344814604148269,-0.00013440832844935358,0.5159968733787537,0.005285541992634535,0.0012344814604148269,-0.00013440832844935358
26909.914,0.025255756452679634,-0.7438870072364807,0.76581871509552,-0.09268130362033844,0.4640226662158966,0.6181854605674744,-17.026691436767578,11.252716064453125,-14.467825889587402,-80.51963806152344,-30.485876083374023,32.20085525512695,1,0.5116729736328125,0.003855072893202305,0.0001625973090995103,-0.00011234216799493879,0.5116729736328125,0.003855072893202305,0.0001625973090995103,-0.00011234216799493879
26919.768,0.0233590267598629,-0.739547848701477,0.7722946405410767,-0.10944084823131561,0.5044211149215698,0.6381714940071106,-17.85877227783203,11.41089916229248,-14.092482566833496,-65.17115020751953,-16.300796508789062,32.84417724609375,1,0.5074042677879333,-0.0002287331153638661,-0.0006520022870972753,-8.146138134179637e-05,0.5074042677879333,-0.0002287331153638661,-0.0006520022870972753,-8.146138134179637e-05
26929.644,0.021747298538684845,-0.7345523238182068,0.7788589596748352,-0.12462441623210907,0.5465851426124573,0.6564285159111023,-18.47976303100586,11.426802635192871,-13.739806175231934,-38.55226135253906,-4.738689422607422,34.07523727416992,1,0.5035372376441956,-0.0031817778944969177,-0.00035713339457288384,-7.690617348998785e-05,0.5035372376441956,-0.0031817778944969177,-0.00035713339457288384,-7.690617348998785e-05
26939.487,0.02132601849734783,-0.7349033355712891,0.7788088917732239,-0.12615646421909332,0.5453574657440186,0.6561578512191772,-18.471139907836914,11.43891716003418,-13.75532341003418,-17.131513595581055,1.9002578258514404,34.843421936035156,1,0.5042646527290344,-0.003004501573741436,0.0003889108484145254,0.00037595289177261293,0.5042646527290344,-0.003004501573741436,0.0003889108484145254,0.00037595289177261293
26949.344,0.018988139927387238,-0.7290968298912048,0.7863870859146118,-0.14393405616283417,0.5917251706123352,0.6745730042457581,-18.8526554107666,11.353425025939941,-13.39061164855957,-12.419605255126953,4.084023475646973,37.017948150634766,1,0.5003314018249512,0.0005302156787365675,0.0014365989482030272,-0.00012719098594971,0.5003314018249512,0.0005302156787365675,0.0014365989482030272,-0.00012719098594971
26959.206,0.016659285873174667,-0.7235653400421143,0.7932656407356262,-0.1598389893770218,0.6327973008155823,0.6882995367050171,-19.043729782104492,11.224699020385742,-13.070969581604004,-20.350223541259766,7.455478668212891,42.36023712158203,1,0.49754026532173157,0.003683603834360838,0.0012617423199117184,-0.00012257661728654057,0.49754026532173157,0.003683603834360838,0.0012617423199117184,-0.00012257661728654057
26969.078,0.014589768834412098,-0.717341423034668,0.8002377152442932,-0.1740662008523941,0.6741693615913391,0.7000920176506042,-19.265111923217773,11.04612922668457,-12.709953308105469,-28.585281372070312,14.124457359313965,41.471920013427734,1,0.4952111840248108,0.004378675017505884,0.0005058583337813616,-0.00018291838932782412,0.4952111840248108,0.004378675017505884,0.0005058583337813616,-0.00018291838932782412
26978.924,0.011993932537734509,-0.7110087871551514,0.8073449730873108,-0.18927307426929474,0.7147006988525391,0.711082398891449,-19.581130981445312,10.818000793457031,-12.361454010009766,-23.15532112121582,26.495532989501953,41.78486633300781,1,0.49306464195251465,0.0017246929928660393,-0.0009710673475638032,-0.00018433820514474064,0.49306464195251465,0.0017246929928660393,-0.0009710673475638032,-0.00018433820514474064
26988.795,0.009650640189647675,-0.7039685845375061,0.8145329356193542,-0.20272386074066162,0.7566368579864502,0.721854031085968,-19.906518936157227,10.495599746704102,-12.03406810760498,-2.253319263458252,36.04427719116211,40.70428466796875,1,0.49095627665519714,-0.0019056792370975018,-0.0006540993344970047,-0.0001642242568777874,0.49095627665519714,-0.0019056792370975018,-0.0006540993344970047,-0.0001642242568777874
26998.651,0.006534568499773741,-0.6957260966300964,0.8229682445526123,-0.21795842051506042,0.803353488445282,0.7356226444244385,-20.090097427368164,9.991433143615723,-11.717411041259766,21.41786766052246,41.575965881347656,40.39628982543945,1,0.4880843460559845,-0.003095801454037428,4.564984192256816e-05,-0.00016209455498028547,0.4880843460559845,-0.003095801454037428,4.564984192256816e-05,-0.00016209455498028547
27008.518,0.003928848076611757,-0.6878726482391357,0.8303209543228149,-0.23014773428440094,0.8454796671867371,0.7461779117584229,-19.998096466064453,9.488594055175781,-11.474064826965332,34.5120735168457,43.31565856933594,39.40211486816406,1,0.48599347472190857,-0.0012610970297828317,0.0008147609769366682,-7.418487803079188e-05,0.48599347472190857,-0.0012610970297828317,0.0008147609769366682,-7.418487803079188e-05
27018.372,0.0008568908087909222,-0.6800084114074707,0.8377222418785095,-0.2428186684846878,0.8856562972068787,0.7554676532745361,-19.734092712402344,8.969832420349121,-11.256837844848633,32.326454162597656,43.58122253417969,39.393062591552734,1,0.4842025935649872,0.0020852137822657824,0.0011746366508305073,-5.075807712273672e-05,0.4842025935649872,0.0020852137822657824,0.0011746366508305073,-5.075807712273672e-05
27028.226,-0.0019684829749166965,-0.6713682413101196,0.845271110534668,-0.2533295452594757,0.9256407022476196,0.7643296122550964,-19.430908203125,8.444052696228027,-11.027779579162598,25.37105941772461,45.36299514770508,39.919124603271484,1,0.48250457644462585,0.003500197781249881,0.0008525067823939025,-7.885840750532225e-05,0.48250457644462585,0.003500197781249881,0.0008525067823939025,-7.885840750532225e-05
27038.085,-0.0053036948665976524,-0.6623833775520325,0.8533498048782349,-0.2641284465789795,0.9641448855400085,0.7749916315078735,-19.17493438720703,7.878153324127197,-10.787833213806152,24.950098037719727,51.66976547241211,40.96526336669922,1,0.48034438490867615,0.0023768567480146885,-0.00026405934477224946,-0.00010991667659254745,0.48034438490867615,0.0023768567480146885,-0.00026405934477224946,-0.00010991667659254745
27047.963,-0.008311371318995953,-0.6529947519302368,0.8610581159591675,-0.27296891808509827,1.002379059791565,0.7828496098518372,-18.976741790771484,7.289628982543945,-10.563504219055176,37.43660354614258,59.18121337890625,41.555057525634766,1,0.478867769241333,-0.0005381196970120072,-0.0007845966028980911,-0.00010411913535790518,0.478867769241333,-0.0005381196970120072,-0.0007845966028980911,-0.00010411913535790518
27057.806,-0.01207401230931282,-0.6423144340515137,0.8700399994850159,-0.2826942503452301,1.0430127382278442,0.7945153117179871,-18.633821487426758,6.535208225250244,-10.323062896728516,55.0315055847168,67.68158721923828,40.837711334228516,1,0.47642964124679565,-0.0021090873051434755,-0.0013254585210233927,-0.0001291432126890868,0.47642964124679565,-0.0021090873051434755,-0.0013254585210233927,-0.0001291432126890868
27067.664,-0.015236574225127697,-0.6322402954101562,0.8778671026229858,-0.289756715297699,1.079658031463623,0.803126871585846,-18.17031478881836,5.8029375076293945,-10.134586334228516,70.59695434570312,68.99187469482422,41.519813537597656,1,0.47473597526550293,-0.002212646184489131,4.5004617277299985e-05,-7.737945270491764e-05,0.47473597526550293,-0.002212646184489131,4.5004617277299985e-05,-7.737945270491764e-05
27077.524,-0.018827326595783234,-0.6219727396965027,0.8862030506134033,-0.2964729368686676,1.11354398727417,0.8137848377227783,-17.49891471862793,5.008800983428955,-9.94162368774414,74.71954345703125,66.7455825805664,40.94313049316406,1,0.47251906991004944,-2.2744266971130855e-05,0.0008100830600596964,-8.696314034750685e-05,0.47251906991004944,-2.2744266971130855e-05,0.0008100830600596964,-8.696314034750685e-05
27087.406,-0.022085929289460182,-0.6112581491470337,0.8941999077796936,-0.3011919856071472,1.1469932794570923,0.8217390775680542,-16.79241371154785,4.25742244720459,-9.743220329284668,71.08406829833984,64.2964859008789,41.98139572143555,1,0.47096070647239685,0.001729370909743011,0.0009002536535263062,-0.00010944340465357527,0.47096070647239685,0.001729370909743011,0.0009002536535263062,-0.00010944340465357527
27097.245,-0.025738224387168884,-0.6004034280776978,0.9027099013328552,-0.305748850107193,1.1773401498794556,0.8321980237960815,-16.07462501525879,3.5056400299072266,-9.510061264038086,66.36224365234375,64.7951431274414,42.08578109741211,1,0.4687657654285431,0.002162157092243433,0.0002348627895116806,-0.00016315942048095167,0.4687657654285431,0.002162157092243433,0.0002348627895116806,-0.00016315942048095167
27107.111,-0.02906196378171444,-0.5891385078430176,0.9108843207359314,-0.3084399700164795,1.2069683074951172,0.8400930166244507,-15.43089771270752,2.7846622467041016,-9.277959823608398,68.89530181884766,68.54377746582031,42.19350051879883,1,0.4671947956085205,0.0006361942505463958,-0.0006332907360047102,-0.00017244731134269387,0.4671947956085205,0.0006361942505463958,-0.0006332907360047102,-0.00017244731134269387
27116.963,-0.03272851184010506,-0.5777705311775208,0.9195737838745117,-0.31076139211654663,1.2340821027755737,0.8504698276519775,-14.763763427734375,2.0054140090942383,-9.029596328735352,76.71722412109375,74.50613403320312,41.095008850097656,1,0.4649930000305176,-0.0007268487242981791,-0.0013999822549521923,-0.00019534169405233115,0.4649930000305176,-0.0007268487242981791,-0.0013999822549521923,-0.00019534169405233115
27126.834,-0.036064840853214264,-0.5660138726234436,0.9279265403747559,-0.31119996309280396,1.2605806589126587,0.8590541481971741,-14.043800354003906,1.205567717552185,-8.809918403625488,89.82776641845703,76.70965576171875,41.41949462890625,1,0.4632229208946228,-0.0023213671520352364,-0.0008341178181581199,-0.00017132329230662435,0.4632229208946228,-0.0023213671520352364,-0.0008341178181581199,-0.00017132329230662435
27136.695,-0.039703235030174255,-0.5542269349098206,0.93681401014328,-0.311124712228775,1.2842397689819336,0.8704724907875061,-13.168181419372559,0.3507210314273834,-8.56513786315918,97.23583984375,73.41263580322266,40.72650909423828,1,0.4607330858707428,-0.0015238659689202905,0.00028664228739216924,-0.00020794247393496335,0.4607330858707428,-0.0015238659689202905,0.00028664228739216924,-0.00020794247393496335
27146.553,-0.043008700013160706,-0.5420365333557129,0.9453495740890503,-0.30917203426361084,1.3071725368499756,0.8789631724357605,-12.231819152832031,-0.448835551738739,-8.325882911682129,96.26499938964844,67.74674224853516,40.260711669921875,1,0.45895665884017944,0.0002238939341623336,0.0008678309386596084,-0.00020788332039956003,0.45895665884017944,0.0002238939341623336,0.0008678309386596084,-0.00020788332039956003
27156.407,-0.04657488688826561,-0.5299072265625,0.9544300436973572,-0.3067798912525177,1.3264148235321045,0.8897013664245605,-11.252530097961426,-1.2266013622283936,-8.049960136413574,90.23042297363281,63.01050567626953,39.037689208984375,1,0.4566068947315216,0.0015256403712555766,0.0007460442720912397,-0.00025645250570960343,0.4566068947315216,0.0015256403712555766,0.0007460442720912397,-0.00025645250570960343
27166.281,-0.049800317734479904,-0.517373263835907,0.9631446003913879,-0.3025529682636261,1.3450409173965454,0.8974735736846924,-10.348816871643066,-1.917944312095642,-7.780869007110596,86.73047637939453,62.736820220947266,37.934165954589844,1,0.4549809992313385,0.00121576979290694,-0.00026486587012186646,-0.0002516015083529055,0.4549809992313385,0.00121576979290694,-0.00026486587012186646,-0.0002516015083529055
27176.126,-0.053237222135066986,-0.5049787163734436,0.9724048376083374,-0.29792994260787964,1.360169529914856,0.9077926278114319,-9.464296340942383,-2.6150949001312256,-7.484435558319092,88.78446960449219,66.51993560791016,37.103797912597656,1,0.45270824432373047,5.678001616615802e-05,-0.001366430544294417,-0.0002922434941865504,0.45270824432373047,5.678001616615802e-05,-0.001366430544294417,-0.0002922434941865504
27185.99,-0.05633995682001114,-0.4921956956386566,0.9813026785850525,-0.29164400696754456,1.3748040199279785,0.915705144405365,-8.594950675964355,-3.3116164207458496,-7.215516567230225,97.94829559326172,66.0139389038086,36.61978530883789,1,0.4510204493999481,-0.0016974321333691478,-0.0006281289388425648,-0.00026609539054334164,0.4510204493999481,-0.0016974321333691478,-0.0006281289388425648,-0.00026609539054334164
27195.845,-0.05960174277424812,-0.47963178157806396,0.9907548427581787,-0.2847294211387634,1.3860538005828857,0.9263437390327454,-7.622021198272705,-4.042637825012207,-6.921704292297363,104.60877227783203,67.2137222290039,34.876529693603516,1,0.4486408829689026,-0.0014596657129004598,-0.0011846376582980156,-0.00029709446243941784,0.4486408829689026,-0.0014596657129004598,-0.0011846376582980156,-0.00029709446243941784
27205.718,-0.06254057586193085,-0.46666157245635986,0.9998315572738647,-0.276266872882843,1.3970211744308472,0.9345573782920837,-6.6014485359191895,-4.739352226257324,-6.648367404937744,106.61673736572266,61.35303497314453,33.76328659057617,1,0.44685032963752747,-0.0006089334492571652,0.00030519257416017354,-0.0002753832668531686,0.44685032963752747,-0.0006089334492571652,0.00030519257416017354,-0.0002753832668531686
27215.568,-0.06543934345245361,-0.45322445034980774,1.009476661682129,-0.266549676656723,1.4062997102737427,0.9451709389686584,-5.5001397132873535,-5.414866924285889,-6.35948371887207,103.45484161376953,53.7044563293457,31.75015640258789,1,0.44444897770881653,0.0005324739613570273,0.0007981463568285108,-0.0002927167515736073,0.44444897770881653,0.0005324739613570273,0.0007981463568285108,-0.0002927167515736073
27225.426,-0.06831423193216324,-0.4409520626068115,1.0187324285507202,-0.25661489367485046,1.4103419780731201,0.9513798356056213,-4.466520309448242,-5.995415687561035,-6.0769124031066895,99.84063720703125,46.62869644165039,30.6389102935791,1,0.4431305527687073,0.00071216985816136,0.0008068569586612284,-0.000289048912236467,0.4431305527687073,0.00071216985816136,0.0008068569586612284,-0.000289048912236467
27235.282,-0.07111398130655289,-0.42831501364707947,1.0285519361495972,-0.24568386375904083,1.4125338792800903,0.9604489207267761,-3.427744150161743,-6.514835834503174,-5.775925636291504,99.11346435546875,45.421295166015625,29.52019691467285,1,0.4410894215106964,9.549366950523108e-05,-0.00048488847096450627,-0.0003167942923028022,0.4410894215106964,9.549366950523108e-05,-0.00048488847096450627,-0.0003167942923028022
27245.149,-0.07359657436609268,-0.41524195671081543,1.0379639863967896,-0.23347429931163788,1.4148982763290405,0.9671457409858704,-2.434523105621338,-6.983498573303223,-5.496691703796387,103.0097427368164,46.17848587036133,28.3270263671875,1,0.4396265149116516,-0.0010412358678877354,-0.0010689806658774614,-0.00029319000896066427,0.4396265149116516,-0.0010412358678877354,-0.0010689806658774614,-0.00029319000896066427
27255.01,-0.07611054927110672,-0.4027025103569031,1.047953486442566,-0.22090062499046326,1.4128683805465698,0.9765281081199646,-1.3747737407684326,-7.457757472991943,-5.201510429382324,107.93358612060547,45.812171936035156,26.679767608642578,1,0.4374837577342987,-0.0015443519223481417,-0.0009946181671693921,-0.00031389552168548107,0.4374837577342987,-0.0015443519223481417,-0.0009946181671693921,-0.00031389552168548107
27264.862,-0.0783250704407692,-0.3897106647491455,1.0575274229049683,-0.2073449343442917,1.4111692905426025,0.9829788208007812,-0.29882317781448364,-7.921809196472168,-4.929948806762695,109.92092895507812,43.86766815185547,26.20055389404297,1,0.43549805879592896,-0.0011273736599832773,-0.0007721759611740708,-0.0002927167515736073,0.43549805879592896,-0.0011273736599832773,-0.0007721759611740708,-0.0002927167515736073
27274.73,-0.08044274151325226,-0.37637585401535034,1.0676617622375488,-0.19305919110774994,1.4078763723373413,0.9915329813957214,0.8475016951560974,-8.374616622924805,-4.646641731262207,106.07799530029297,36.195804595947266,24.865333557128906,1,0.4290182590484619,8.597656415076926e-05,0.0005126332398504019,-0.00030993190011940897,0.4290182590484619,8.597656415076926e-05,0.0005126332398504019,-0.00030993190011940897
27284.591,-0.08244610577821732,-0.3645153343677521,1.0773882865905762,-0.17862223088741302,1.3990015983581543,0.9960480332374573,1.9218919277191162,-8.746763229370117,-4.369658946990967,101.02764129638672,27.874231338500977,23.565290451049805,1,0.42369771003723145,0.00038149073952808976,0.0008125026943162084,-0.0003046667843591422,0.42369771003723145,0.00038149073952808976,0.0008125026943162084,-0.0003046667843591422
27294.452,-0.08432262390851974,-0.3524366617202759,1.0876737833023071,-0.16357837617397308,1.388073444366455,1.002874732017517,2.992340087890625,-9.048270225524902,-4.092949867248535,97.1591796875,21.76647186279297,22.079452514648438,1,0.41747623682022095,0.00013840128667652607,0.00045633711852133274,-0.00030561332823708653,0.41747623682022095,0.00013840128667652607,0.00045633711852133274,-0.00030561332823708653
27304.311,-0.0859222337603569,-0.33984169363975525,1.0975027084350586,-0.1478586196899414,1.3782169818878174,1.0064990520477295,3.9810736179351807,-9.257063865661621,-3.8476433753967285,96.4251937866211,19.855680465698242,21.232568740844727,1,0.4122314751148224,-0.000594093173276633,-0.00045214311103336513,-0.00027106472407467663,0.4122314751148224,-0.000594093173276633,-0.00045214311103336513,-0.00027106472407467663
27314.163,-0.08744995296001434,-0.32809215784072876,1.107890009880066,-0.13205868005752563,1.363511323928833,1.012486457824707,4.988877773284912,-9.44361400604248,-3.5974628925323486,98.00064086914062,19.13127326965332,20.558134078979492,1,0.4060741066932678,-0.0012990041868761182,-0.0008016951032914221,-0.00028301472775638103,0.4060741066932678,-0.0012990041868761182,-0.0008016951032914221,-0.00028301472775638103
27324.036,-0.08871624618768692,-0.31580984592437744,1.1178141832351685,-0.11584511399269104,1.350137710571289,1.0149089097976685,5.971352577209473,-9.617530822753906,-3.3667564392089844,99.2563247680664,18.355592727661133,19.284202575683594,1,0.4009877145290375,-0.0014424058608710766,-0.0009012214723043144,-0.0002596470876596868,0.4009877145290375,-0.0014424058608710766,-0.0009012214723043144,-0.0002596470876596868
27333.885,-0.08994390070438385,-0.3020009398460388,1.1292791366577148,-0.09784078598022461,1.3340604305267334,1.0193063020706177,7.117074012756348,-9.804062843322754,-3.116591453552246,96.2593002319336,15.2289457321167,18.331077575683594,1,0.3945954144001007,-0.0006586159579455853,-0.0004587567236740142,-0.00028774741804227233,0.3945954144001007,-0.0006586159579455853,-0.0004587567236740142,-0.00028774741804227233
27343.738,-0.0908895805478096,-0.29139193892478943,1.1391501426696777,-0.08160301297903061,1.3133233785629272,1.0185446739196777,8.06837272644043,-9.934276580810547,-2.8990228176116943,90.69206237792969,8.786356925964355,16.91185760498047,1,0.3902350664138794,-0.00013243293506093323,0.00033148564398288727,-0.0002464547287672758,0.3902350664138794,-0.00013243293506093323,0.00033148564398288727,-0.0002464547287672758
27353.598,-0.09164298325777054,-0.2812110483646393,1.148859977722168,-0.06502168625593185,1.2903388738632202,1.0162155628204346,8.957725524902344,-10.00088882446289,-2.7148725986480713,84.18991088867188,2.414184808731079,16.23463249206543,1,0.3863084018230438,9.613888687454164e-05,0.00044907830306328833,-0.00020800162747036666,0.3863084018230438,9.613888687454164e-05,0.00044907830306328833,-0.00020800162747036666
27363.467,-0.09221809357404709,-0.2698330879211426,1.1588125228881836,-0.04854348301887512,1.2700433731079102,1.0142743587493896,9.807428359985352,-9.999361038208008,-2.543619394302368,79.58141326904297,-3.805579423904419,16.369977951049805,1,0.38212865591049194,-0.00028244833811186254,0.0005618318100459874,-0.0002002518594963476,0.38212865591049194,-0.00028244833811186254,0.0005618318100459874,-0.0002002518594963476
27373.318,-0.0926499143242836,-0.2583322823047638,1.1692237854003906,-0.03234722465276718,1.248766303062439,1.013932228088379,10.644255638122559,-9.935873031616211,-2.3765931129455566,77.92729949951172,-6.7846503257751465,16.54889488220215,1,0.37728410959243774,-0.0009968765079975128,-6.371621566358954e-05,-0.0002033872588071972,0.37728410959243774,-0.0009968765079975128,-6.371621566358954e-05,-0.0002033872588071972
27383.178,-0.09290077537298203,-0.24876762926578522,1.1792079210281372,-0.015956593677401543,1.2213623523712158,1.0110933780670166,11.421151161193848,-9.858112335205078,-2.2152514457702637,74.80166625976562,-7.028391361236572,15.791181564331055,1,0.37323489785194397,-0.0008066956652328372,-0.0007000718032941222,-0.0001978855289053172,0.37323489785194397,-0.0008066956652328372,-0.0007000718032941222,-0.0001978855289053172
27393.038,-0.0929962620139122,-0.23914557695388794,1.189632773399353,0.00010452299466123804,1.1932271718978882,1.010046124458313,12.195199012756348,-9.770191192626953,-2.054760217666626,71.17924499511719,-7.690643787384033,15.274300575256348,1,0.3684828281402588,-0.0007971785380505025,-0.0006813601939938962,-0.0002000152162509039,0.3684828281402588,-0.0007971785380505025,-0.0006813601939938962,-0.0002000152162509039
27402.918,-0.09291093796491623,-0.22719193994998932,1.201204776763916,0.017179671674966812,1.166083812713623,1.0079686641693115,13.031315803527832,-9.651643753051758,-1.8959401845932007,67.83299255371094,-12.159525871276855,14.825004577636719,1,0.3633738160133362,-0.0009363863500766456,0.00017469533486291766,-0.00020155333913862705,0.3633738160133362,-0.0009363863500766456,0.00017469533486291766,-0.00020155333913862705
27412.758,-0.09266656637191772,-0.21837812662124634,1.2113838195800781,0.03252992779016495,1.1353416442871094,1.0030288696289062,13.714773178100586,-9.514188766479492,-1.7656176090240479,61.148014068603516,-16.966337203979492,14.127752304077148,1,0.3596320152282715,-0.0002364758838666603,0.00035890779690817,-0.00016676809173077345,0.3596320152282715,-0.0002364758838666603,0.00035890779690817,-0.00016676809173077345
27422.623,-0.09226999431848526,-0.208293154835701,1.2217649221420288,0.047257453203201294,1.1082323789596558,0.9984689950942993,14.357978820800781,-9.313071250915527,-1.6602634191513062,55.46477508544922,-20.94777488708496,13.148765563964844,1,0.3556608259677887,-0.0004060093779116869,0.0002961594145745039,-0.0001332843239651993,0.3556608259677887,-0.0004060093779116869,0.0002961594145745039,-0.0001332843239651993
27432.479,-0.09172173589468002,-0.20019200444221497,1.231799602508545,0.06192482262849808,1.0751843452453613,0.9915908575057983,14.913911819458008,-9.083208084106445,-1.5814327001571655,49.36748123168945,-24.576580047607422,13.406515121459961,1,0.35240620374679565,-0.00031309662153944373,0.0003208393172826618,-0.00010553892934694886,0.35240620374679565,-0.00031309662153944373,0.0003208393172826618,-0.00010553892934694886
27442.347,-0.09096123278141022,-0.18972289562225342,1.2430062294006348,0.07694055140018463,1.0442299842834473,0.983900249004364,15.47248649597168,-8.778031349182129,-1.5024617910385132,44.08907699584961,-26.197864532470703,13.087631225585938,1,0.3487379848957062,-0.0004613376222550869,-5.419910667114891e-05,-0.00010684042354114354,0.3487379848957062,-0.0004613376222550869,-5.419910667114891e-05,-0.00010684042354114354
27452.199,-0.09013309329748154,-0.18244384229183197,1.2527107000350952,0.09041161090135574,1.009785771369934,0.9740630984306335,15.89385986328125,-8.504239082336426,-1.4405021667480469,40.46328353881836,-26.696773529052734,13.701027870178223,1,0.34632250666618347,-0.0008721862104721367,-0.00029551415354944766,-9.270152077078819e-05,0.34632250666618347,-0.0008721862104721367,-0.00029551415354944766,-9.270152077078819e-05
27462.062,-0.08916356414556503,-0.17379751801490784,1.2626793384552002,0.10302316397428513,0.9796996116638184,0.9653318524360657,16.309616088867188,-8.204371452331543,-1.3838403224945068,36.959327697753906,-29.471445083618164,13.951312065124512,1,0.3434745669364929,-0.0009355798829346895,0.00025179999647662044,-9.027602936839685e-05,0.3434745669364929,-0.0009355798829346895,0.00025179999647662044,-9.027602936839685e-05
27471.924,-0.08809544146060944,-0.16724932193756104,1.2721807956695557,0.11533229053020477,0.9438565969467163,0.9541229009628296,16.66457748413086,-7.893885612487793,-1.3322718143463135,31.012659072875977,-30.573192596435547,14.114861488342285,1,0.341450959444046,-0.0004293988458812237,-6.210314313648269e-05,-8.731809066375718e-05,0.341450959444046,-0.0004293988458812237,-6.210314313648269e-05,-8.731809066375718e-05
27481.787,-0.08688776940107346,-0.1592828333377838,1.2819101810455322,0.12676073610782623,0.9133517146110535,0.9434370398521423,16.97031021118164,-7.5504302978515625,-1.280583143234253,24.21853256225586,-33.81235122680664,14.559998512268066,1,0.339161217212677,-0.0001493701565777883,0.0004918246413581073,-9.287899592891335e-05,0.339161217212677,-0.0001493701565777883,0.0004918246413581073,-9.287899592891335e-05
27491.638,-0.08559431880712509,-0.15347328782081604,1.291172742843628,0.13810761272907257,0.8763806223869324,0.9309821724891663,17.205493927001953,-7.207732677459717,-1.234723687171936,17.16470718383789,-35.00252914428711,14.382977485656738,1,0.33752259612083435,-2.5486482627457008e-05,0.0001174313947558403,-8.63123859744519e-05,0.33752259612083435,-2.5486482627457008e-05,0.0001174313947558403,-8.63123859744519e-05
27501.507,-0.08416471630334854,-0.14624333381652832,1.300654411315918,0.14844466745853424,0.8448775410652161,0.9193916320800781,17.382320404052734,-6.827648162841797,-1.1968787908554077,12.617770195007324,-37.11310577392578,15.029644012451172,1,0.3355397582054138,-0.0004965025000274181,0.000394717906601727,-8.258539310190827e-05,0.3355397582054138,-0.0004965025000274181,0.000394717906601727,-8.258539310190827e-05
27511.363,-0.08267417550086975,-0.1411474347114563,1.3096421957015991,0.15858504176139832,0.8076375722885132,0.9056019186973572,17.4999942779541,-6.451376438140869,-1.162023901939392,8.140885353088379,-36.51388168334961,14.863469123840332,1,0.3343311548233032,-0.0005256991134956479,-0.00017082398699130863,-7.915420428616926e-05,0.3343311548233032,-0.0005256991134956479,-0.00017082398699130863,-7.915420428616926e-05
27521.229,-0.08109264075756073,-0.13500450551509857,1.318274974822998,0.16798456013202667,0.7751969695091248,0.8897754549980164,17.566308975219727,-6.079536437988281,-1.1318531036376953,2.9540841579437256,-36.01483154296875,14.882516860961914,1,0.33379217982292175,-0.00031487102387472987,-0.00016227470769081265,-7.477646431652829e-05,0.33379217982292175,-0.00031487102387472987,-0.00016227470769081265,-7.477646431652829e-05
27531.081,-0.0794040635228157,-0.12894175946712494,1.3271440267562866,0.17640958726406097,0.743463933467865,0.8755684494972229,17.58988380432129,-5.6894941329956055,-1.0981608629226685,-2.790386199951172,-36.814002990722656,15.544726371765137,1,0.3327195346355438,-9.839719132287428e-05,0.00014920886314939708,-8.530670311301947e-05,0.3327195346355438,-9.839719132287428e-05,0.00014920886314939708,-8.530670311301947e-05
27540.937,-0.07767215371131897,-0.12476742267608643,1.3358924388885498,0.18446388840675354,0.7066677808761597,0.861539363861084,17.55864143371582,-5.296121597290039,-1.06666898727417,-7.50380802154541,-40.11766815185547,15.515572547912598,1,0.3316477835178375,-0.00028438400477170944,0.0008075021905824542,-8.370941941393539e-05,0.3316477835178375,-0.00028438400477170944,0.0008075021905824542,-8.370941941393539e-05
27550.798,-0.07590258866548538,-0.1210642158985138,1.3442997932434082,0.1918521225452423,0.6694128513336182,0.846433162689209,17.483844757080078,-4.874293804168701,-1.0410958528518677,-11.721343994140625,-41.70675277709961,15.376192092895508,1,0.3310004770755768,-0.00038084553671069443,0.0005571538931690156,-7.649206963833421e-05,0.3310004770755768,-0.00038084553671069443,0.0005571538931690156,-7.649206963833421e-05
27560.665,-0.07398810982704163,-0.11593261361122131,1.3528635501861572,0.19846013188362122,0.6386388540267944,0.8316107392311096,17.363332748413086,-4.429926872253418,-1.019073247909546,-15.92861557006836,-42.333404541015625,14.946799278259277,1,0.3301922380924225,-0.00031196748022921383,0.00042956016841344535,-6.992545968387276e-05,0.3301922380924225,-0.00031196748022921383,0.00042956016841344535,-6.992545968387276e-05
27570.521,-0.0720330998301506,-0.11123986542224884,1.3610963821411133,0.20440344512462616,0.607683539390564,0.8160855770111084,17.197471618652344,-3.983018159866333,-0.9976288080215454,-20.066625595092773,-40.93248748779297,16.104257583618164,1,0.32971182465553284,-0.0002532517828512937,9.517105354461819e-06,-7.838514284230769e-05,0.32971182465553284,-0.0002532517828512937,9.517105354461819e-06,-7.838514284230769e-05
27580.385,-0.07010646164417267,-0.10842207074165344,1.3691470623016357,0.2095392644405365,0.5720725059509277,0.800424337387085,16.986371994018555,-3.5487210750579834,-0.9685009121894836,-24.597461700439453,-39.28645706176758,16.58930206298828,1,0.32934582233428955,-0.00012565804354380816,-5.984484596410766e-05,-9.264235995942727e-05,0.32934582233428955,-0.00012565804354380816,-5.984484596410766e-05,-9.264235995942727e-05
27590.236,-0.06817025691270828,-0.10604379326105118,1.3768572807312012,0.21412082016468048,0.5359700322151184,0.784253716468811,16.745803833007812,-3.1347641944885254,-0.9264394640922546,-29.381498336791992,-38.499359130859375,16.273357391357422,1,0.3292674422264099,-1.7259833839489147e-05,0.00012581936607602984,-0.00010826023935806006,0.3292674422264099,-1.7259833839489147e-05,0.00012581936607602984,-0.00010826023935806006
27600.115,-0.0660715252161026,-0.10224831104278564,1.3847317695617676,0.21816839277744293,0.5065850019454956,0.7686331272125244,16.448213577270508,-2.7172067165374756,-0.878510057926178,-34.30841064453125,-39.363399505615234,16.574565887451172,1,0.328962117433548,0.00014630531950388104,0.0005415071500465274,-0.00011973700020462275,0.328962117433548,0.00014630531950388104,0.0005415071500465274,-0.00011973700020462275
27609.965,-0.06409333646297455,-0.10047848522663116,1.3920714855194092,0.22143056988716125,0.47158148884773254,0.7518743276596069,16.116985321044922,-2.2979214191436768,-0.845317542552948,-37.81039047241211,-40.08534240722656,16.61085319519043,1,0.3291989862918854,-0.00011388264829292893,0.000596512807533145,-0.00010311343794455752,0.3291989862918854,-0.00011388264829292893,0.000596512807533145,-0.00010311343794455752
27619.823,-0.061947066336870193,-0.09730904549360275,1.3995885848999023,0.22426432371139526,0.44325876235961914,0.7361740469932556,15.735133171081543,-1.8631583452224731,-0.7955343127250671,-41.74327850341797,-40.1687126159668,16.6822566986084,1,0.3290778696537018,8.694440475665033e-05,0.0005308608524501324,-0.00012642191722989082,0.3290778696537018,8.694440475665033e-05,0.0005308608524501324,-0.00012642191722989082
27629.676,-0.05995588377118111,-0.09610265493392944,1.406558632850647,0.2262270599603653,0.4096944332122803,0.7195731401443481,15.322027206420898,-1.442040205001831,-0.7442368268966675,-44.63568878173828,-38.75613021850586,17.124740600585938,1,0.3294473886489868,-9.871980000752956e-05,0.0002355080214329064,-0.00013363927428144962,0.3294473886489868,-9.871980000752956e-05,0.0002355080214329064,-0.00013363927428144962
27639.545,-0.057788215577602386,-0.09352041780948639,1.4137227535247803,0.227765291929245,0.3827477693557739,0.7042976021766663,14.860525131225586,-1.022325873374939,-0.6795668601989746,-46.76344299316406,-36.88785934448242,17.16745948791504,1,0.3293851613998413,-0.00019130994041915983,0.00013227162708062679,-0.00015333908959291875,0.3293851613998413,-0.00019130994041915983,0.00013227162708062679,-0.00015333908959291875
27649.396,-0.055814579129219055,-0.09283149987459183,1.4203267097473145,0.22834433615207672,0.351077675819397,0.6870312690734863,14.389598846435547,-0.6331274509429932,-0.6172164082527161,-49.568538665771484,-35.208274841308594,17.012460708618164,1,0.3300928473472595,-1.5324152627727017e-05,0.0001671139179961756,-0.00015203759539872408,0.3300928473472595,-1.5324152627727017e-05,0.0001671139179961756,-0.00015203759539872408
27659.255,-0.053652361035346985,-0.09081247448921204,1.4271353483200073,0.22870367765426636,0.3256687521934509,0.6712340116500854,13.881001472473145,-0.2473812699317932,-0.5388768911361694,-52.78811264038086,-33.74835205078125,16.61174964904785,1,0.3303300440311432,0.0001875998714240268,0.0002159898867830634,-0.00017244731134269387,0.3303300440311432,0.0001875998714240268,0.0002159898867830634,-0.00017244731134269387
27669.117,-0.051708344370126724,-0.09062256664037704,1.4333709478378296,0.22812998294830322,0.29545101523399353,0.6544650197029114,13.357508659362793,0.11381243914365768,-0.46251380443573,-56.21173095703125,-32.799861907958984,16.2174129486084,1,0.3310915529727936,0.0003089026431553066,0.00034697106457315385,-0.00017049508460331708,0.3310915529727936,0.0003089026431553066,0.00034697106457315385,-0.00017049508460331708
27678.986,-0.049567967653274536,-0.08911647647619247,1.4398249387741089,0.22742119431495667,0.27169331908226013,0.639155924320221,12.777826309204102,0.47858482599258423,-0.38442280888557434,-58.89875411987305,-32.7198600769043,15.998795509338379,1,0.3313788175582886,0.0002798674104269594,0.0005852212780155241,-0.0001744587061693892,0.3313788175582886,0.0002798674104269594,0.0005852212780155241,-0.0001744587061693892
27688.837,-0.047676295042037964,-0.08937837928533554,1.4457048177719116,0.22575804591178894,0.24320220947265625,0.6232485771179199,12.197625160217285,0.8262528777122498,-0.3105032742023468,-59.256526947021484,-33.14079284667969,15.871127128601074,1,0.3320983946323395,-0.00021437682153191417,0.0007747568306513131,-0.00017155992100015283,0.3320983946323395,-0.00021437682153191417,0.0007747568306513131,-0.00017155992100015283
27698.698,-0.045586422085762024,-0.08836259692907333,1.4518247842788696,0.22395609319210052,0.22101379930973053,0.608881413936615,11.590902328491211,1.1917250156402588,-0.2277003824710846,-60.05472183227539,-32.634788513183594,15.825702667236328,1,0.3323129117488861,-7.242678111651912e-05,0.0006428078631870449,-0.00018581714539323002,0.3323129117488861,-7.242678111651912e-05,0.0006428078631870449,-0.00018581714539323002
27708.56,-0.0437772274017334,-0.08903443813323975,1.4573694467544556,0.2210124433040619,0.19452562928199768,0.5933650135993958,10.99510383605957,1.5352615118026733,-0.15274456143379211,-62.324588775634766,-29.086210250854492,14.985003471374512,1,0.33309778571128845,0.0002877714578062296,-3.339051909279078e-05,-0.000173393840668723,0.33309778571128845,0.0002877714578062296,-3.339051909279078e-05,-0.000173393840668723
27718.427,-0.04175618663430214,-0.08846553415060043,1.463166356086731,0.2181839942932129,0.17420701682567596,0.5789801478385925,10.359375,1.8511378765106201,-0.06238190829753876,-64.56832885742188,-26.595067977905273,14.411080360412598,1,0.33347415924072266,0.0004074611351825297,0.00015001538849901408,-0.00019232460181228817,0.33347415924072266,0.0004074611351825297,0.00015001538849901408,-0.00019232460181228817
27728.277,-0.040043555200099945,-0.08950206637382507,1.4683741331100464,0.21423345804214478,0.14992140233516693,0.563149094581604,9.717379570007324,2.123234510421753,0.026003355160355568,-66.22398376464844,-23.858959197998047,14.02970027923584,1,0.3345032334327698,0.0003482615284156054,6.129661051090807e-05,-0.00019096395408269018,0.3345032334327698,0.0003482615284156054,6.129661051090807e-05,-0.00019096395408269018
27738.136,-0.03811116889119148,-0.08931799232959747,1.4738432168960571,0.21052046120166779,0.13174307346343994,0.5490174889564514,9.033238410949707,2.383547306060791,0.12065781652927399,-67.15901947021484,-22.53183364868164,14.204169273376465,1,0.334979385137558,0.00029535286012105644,0.00035648816265165806,-0.0002040971739916131,0.334979385137558,0.00029535286012105644,0.00035648816265165806,-0.0002040971739916131
27747.995,-0.0362544022500515,-0.08935584127902985,1.4790444374084473,0.2064356654882431,0.11434782296419144,0.5338655710220337,8.347249984741211,2.6268391609191895,0.21694675087928772,-68.6010971069336,-21.861000061035156,13.446197509765625,1,0.33584219217300415,0.0005136010586284101,0.0005258604069240391,-0.00020492538169492036,0.33584219217300415,0.0005136010586284101,0.0005258604069240391,-0.00020492538169492036
27757.863,-0.03468532860279083,-0.09082616865634918,1.483862280845642,0.20122621953487396,0.09379210323095322,0.5184057950973511,7.659738063812256,2.865339756011963,0.3048121929168701,-68.0565414428711,-21.826335906982422,12.561944007873535,1,0.33697426319122314,0.00011291480041109025,0.0007270100759342313,-0.00019196965149603784,0.33697426319122314,0.00011291480041109025,0.0007270100759342313,-0.00019196965149603784
27767.717,-0.03321058303117752,-0.09243973344564438,1.4884061813354492,0.19549086689949036,0.07400624454021454,0.5030476450920105,6.991763591766357,3.0979788303375244,0.3847770392894745,-67.27529907226562,-21.39031982421875,11.8553466796875,1,0.3382207751274109,5.371518273022957e-05,0.0007060401258058846,-0.000180611212272197,0.3382207751274109,5.371518273022957e-05,0.0007060401258058846,-0.000180611212272197
27777.583,-0.031502615660429,-0.09292411059141159,1.4932318925857544,0.1902446448802948,0.05987832322716713,0.4891737997531891,6.308736324310303,3.323091983795166,0.4772345721721649,-67.20545196533203,-18.46027374267578,11.406347274780273,1,0.33895978331565857,0.00026615633396431804,0.00015517720021307468,-0.0001969389704754576,0.33895978331565857,0.00026615633396431804,0.00015517720021307468,-0.0001969389704754576
27787.434,-0.030164429917931557,-0.09477706998586655,1.4974629878997803,0.1837175339460373,0.042144279927015305,0.4743981659412384,5.659712791442871,3.5155887603759766,0.5575743913650513,-66.66609954833984,-16.397579193115234,11.172444343566895,1,0.3402215242385864,0.00017534055223222822,0.0003218072233721614,-0.0001837465970311314,0.3402215242385864,0.00017534055223222822,0.0003218072233721614,-0.0001837465970311314
27797.304,-0.0285913348197937,-0.09551472961902618,1.501987099647522,0.17777276039123535,0.03024432808160782,0.46096307039260864,4.970493793487549,3.6855549812316895,0.645302414894104,-67.77872467041016,-13.022015571594238,10.145219802856445,1,0.34100642800331116,0.0006376460660248995,-1.5969379091984592e-05,-0.00018942583119496703,0.34100642800331116,0.0006376460660248995,-1.5969379091984592e-05,-0.00018942583119496703
27807.153,-0.027409935370087624,-0.0975411981344223,1.5059211254119873,0.17054492235183716,0.014957147650420666,0.4461504817008972,4.304449081420898,3.8187615871429443,0.7203244566917419,-67.86931610107422,-10.399847030639648,10.098669052124023,1,0.3424309492111206,0.0004785974451806396,9.694542677607387e-05,-0.00017652925453148782,0.3424309492111206,0.0004785974451806396,9.694542677607387e-05,-0.00017652925453148782
27817.017,-0.02598269283771515,-0.09850125759840012,1.510150671005249,0.16407057642936707,0.005064072553068399,0.4332170784473419,3.606443405151367,3.930521011352539,0.8098010420799255,-67.90345001220703,-9.115555763244629,9.875382423400879,1,0.3432442545890808,0.00056554184993729,0.0003690700978040695,-0.00019682066340465099,0.3432442545890808,0.00056554184993729,0.0003690700978040695,-0.00019682066340465099
27826.875,-0.024654876440763474,-0.09958245605230331,1.5141489505767822,0.15733705461025238,-0.00415056524798274,0.4198077321052551,2.926405191421509,4.027279853820801,0.8969605565071106,-67.4217758178711,-8.538103103637695,9.589119911193848,1,0.3442933261394501,0.0005376358167268336,0.0005418297951109707,-0.00019569664436858147,0.3442933261394501,0.0005376358167268336,0.0005418297951109707,-0.00019569664436858147
27836.742,-0.02368759922683239,-0.1017986312508583,1.5177379846572876,0.1494186371564865,-0.015725955367088318,0.40609487891197205,2.2583138942718506,4.121129989624023,0.9771063327789307,-65.56776428222656,-8.133391380310059,9.059187889099121,1,0.345625638961792,0.0002513160870876163,0.0006257093045860529,-0.00018664538220036775,0.345625638961792,0.0002513160870876163,0.0006257093045860529,-0.00018664538220036775
27846.592,-0.022514857351779938,-0.10302869975566864,1.5214611291885376,0.1423429697751999,-0.022826604545116425,0.39302384853363037,1.613245964050293,4.209298133850098,1.0612177848815918,-63.258827209472656,-6.790895462036133,8.771450996398926,1,0.34673598408699036,0.00016501691425219178,0.00043843206367455423,-0.00019321197760291398,0.34673598408699036,0.00016501691425219178,0.00043843206367455423,-0.00019321197760291398
27856.452,-0.021711250767111778,-0.10529322922229767,1.5247743129730225,0.13403230905532837,-0.03172258660197258,0.37975844740867615,0.9698775410652161,4.279514789581299,1.1336712837219238,-60.979923248291016,-4.540981292724609,8.336390495300293,1,0.3481033742427826,0.00015420936688315123,0.0002285718364873901,-0.00017877727805171162,0.3481033742427826,0.00015420936688315123,0.0002285718364873901,-0.00017877727805171162
27866.314,-0.02101374790072441,-0.107587531208992,1.5278764963150024,0.12547412514686584,-0.03996676206588745,0.3661992847919464,0.3736080527305603,4.330604553222656,1.2042052745819092,-58.80315399169922,-2.8321423530578613,8.14794921875,1,0.3496551513671875,0.0001545319682918489,0.00033084035385400057,-0.0001781265455065295,0.3496551513671875,0.0001545319682918489,0.00033084035385400057,-0.0001781265455065295
27876.183,-0.020066726952791214,-0.10893374681472778,1.5312837362289429,0.11794929206371307,-0.04367351159453392,0.35458800196647644,-0.22707223892211914,4.354564666748047,1.2835545539855957,-58.68600082397461,0.38814157247543335,7.932652950286865,1,0.3505752980709076,0.0006728109437972307,-5.807047273265198e-05,-0.0001910231076180935,0.3505752980709076,0.0006728109437972307,-5.807047273265198e-05,-0.0001910231076180935
27886.034,-0.01954096369445324,-0.11126763373613358,1.5341390371322632,0.1091821938753128,-0.050209879875183105,0.34100884199142456,-0.7908235788345337,4.355589389801025,1.3528354167938232,-59.75809860229492,1.7574126720428467,7.008589744567871,1,0.3522650897502899,0.0010265568271279335,0.00031309662153944373,-0.00017499113164376467,0.3522650897502899,0.0010265568271279335,0.00031309662153944373,-0.00017499113164376467
27895.893,-0.018765902146697044,-0.11265375465154648,1.5372949838638306,0.1015142947435379,-0.05189943686127663,0.3295840620994568,-1.4046761989593506,4.33745813369751,1.4175273180007935,-58.586021423339844,3.69868540763855,6.6059675216674805,1,0.353274941444397,0.0006505505880340934,0.0001572742039570585,-0.00016925274394452572,0.353274941444397,0.0006505505880340934,0.0001572742039570585,-0.00016925274394452572
27905.753,-0.01841483823955059,-0.11492559313774109,1.5399224758148193,0.09255494177341461,-0.05569997429847717,0.31723806262016296,-1.988171100616455,4.3038716316223145,1.4709335565567017,-56.11272430419922,4.960607528686523,6.392364978790283,1,0.3547823131084442,0.00038213597144931555,0.0002906749432440847,-0.00015606038505211473,0.3547823131084442,0.00038213597144931555,0.0002906749432440847,-0.00015606038505211473
27915.621,-0.017812326550483704,-0.116313137114048,1.5428463220596313,0.08480972051620483,-0.055394917726516724,0.306917279958725,-2.556873083114624,4.25465202331543,1.5312875509262085,-52.71184158325195,6.085026741027832,6.654558181762695,1,0.35564324259757996,0.00018324459961149842,0.00030551519012078643,-0.00016919357585720718,0.35564324259757996,0.00018324459961149842,0.00030551519012078643,-0.00016919357585720718
27925.48,-0.01730852574110031,-0.11770769208669662,1.5455938577651978,0.07705170661211014,-0.05446655675768852,0.2965671122074127,-3.0781352519989014,4.187140464782715,1.5935728549957275,-48.658843994140625,7.136845588684082,6.264010429382324,1,0.35660240054130554,5.968354344076943e-06,0.0003071282699238509,-0.00017150076746474952,0.35660240054130554,5.968354344076943e-06,0.0003071282699238509,-0.00017150076746474952
27935.331,-0.017192993313074112,-0.11991298943758011,1.5479679107666016,0.06830038875341415,-0.055594440549612045,0.2851209044456482,-3.53995418548584,4.115224838256836,1.64883553981781,-45.360572814941406,8.650184631347656,6.713370323181152,1,0.3580251932144165,0.00010646253213053569,0.00019243908172938973,-0.00016842452168930322,0.3580251932144165,0.00010646253213053569,0.00019243908172938973,-0.00016842452168930322
27945.198,-0.016853511333465576,-0.12124879658222198,1.5505062341690063,0.06067776307463646,-0.05288631469011307,0.27508223056793213,-3.994248390197754,4.021010398864746,1.7078226804733276,-44.248779296875,9.977051734924316,6.065293312072754,1,0.3590213656425476,0.0006157082971185446,0.00020018180657643825,-0.00017102751007769257,0.3590213656425476,0.0006157082971185446,0.00020018180657643825,-0.00017102751007769257
27955.061,-0.016900865361094475,-0.12330519407987595,1.5526857376098633,0.05201662331819534,-0.05168953165411949,0.2643335163593292,-4.4519171714782715,3.9241974353790283,1.7525283098220825,-44.08359146118164,11.497232437133789,5.976790904998779,1,0.3603779673576355,0.0008971887873485684,0.0001337233989033848,-0.0001546405692351982,0.3603779673576355,0.0008971887873485684,0.0001337233989033848,-0.0001546405692351982
27964.912,-0.017035292461514473,-0.12530823051929474,1.55471932888031,0.043457046151161194,-0.050140250474214554,0.25324615836143494,-4.8869805335998535,3.811349391937256,1.7990138530731201,-44.29243850708008,12.488776206970215,5.965803146362305,1,0.36189842224121094,0.0010760780423879623,0.0002308301191078499,-0.000158840834046714,0.36189842224121094,0.0010760780423879623,0.0002308301191078499,-0.000158840834046714
27974.772,-0.01692291907966137,-0.12649600207805634,1.5570205450057983,0.03625969588756561,-0.04496505856513977,0.24416756629943848,-5.325679302215576,3.680525302886963,1.8464702367782593,-41.30476760864258,13.737091064453125,5.785471439361572,1,0.3627914488315582,0.00043859335710294545,0.00014259526506066322,-0.00016085222887340933,0.3627914488315582,0.00043859335710294545,0.00014259526506066322,-0.00016085222887340933
27984.632,-0.01720995269715786,-0.1283266246318817,1.55889093875885,0.02799753099679947,-0.04144939035177231,0.23398162424564362,-5.72459602355957,3.5504093170166016,1.8867326974868774,-36.03411865234375,13.551136016845703,5.402902603149414,1,0.36417949199676514,-0.00013388469233177602,0.0004650477203540504,-0.0001509727444499731,0.36417949199676514,-0.00013388469233177602,0.0004650477203540504,-0.0001509727444499731
27994.502,-0.017252670601010323,-0.12937919795513153,1.5610135793685913,0.021112743765115738,-0.03474288061261177,0.22545704245567322,-6.076838493347168,3.4037351608276367,1.9258508682250977,-31.760101318359375,15.585295677185059,5.3046135902404785,1,0.3650338053703308,1.177540161734214e-05,-5.532825889531523e-05,-0.00015055862604640424,0.3650338053703308,1.177540161734214e-05,-5.532825889531523e-05,-0.00015055862604640424
28004.35,-0.0173773393034935,-0.13037027418613434,1.5630004405975342,0.014290401712059975,-0.02757551707327366,0.21723391115665436,-6.382318496704102,3.251420021057129,1.9663684368133545,-29.32731056213379,15.806523323059082,5.6844987869262695,1,0.36588409543037415,0.00039455658406950533,0.00030954787507653236,-0.0001568294537719339,0.36588409543037415,0.00039455658406950533,0.00030954787507653236,-0.0001568294537719339
28014.21,-0.017870411276817322,-0.1319347769021988,1.5646902322769165,0.006666254717856646,-0.021985692903399467,0.2084226906299591,-6.6688313484191895,3.0900630950927734,2.000764846801758,-28.876575469970703,17.344675064086914,5.2672343254089355,1,0.36703306436538696,0.0008652500109747052,-2.258296035506646e-06,-0.00014777817705180496,0.36703306436538696,0.0008652500109747052,-2.258296035506646e-06,-0.00014777817705180496
28024.071,-0.018133506178855896,-0.13274487853050232,1.5665249824523926,0.0003368086472619325,-0.013545178808271885,0.20050767064094543,-6.957571983337402,2.910160541534424,2.032633066177368,-27.996337890625,18.017606735229492,5.203813552856445,1,0.367891401052475,0.0008594429236836731,0.00014436965284403414,-0.00014564846060238779,0.367891401052475,0.0008594429236836731,0.00014436965284403414,-0.00014564846060238779
28033.943,-0.018752653151750565,-0.13408786058425903,1.5680761337280273,-0.006748964544385672,-0.00674874521791935,0.19128476083278656,-7.227714538574219,2.737809896469116,2.063126564025879,-25.500539779663086,17.482622146606445,5.18658447265625,1,0.36922141909599304,0.0005289252148941159,0.0004202043928671628,-0.0001451751886634156,0.36922141909599304,0.0005289252148941159,0.0004202043928671628,-0.0001451751886634156
28043.792,-0.019430655986070633,-0.13531404733657837,1.569523572921753,-0.013665654696524143,0.0005467781447805464,0.18223872780799866,-7.464980602264404,2.5755562782287598,2.0949108600616455,-21.549571990966797,17.66740608215332,5.1318678855896,1,0.37056583166122437,0.00016840438183862716,0.0002805126423481852,-0.00014777817705180496,0.37056583166122437,0.00016840438183862716,0.0002805126423481852,-0.00014777817705180496
28053.65,-0.019872333854436874,-0.13581350445747375,1.5711710453033447,-0.01916046068072319,0.010721161030232906,0.17498265206813812,-7.6774516105651855,2.396636486053467,2.123183012008667,-17.20588493347168,18.757829666137695,5.2502875328063965,1,0.3713705241680145,2.5809100407059304e-05,5.000512828701176e-05,-0.00014553015353158116,0.3713705241680145,2.5809100407059304e-05,5.000512828701176e-05,-0.00014553015353158116
28063.517,-0.020372120663523674,-0.13622426986694336,1.5727086067199707,-0.024437474086880684,0.02111845090985298,0.16803763806819916,-7.837625503540039,2.202324628829956,2.1508285999298096,-12.717113494873047,19.265409469604492,5.294407367706299,1,0.37215593457221985,-8.275041182059795e-05,0.00013840128667652607,-0.00014635837578680366,0.37215593457221985,-8.275041182059795e-05,0.00013840128667652607,-0.00014635837578680366
28073.389,-0.02120818756520748,-0.1370813548564911,1.5740145444869995,-0.03043888509273529,0.030016059055924416,0.1606057584285736,-7.960411548614502,2.0097568035125732,2.177536964416504,-11.861452102661133,20.136686325073242,5.163185119628906,1,0.37318187952041626,0.0006936194840818644,3.0648305255454034e-05,-0.00014547099999617785,0.37318187952041626,0.0006936194840818644,3.0648305255454034e-05,-0.00014547099999617785
28083.234,-0.02181239239871502,-0.13726577162742615,1.5754278898239136,-0.03510613739490509,0.04102069512009621,0.15383471548557281,-8.074858665466309,1.8052160739898682,2.200536012649536,-10.674585342407227,19.82260513305664,5.290037155151367,1,0.37399429082870483,0.0006761983968317509,0.00026825329405255616,-0.0001428088580723852,0.37399429082870483,0.0006761983968317509,0.00026825329405255616,-0.0001428088580723852
28093.095,-0.022740179672837257,-0.13785481452941895,1.5766303539276123,-0.04044073820114136,0.05066768079996109,0.14640165865421295,-8.187865257263184,1.6109137535095215,2.22389817237854,-9.432208061218262,19.536542892456055,5.471904277801514,1,0.3750808835029602,0.0006992652197368443,0.000270995544269681,-0.00014558930706698447,0.3750808835029602,0.0006992652197368443,0.000270995544269681,-0.00014558930706698447
28102.951,-0.023433523252606392,-0.13780613243579865,1.5779235363006592,-0.04449380561709404,0.06221261993050575,0.1402270644903183,-8.276534080505371,1.4073623418807983,2.249481201171875,-7.4121785163879395,20.690738677978516,5.500497341156006,1,0.3758135437965393,0.0005584443570114672,-8.291173435281962e-05,-0.00014973041834309697,0.3758135437965393,0.0005584443570114672,-8.291173435281962e-05,-0.00014973041834309697
28112.828,-0.0244281142950058,-0.1381291151046753,1.579030990600586,-0.0491156205534935,0.07254859060049057,0.1335902065038681,-8.350879669189453,1.2052298784255981,2.2798733711242676,-3.618851661682129,21.177352905273438,5.751109600067139,1,0.37675756216049194,0.00013033594586886466,2.2905574951437302e-05,-0.000158840834046714,0.37675756216049194,0.00013033594586886466,2.2905574951437302e-05,-0.000158840834046714
28122.678,-0.02519255504012108,-0.13783666491508484,1.5802171230316162,-0.05248497053980827,0.08454450964927673,0.1279209554195404,-8.375521659851074,0.9926905632019043,2.307206630706787,0.8131833076477051,21.114837646484375,5.647085189819336,1,0.37742549180984497,-8.984792657429352e-05,0.00011307611566735432,-0.00015558711311314255,0.37742549180984497,-8.984792657429352e-05,0.00011307611566735432,-0.00015558711311314255
28132.531,-0.026244932785630226,-0.13791246712207794,1.5812418460845947,-0.05641978606581688,0.0950564369559288,0.12230131030082703,-8.354433059692383,0.790921151638031,2.3379297256469727,3.6610398292541504,20.543195724487305,5.574522495269775,1,0.3781645894050598,0.00017743755597621202,0.00022599092335440218,-0.0001606747682671994,0.3781645894050598,0.00017743755597621202,0.00022599092335440218,-0.0001606747682671994
