timestamp,stateEstimate.x,stateEstimate.y,stateEstimate.z,stateEstimate.vx,stateEstimate.vy,stateEstimate.vz,stateEstimate.roll,stateEstimate.pitch,stateEstimate.yaw,gyro.x,gyro.y,gyro.z,ILBC.nominal_controller,ILBC.nominal_thrust,ILBC.nominal_torqueX,ILBC.nominal_torqueY,ILBC.nominal_torqueZ,ILBC.full_thrust,ILBC.full_torqueX,ILBC.full_torqueY,ILBC.full_torqueZ
19725.561,0.10026144236326218,-0.8018869757652283,0.7045000791549683,0.1405848115682602,0.008560597896575928,-0.004419971723109484,-0.27628377079963684,-2.6991076469421387,-12.447484016418457,-0.2724073529243469,-0.03679915890097618,-0.2898867130279541,1,0.0,0.0,0.0,0.0,0.0,0.0,0.0,0.0
19735.418,0.1007004901766777,-0.8018600940704346,0.7044859528541565,0.14197155833244324,0.008756409399211407,-0.00436266278848052,-0.27749940752983093,-2.697307825088501,-12.444927215576172,0.06131477281451225,-0.15729311108589172,-0.05643360689282417,1,0.0,0.0,0.0,0.0,0.0,0.0,0.0,0.0
19745.286,0.10026037693023682,-0.8018847107887268,0.7044991254806519,0.1404976099729538,0.00877433456480503,-0.0043753706850111485,-0.2783963680267334,-2.6974966526031494,-12.448561668395996,-0.10951782763004303,0.03212245926260948,-0.20947827398777008,1,0.0,0.0,0.0,0.0,0.0,0.0,0.0,0.0
19755.142,0.10070060193538666,-0.801856279373169,0.7044843435287476,0.14192737638950348,0.008857686072587967,-0.004446093924343586,-0.27848097681999207,-2.6953647136688232,-12.444917678833008,0.047634948045015335,-0.061769213527441025,0.12152398377656937,1,0.0,0.0,0.0,0.0,0.0,0.0,0.0,0.0
19765.0,0.10026509314775467,-0.8018810749053955,0.7044978141784668,0.14083246886730194,0.008672835305333138,-0.004293463658541441,-0.2794351279735565,-2.6964964866638184,-12.44759750366211,0.15283203125,-0.5137642621994019,-0.06624212861061096,1,0.0,0.0,0.0,0.0,0.0,0.0,0.0,0.0
19991.84,0.09881843626499176,-0.7960773706436157,0.7288572192192078,0.0464634969830513,0.1513034850358963,0.4212150573730469,-10.836397171020508,8.71767520904541,-8.42756462097168,-123.8262710571289,-111.77063751220703,20.886974334716797,1,0.5545028448104858,0.004074933938682079,0.0039460500702261925,-0.00027993848198093474,0.5545028448104858,0.004074933938682079,0.0039460500702261925,-0.00027993848198093474
20001.698,0.09707793593406677,-0.7942362427711487,0.7335885763168335,0.021932462230324745,0.18224577605724335,0.45880621671676636,-12.115870475769043,9.755626678466797,-8.051700592041016,-107.69024658203125,-96.80662536621094,19.536909103393555,1,0.5461357235908508,-0.0010399454040452838,0.0005792530137114227,-0.0002545594470575452,0.5461357235908508,-0.0010399454040452838,0.0005792530137114227,-0.0002545594470575452
20011.558,0.09613023698329926,-0.7921718955039978,0.7385209798812866,-0.000927790766581893,0.2153119444847107,0.49450400471687317,-13.14657211303711,10.56937026977539,-7.699178218841553,-78.86019897460938,-71.66163635253906,17.879056930541992,1,0.5381850004196167,-0.004508526995778084,-0.0020495650824159384,-0.000228766308282502,0.5381850004196167,-0.004508526995778084,-0.0020495650824159384,-0.000228766308282502
20021.428,0.09507700800895691,-0.7921472191810608,0.7385841012001038,-0.004347989801317453,0.21498632431030273,0.4948808252811432,-13.123669624328613,10.566570281982422,-7.729134559631348,-58.103965759277344,-53.35730743408203,16.621971130371094,1,0.5389918088912964,-0.0037224788684397936,-0.0013715922832489014,0.00025674831704236567,0.5389918088912964,-0.0037224788684397936,-0.0013715922832489014,0.00025674831704236567
20031.285,0.09239838272333145,-0.7871049046516418,0.7492300868034363,-0.05230476334691048,0.2838815152645111,0.554900586605072,-14.478428840637207,11.594971656799316,-7.1791534423828125,-59.684814453125,-46.28375244140625,16.956064224243164,1,0.5249203443527222,0.0011754430597648025,0.00132497469894588,-0.0004894782323390245,0.5249203443527222,0.0011754430597648025,0.00132497469894588,-0.0004894782323390245
20041.139,0.09133055806159973,-0.7870714068412781,0.7492856383323669,-0.05580303445458412,0.2838034927845001,0.5552418231964111,-14.46483039855957,11.596552848815918,-7.208761215209961,-78.49002075195312,-45.177555084228516,20.508750915527344,1,0.5256462097167969,0.005285541992634535,0.002525259042158723,0.0002067001478280872,0.5256462097167969,0.005285541992634535,0.002525259042158723,0.0002067001478280872
20051.01,0.08757510781288147,-0.780634880065918,0.760985255241394,-0.10571226477622986,0.35584861040115356,0.6029796004295349,-16.049083709716797,12.370251655578613,-6.650153160095215,-91.52867889404297,-43.19237518310547,18.69930076599121,1,0.514548659324646,0.005285541992634535,0.0029490122105926275,-0.0005350303836166859,0.514548659324646,0.005285541992634535,0.0029490122105926275,-0.0005350303836166859
20060.873,0.08649669587612152,-0.780608594417572,0.7610299587249756,-0.1092478409409523,0.3557373583316803,0.6033116579055786,-16.03400230407715,12.373044967651367,-6.679592609405518,-83.67871856689453,-37.37455368041992,21.75934410095215,1,0.5152052044868469,0.0008242780459113419,0.001986655406653881,0.0001751094387145713,0.5152052044868469,0.0008242780459113419,0.001986655406653881,0.0001751094387145713
20070.733,0.08162248134613037,-0.7726812362670898,0.7736054062843323,-0.16121132671833038,0.4339444637298584,0.6448375582695007,-17.795978546142578,12.981582641601562,-6.110212326049805,-56.37679672241211,-23.78767204284668,20.280576705932617,1,0.5055856704711914,-0.0033188886009156704,0.000537958403583616,-0.0005825938424095511,0.5055856704711914,-0.0033188886009156704,0.000537958403583616,-0.0005825938424095511
20080.582,0.08052787184715271,-0.7726660966873169,0.7736396789550781,-0.16489864885807037,0.4337095022201538,0.6451747417449951,-17.776065826416016,12.988396644592285,-6.136425018310547,-28.329849243164062,-5.179129600524902,23.912395477294922,1,0.5061787366867065,-0.00460644019767642,-0.0011786692775785923,0.00013275188393890858,0.5061787366867065,-0.00460644019767642,-0.0011786692775785923,0.00013275188393890858
20090.444,0.07451143860816956,-0.7631251215934753,0.786963939666748,-0.21764644980430603,0.5164065957069397,0.6808413863182068,-18.550888061523438,13.016510009765625,-5.705446720123291,-18.305477142333984,9.80962085723877,20.301342010498047,1,0.4979584515094757,-0.0007089436403475702,-0.0005323126679286361,-0.00042795328772626817,0.4979584515094757,-0.0007089436403475702,-0.0005323126679286361,-0.00042795328772626817
20100.323,0.07108596712350845,-0.7577502727508545,0.7938698530197144,-0.24358691275119781,0.5576928853988647,0.6963785886764526,-18.78200340270996,12.837828636169434,-5.558714389801025,-29.357515335083008,16.393150329589844,22.92094612121582,1,0.4947063624858856,0.0042880200780928135,0.0011099525727331638,-9.962308104149997e-05,0.4947063624858856,0.0042880200780928135,0.0011099525727331638,-9.962308104149997e-05
20110.165,0.06626085191965103,-0.7519601583480835,0.8009244799613953,-0.27267253398895264,0.5989346504211426,0.7106338143348694,-19.152406692504883,12.620481491088867,-5.44447135925293,-46.750308990478516,17.607797622680664,21.03072166442871,1,0.49175095558166504,0.005285541992634535,0.0023799214977771044,-5.063975913799368e-05,0.49175095558166504,0.005285541992634535,0.0023799214977771044,-5.063975913799368e-05
20120.027,0.06515761464834213,-0.7519564032554626,0.8009225726127625,-0.27640748023986816,0.5989782810211182,0.7107629179954529,-19.14608383178711,12.630257606506348,-5.463300704956055,-45.565711975097656,19.737321853637695,22.755826950073242,1,0.49229803681373596,0.0028202892281115055,0.0021595763973891735,0.0001032909203786403,0.49229803681373596,0.0028202892281115055,0.0021595763973891735,0.0001032909203786403
20129.892,0.056931883096694946,-0.7391470670700073,0.8153852820396423,-0.325284481048584,0.6835727095603943,0.7366734147071838,-20.06821060180664,12.113542556762695,-5.207006931304932,-25.39533805847168,29.11502456665039,25.028945922851562,1,0.486413836479187,-0.0010933378944173455,0.0006878125132061541,-0.00026550376787781715,0.486413836479187,-0.0010933378944173455,0.0006878125132061541,-0.00026550376787781715
20139.762,0.0524345226585865,-0.7321141362190247,0.8227986097335815,-0.34897246956825256,0.7268235087394714,0.7494248747825623,-20.237031936645508,11.719225883483887,-5.0866827964782715,4.1826324462890625,41.9998664855957,27.964956283569336,1,0.4837735593318939,-0.003879591589793563,-0.0003834264352917671,-0.00012251746375113726,0.4837735593318939,-0.003879591589793563,-0.0003834264352917671,-0.00012251746375113726
20149.607,0.0465751513838768,-0.7246652841567993,0.830302357673645,-0.37545379996299744,0.7702958583831787,0.7619855999946594,-20.127975463867188,11.202876091003418,-5.018414497375488,24.505643844604492,55.355690002441406,27.21221351623535,1,0.481161892414093,-0.0026007506530731916,-0.0008637982537038624,-5.531328497454524e-05,0.481161892414093,-0.0026007506530731916,-0.0008637982537038624,-5.531328497454524e-05
20159.468,0.04547418653964996,-0.724700927734375,0.8302671313285828,-0.3791801929473877,0.7702965140342712,0.7619526982307434,-20.12602424621582,11.212676048278809,-5.030370235443115,27.1468563079834,62.195892333984375,27.861906051635742,1,0.481673002243042,0.0008621852030046284,0.00022179694497026503,4.022784560220316e-05,0.481673002243042,0.0008621852030046284,0.00022179694497026503,4.022784560220316e-05
20169.332,0.03527018055319786,-0.7085539102554321,0.8456319570541382,-0.42111533880233765,0.8536108136177063,0.7828037142753601,-19.637197494506836,9.901906967163086,-4.934159755706787,17.446142196655273,63.829490661621094,29.261253356933594,1,0.4769746661186218,0.004119454883038998,0.001342718256637454,-0.00010808275692397729,0.4769746661186218,0.004119454883038998,0.001342718256637454,-0.00010808275692397729
20179.202,0.02869606763124466,-0.6996891498565674,0.8537196516990662,-0.44328412413597107,0.8948084115982056,0.793584406375885,-19.51415252685547,9.192023277282715,-4.874075889587402,11.66774845123291,62.210906982421875,31.687047958374023,1,0.4747573733329773,0.0037847431376576424,0.002150865737348795,-8.29403506941162e-05,0.4747573733329773,0.0037847431376576424,0.002150865737348795,-8.29403506941162e-05
20189.054,0.02304573729634285,-0.690514862537384,0.8617923855781555,-0.460994154214859,0.9348844885826111,0.8039883375167847,-19.388261795043945,8.483026504516602,-4.784852981567383,21.422821044921875,67.90991973876953,32.46860122680664,1,0.4726180136203766,0.0004789200611412525,0.0004947281558997929,-0.00012843331205658615,0.4726180136203766,0.0004789200611412525,0.0004947281558997929,-0.00012843331205658615
20198.921,0.02196173369884491,-0.6906225681304932,0.861690104007721,-0.46469739079475403,0.9348302483558655,0.8035291433334351,-19.395910263061523,8.494081497192383,-4.789464950561523,44.73603057861328,78.0071029663086,33.68914794921875,1,0.4731729328632355,-0.0031866170465946198,-0.0007513674208894372,-2.0291399778216146e-05,0.4731729328632355,-0.0031866170465946198,-0.0007513674208894372,-2.0291399778216146e-05
20208.776,0.010200027376413345,-0.6713858246803284,0.8777469992637634,-0.49638089537620544,1.013262391090393,0.8240951299667358,-18.611589431762695,6.845344543457031,-4.664760112762451,68.47441101074219,89.68588256835938,34.38961410522461,1,0.46848395466804504,-0.003948308061808348,-0.0015353187918663025,-0.00019120058277621865,0.46848395466804504,-0.003948308061808348,-0.0015353187918663025,-0.00019120058277621865
20218.643,0.009134692139923573,-0.6715306043624878,0.8776341080665588,-0.49995487928390503,1.013107419013977,0.8235671520233154,-18.620935440063477,6.853641033172607,-4.667697429656982,76.99040985107422,95.11183166503906,35.61184310913086,1,0.469026118516922,-0.0012178668985143304,-0.0004497235349845141,-4.1115228668786585e-05,0.469026118516922,-0.0012178668985143304,-0.0004497235349845141,-4.1115228668786585e-05
20228.494,-0.0032323249615728855,-0.6508419513702393,0.8940576910972595,-0.5253235101699829,1.0862932205200195,0.8434856534004211,-17.184345245361328,4.866129398345947,-4.577789783477783,68.47477722167969,93.432373046875,34.3372688293457,1,0.464468777179718,0.0026536593213677406,0.0009379994007758796,-0.00015120937314350158,0.464468777179718,0.0026536593213677406,0.0009379994007758796,-0.00015120937314350158
20238.354,-0.0042772432789206505,-0.6510286927223206,0.8939304947853088,-0.5288174748420715,1.0860776901245117,0.8428007364273071,-17.199731826782227,4.871467590332031,-4.5743842124938965,56.85311508178711,89.03714752197266,35.792354583740234,1,0.46502119302749634,0.0037586111575365067,0.0017059814417734742,-5.418927685241215e-05,0.46502119302749634,0.0037586111575365067,0.0017059814417734742,-5.418927685241215e-05
20248.216,-0.012323558330535889,-0.6389190554618835,0.9034909009933472,-0.542273998260498,1.1231796741485596,0.8550260066986084,-16.510204315185547,3.7559993267059326,-4.480179786682129,56.98456573486328,87.46202850341797,36.43975067138672,1,0.4623543322086334,0.0014496647054329515,0.0011489888420328498,-0.0001755827252054587,0.4623543322086334,0.0014496647054329515,0.0011489888420328498,-0.0001755827252054587
20258.094,-0.018785523250699043,-0.6278203725814819,0.9118533730506897,-0.5504940152168274,1.1550887823104858,0.8633713722229004,-15.98892593383789,2.825075149536133,-4.3760905265808105,72.18832397460938,93.7985610961914,37.36830139160156,1,0.46063703298568726,-0.00212554051540792,-0.0007650784100405872,-0.0001988911972148344,0.46063703298568726,-0.00212554051540792,-0.0007650784100405872,-0.0001988911972148344
20267.945,-0.026450909674167633,-0.6162824034690857,0.9206645488739014,-0.5598414540290833,1.1862506866455078,0.8751673102378845,-15.371776580810547,1.8206623792648315,-4.242325305938721,92.1073226928711,103.01634979248047,36.83449935913086,1,0.4580466151237488,-0.0038315218407660723,-0.0017801824724301696,-0.00023769924882799387,0.4580466151237488,-0.0038315218407660723,-0.0017801824724301696,-0.00023769924882799387
20277.8,-0.03305109217762947,-0.604625940322876,0.9291996955871582,-0.5648049116134644,1.2160075902938843,0.8853406310081482,-14.572930335998535,0.7856341004371643,-4.129754543304443,103.00687408447266,106.46685791015625,36.082916259765625,1,0.455843448638916,-0.002457832684740424,-0.0008687987574376166,-0.00021078209101688117,0.455843448638916,-0.002457832684740424,-0.0008687987574376166,-0.00021078209101688117
20287.667,-0.04079657793045044,-0.5926233530044556,0.9382041692733765,-0.5705814957618713,1.243655800819397,0.8981658220291138,-13.589744567871094,-0.3688679337501526,-4.003941059112549,98.68133544921875,103.18366241455078,34.786216735839844,1,0.45296359062194824,0.0007247517351061106,0.0004968251450918615,-0.00022344200988300145,0.45296359062194824,0.0007247517351061106,0.0004968251450918615,-0.00022344200988300145
20297.53,-0.04746398702263832,-0.5804826021194458,0.9469295144081116,-0.5718585848808289,1.2692770957946777,0.9075208902359009,-12.606584548950195,-1.4609092473983765,-3.8860979080200195,85.03791046142578,96.18798828125,34.109474182128906,1,0.45093029737472534,0.003083380637690425,0.0013764315517619252,-0.00021374000061769038,0.45093029737472534,0.003083380637690425,0.0013764315517619252,-0.00021374000061769038
20307.379,-0.055219173431396484,-0.5680865049362183,0.956108033657074,-0.5738237500190735,1.2921653985977173,0.9188737869262695,-11.704861640930176,-2.5523006916046143,-3.721979856491089,77.856689453125,91.80025482177734,33.993560791015625,1,0.44838473200798035,0.0020064960699528456,0.0008912204648368061,-0.00027739466167986393,0.44838473200798035,0.0020064960699528456,0.0008912204648368061,-0.00027739466167986393
20317.24,-0.061872243881225586,-0.5555598735809326,0.9650095701217651,-0.5712664723396301,1.3132925033569336,0.9270320534706116,-10.930243492126465,-3.524657964706421,-3.557157278060913,82.77529907226562,94.31044006347656,33.164791107177734,1,0.4466191232204437,-0.0006737787625752389,-0.000752012652810663,-0.00027946519549004734,0.4466191232204437,-0.0006737787625752389,-0.000752012652810663,-0.00027946519549004734
20327.1,-0.06941470503807068,-0.5433761477470398,0.9736803770065308,-0.5705171227455139,1.3317934274673462,0.9333213567733765,-10.204068183898926,-4.478785514831543,-3.3656771183013916,97.39542388916016,99.51512908935547,32.13804244995117,1,0.44530758261680603,-0.003225169377401471,-0.0016353289829567075,-0.0003134814032819122,0.44530758261680603,-0.003225169377401471,-0.0016353289829567075,-0.0003134814032819122
20336.987,-0.07599639892578125,-0.530515193939209,0.9827536940574646,-0.5645381212234497,1.3498488664627075,0.9422591924667358,-9.326478958129883,-5.481305122375488,-3.191004753112793,110.31287384033203,101.56639862060547,31.2573299407959,1,0.44332608580589294,-0.0033385681454092264,-0.0012693237513303757,-0.00029384077060967684,0.44332608580589294,-0.0033385681454092264,-0.0012693237513303757,-0.00029384077060967684
20346.827,-0.08408010005950928,-0.5162507891654968,0.9932052493095398,-0.5581513047218323,1.3670308589935303,0.9546536207199097,-8.168059349060059,-6.67627477645874,-2.9657633304595947,109.46842956542969,97.86111450195312,29.185264587402344,1,0.440468966960907,-0.0005179563304409385,-0.0001803410705178976,-0.00035157956881448627,0.440468966960907,-0.0005179563304409385,-0.0001803410705178976,-0.00035157956881448627
20356.688,-0.09047841280698776,-0.5031893849372864,1.0023869276046753,-0.5484218597412109,1.3808072805404663,0.9622331857681274,-7.0875959396362305,-7.690354824066162,-2.7823781967163086,98.8088150024414,88.56426239013672,27.29062271118164,1,0.4387945532798767,0.001887128921225667,0.001101887202821672,-0.00029401821666397154,0.4387945532798767,0.001887128921225667,0.001101887202821672,-0.00029401821666397154
20366.543,-0.09775814414024353,-0.4902145564556122,1.012011170387268,-0.5393975973129272,1.390849232673645,0.9715572595596313,-6.051347255706787,-8.669809341430664,-2.5568220615386963,87.34930419921875,79.19696044921875,26.206985473632812,1,0.436673641204834,0.0024988045915961266,0.0012933585094287992,-0.00034838501596823335,0.436673641204834,0.0024988045915961266,0.0012933585094287992,-0.00034838501596823335
20376.413,-0.10392347723245621,-0.4770209789276123,1.0213605165481567,-0.5261105298995972,1.399932861328125,0.9780146479606628,-5.155810356140137,-9.504104614257812,-2.349085569381714,86.22897338867188,75.90740203857422,25.419124603271484,1,0.43525394797325134,0.0004792426771018654,-5.484433586389059e-06,-0.0003295133647043258,0.43525394797325134,0.0004792426771018654,-5.484433586389059e-06,-0.0003295133647043258
20386.265,-0.1109214797616005,-0.4639825224876404,1.031134843826294,-0.5140727162361145,1.4061378240585327,0.9862179756164551,-4.2994866371154785,-10.31768798828125,-2.097524642944336,96.5791244506836,78.64763641357422,24.344684600830078,1,0.43338915705680847,-0.0022394233383238316,-0.0015211236895993352,-0.0003871338558383286,0.43338915705680847,-0.0022394233383238316,-0.0015211236895993352,-0.0003871338558383286
20396.125,-0.11679448932409286,-0.45073437690734863,1.0406368970870972,-0.4978334903717041,1.4114868640899658,0.9922749996185303,-3.379786491394043,-11.09615707397461,-1.8795006275177002,109.2412338256836,81.36819458007812,23.44760513305664,1,0.4320475161075592,-0.003225976135581732,-0.0018484153551980853,-0.00034844415495172143,0.4320475161075592,-0.003225976135581732,-0.0018484153551980853,-0.00034844415495172143
20405.991,-0.12341995537281036,-0.43775197863578796,1.0505824089050293,-0.4827054440975189,1.4136345386505127,1.000166416168213,-2.3110034465789795,-11.948988914489746,-1.6199833154678345,113.72864532470703,78.9789810180664,21.53251075744629,1,0.4302392601966858,-0.001825348474085331,-0.0009505813359282911,-0.00039754578028805554,0.4302392601966858,-0.001825348474085331,-0.0009505813359282911,-0.00039754578028805554
20415.858,-0.12894093990325928,-0.4245075285434723,1.0602177381515503,-0.4636046290397644,1.4153006076812744,1.005502462387085,-1.184259057044983,-12.751951217651367,-1.3965129852294922,105.95964813232422,69.07083129882812,19.814537048339844,1,0.42700326442718506,0.000877348065841943,0.0007113632746040821,-0.0003501597384456545,0.42700326442718506,0.000877348065841943,0.0007113632746040821,-0.0003501597384456545
20425.71,-0.13514675199985504,-0.4116496741771698,1.0703113079071045,-0.44564878940582275,1.4128806591033936,1.0118470191955566,-0.06271063536405563,-13.51882266998291,-1.1339447498321533,93.42406463623047,56.994544982910156,18.15087127685547,1,0.4210493266582489,0.002238132758066058,0.0014025630662217736,-0.00039825571002438664,0.4210493266582489,0.002238132758066058,0.0014025630662217736,-0.00039825571002438664
20435.576,-0.1402546912431717,-0.39851194620132446,1.0800704956054688,-0.423922061920166,1.4100061655044556,1.01511549949646,0.9248034954071045,-14.13045597076416,-0.9133692383766174,88.76211547851562,49.351566314697266,16.953441619873047,1,0.4159809947013855,0.0007631427724845707,0.0005865118000656366,-0.00034702435368672013,0.4159809947013855,0.0007631427724845707,0.0005865118000656366,-0.00034702435368672013
20445.43,-0.14599639177322388,-0.385860800743103,1.090279221534729,-0.403629332780838,1.4033015966415405,1.019998550415039,1.851030707359314,-14.672539710998535,-0.6581469774246216,94.5556411743164,48.238792419433594,15.479500770568848,1,0.4102421700954437,-0.0016677515814080834,-0.0008868651348166168,-0.0003905650810338557,0.4102421700954437,-0.0016677515814080834,-0.0008868651348166168,-0.0003905650810338557
20455.3,-0.1506534367799759,-0.372906357049942,1.1001360416412354,-0.3799058496952057,1.3967212438583374,1.0223520994186401,2.782015800476074,-15.144025802612305,-0.4481024444103241,104.32511138916016,49.898521423339844,14.650712013244629,1,0.4052630066871643,-0.0029548192396759987,-0.0017306613735854626,-0.0003376181120984256,0.4052630066871643,-0.0029548192396759987,-0.0017306613735854626,-0.0003376181120984256
20465.152,-0.15588371455669403,-0.36053934693336487,1.1104539632797241,-0.3576705753803253,1.386313796043396,1.026829719543457,3.8198752403259277,-15.652665138244629,-0.20209361612796783,109.42534637451172,48.45475769042969,12.586298942565918,1,0.3994812071323395,-0.0023662103340029716,-0.0012619035551324487,-0.00037820092984475195,0.3994812071323395,-0.0023662103340029716,-0.0012619035551324487,-0.00037820092984475195
20475.011,-0.16005238890647888,-0.347834974527359,1.1203927993774414,-0.33226439356803894,1.376151442527771,1.0282992124557495,4.916666507720947,-16.13166618347168,-0.001031873864121735,104.64611053466797,39.82636260986328,11.352097511291504,1,0.3945920467376709,-0.000341002712957561,0.0002969659399241209,-0.0003222960513085127,0.3945920467376709,-0.000341002712957561,0.0002969659399241209,-0.0003222960513085127
20484.878,-0.16473840177059174,-0.33583539724349976,1.1307927370071411,-0.30867069959640503,1.36162531375885,1.0305047035217285,6.021640777587891,-16.579513549804688,0.23346884548664093,93.50170135498047,27.265365600585938,10.397649765014648,1,0.3892473876476288,0.0011973808286711574,0.0013815932907164097,-0.00036713824374601245,0.3892473876476288,0.0011973808286711574,0.0013815932907164097,-0.00036713824374601245
20494.744,-0.16838207840919495,-0.32346999645233154,1.140783667564392,-0.28197377920150757,1.3473960161209106,1.0295255184173584,7.015820026397705,-16.881866455078125,0.4096502363681793,82.26605987548828,16.278953552246094,8.981447219848633,1,0.3848572075366974,0.001504025305621326,0.0013004560023546219,-0.0002922434941865504,0.3848572075366974,0.001504025305621326,0.0013004560023546219,-0.0002922434941865504
20504.595,-0.17250259220600128,-0.3119206130504608,1.1512272357940674,-0.2575224041938782,1.328805685043335,1.0290946960449219,7.91018009185791,-17.089658737182617,0.5985408425331116,79.63565063476562,13.560404777526855,7.5009026527404785,1,0.38006579875946045,-0.00030212776619009674,-0.00042262396891601384,-0.00030561332823708653,0.38006579875946045,-0.00030212776619009674,-0.00042262396891601384,-0.00030561332823708653
20514.458,-0.1756153404712677,-0.2999318540096283,1.161207675933838,-0.23050947487354279,1.3117657899856567,1.0253981351852417,8.702240943908691,-17.22422981262207,0.732036828994751,85.71533966064453,15.499017715454102,7.167963027954102,1,0.3762797713279724,-0.002447347855195403,-0.0016129073919728398,-0.00024024306912906468,0.3762797713279724,-0.002447347855195403,-0.0016129073919728398,-0.00024024306912906468
20524.322,-0.17916201055049896,-0.28888416290283203,1.171648621559143,-0.20551367104053497,1.2899136543273926,1.023830771446228,9.570625305175781,-17.36826515197754,0.8930523991584778,90.8790512084961,15.512656211853027,7.169853210449219,1,0.37169820070266724,-0.002674306742846966,-0.001385948620736599,-0.00028135828324593604,0.37169820070266724,-0.002674306742846966,-0.001385948620736599,-0.00028135828324593604
20534.186,-0.1817394644021988,-0.2773602306842804,1.1816002130508423,-0.17824789881706238,1.2699189186096191,1.0189884901046753,10.466451644897461,-17.512908935546875,1.0237712860107422,89.39614868164062,11.131718635559082,7.000319957733154,1,0.36813896894454956,-0.0014707960654050112,-0.0005074713844805956,-0.0002481703122612089,0.36813896894454956,-0.0014707960654050112,-0.0005074713844805956,-0.0002481703122612089
20544.038,-0.1847061961889267,-0.26683613657951355,1.1919853687286377,-0.15322859585285187,1.2455991506576538,1.014722466468811,11.395596504211426,-17.643644332885742,1.1888865232467651,79.98463439941406,-0.05935966968536377,5.8437981605529785,1,0.36418673396110535,0.00026631762739270926,0.0011530214687809348,-0.0002898179809562862,0.36418673396110535,0.00026631762739270926,0.0011530214687809348,-0.0002898179809562862
20553.902,-0.18673740327358246,-0.2558233141899109,1.2018605470657349,-0.1261008381843567,1.222846508026123,1.0068553686141968,12.236233711242676,-17.672470092773438,1.2897279262542725,67.57860565185547,-11.372905731201172,5.837606906890869,1,0.3613525629043579,0.001162861124612391,0.0014764417428523302,-0.0002143315941793844,0.3613525629043579,0.001162861124612391,0.0014764417428523302,-0.0002143315941793844
20563.759,-0.18911392986774445,-0.24643845856189728,1.2115036249160767,-0.10132866352796555,1.1942392587661743,0.9971771836280823,12.946076393127441,-17.604248046875,1.3902308940887451,59.29999542236328,-17.576026916503906,4.9782328605651855,1,0.3590584993362427,0.00043343155994080007,0.0005824791151098907,-0.00021214272419456393,0.3590584993362427,0.00043343155994080007,0.0005824791151098907,-0.00021214272419456393
20573.635,-0.1912282556295395,-0.2369537502527237,1.2215436697006226,-0.07691451907157898,1.1659231185913086,0.9889229536056519,13.549837112426758,-17.445701599121094,1.463391661643982,57.5487174987793,-18.163677215576172,4.789604187011719,1,0.35618653893470764,-0.0010167171712964773,-0.0006171600543893874,-0.00018001960415858775,0.35618653893470764,-0.0010167171712964773,-0.0006171600543893874,-0.00018001960415858775
20583.481,-0.1924608051776886,-0.22661982476711273,1.231460690498352,-0.05040820315480232,1.1400933265686035,0.9802780747413635,14.128186225891113,-17.263399124145508,1.4941200017929077,60.722110748291016,-16.624454498291016,5.436984062194824,1,0.35344547033309937,-0.002315237419679761,-0.0012151246191933751,-0.0001332843239651993,0.35344547033309937,-0.002315237419679761,-0.0012151246191933751,-0.0001332843239651993
20593.34,-0.19343407452106476,-0.2167484611272812,1.2410808801651,-0.02437150478363037,1.1130462884902954,0.9698600172996521,14.718440055847168,-17.094919204711914,1.528923511505127,61.74893569946289,-16.808259963989258,6.026193141937256,1,0.35126814246177673,-0.002118443138897419,-0.0009713899926282465,-0.00014405118417926133,0.35126814246177673,-0.002118443138897419,-0.0009713899926282465,-0.00014405118417926133
20603.206,-0.19474080204963684,-0.2080991268157959,1.2511157989501953,-0.000839927583001554,1.0817168951034546,0.9610220193862915,15.352328300476074,-16.92579460144043,1.5949839353561401,55.80692672729492,-21.59275245666504,6.945774078369141,1,0.34846609830856323,-0.0007181381806731224,5.661871182383038e-05,-0.00019232460181228817,0.34846609830856323,-0.0007181381806731224,5.661871182383038e-05,-0.00019232460181228817
20613.076,-0.19521217048168182,-0.19885706901550293,1.260556697845459,0.02434169501066208,1.0529168844223022,0.9491071701049805,15.938817977905273,-16.7275447845459,1.6299211978912354,46.06827926635742,-30.620615005493164,7.162641525268555,1,0.3467012643814087,0.00022792660456616431,0.0011733461869880557,-0.00015677028568461537,0.3467012643814087,0.00022792660456616431,0.0011733461869880557,-0.00015677028568461537
20622.925,-0.19600678980350494,-0.19087199866771698,1.2703747749328613,0.04700774326920509,1.02023184299469,0.9385931491851807,16.439659118652344,-16.449190139770508,1.6719468832015991,34.68732452392578,-38.08636474609375,6.6003804206848145,1,0.3443779945373535,0.000789435813203454,0.0010965641122311354,-0.00016339604917448014,0.3443779945373535,0.000789435813203454,0.0010965641122311354,-0.00016339604917448014
20632.784,-0.19600728154182434,-0.18226900696754456,1.279593825340271,0.07097361236810684,0.9901799559593201,0.9249579310417175,16.809736251831055,-16.096778869628906,1.6561137437820435,27.43470001220703,-42.5462532043457,6.838513374328613,1,0.3431088328361511,7.355592970270663e-05,0.0006115143187344074,-9.258320642402396e-05,0.3431088328361511,7.355592970270663e-05,0.0006115143187344074,-9.258320642402396e-05
20642.647,-0.1963285207748413,-0.1749977320432663,1.2891746759414673,0.09230561554431915,0.9561004638671875,0.9131848216056824,17.09925079345703,-15.679895401000977,1.6390002965927124,24.29534339904785,-42.65950012207031,6.981902599334717,1,0.3411771357059479,-0.0008258912130258977,-0.00028244833811186254,-9.134087304119021e-05,0.3411771357059479,-0.0008258912130258977,-0.00028244833811186254,-9.134087304119021e-05
20652.517,-0.19587872922420502,-0.16705812513828278,1.2981547117233276,0.11496671289205551,0.9250988364219666,0.899076521396637,17.33043098449707,-15.261667251586914,1.5930181741714478,23.887012481689453,-40.43680953979492,8.146016120910645,1,0.34010714292526245,-0.0015178975882008672,-0.0008818646310828626,-6.182073411764577e-05,0.34010714292526245,-0.0015178975882008672,-0.0008818646310828626,-6.182073411764577e-05
20662.37,-0.19574719667434692,-0.16048628091812134,1.307478666305542,0.13486248254776,0.8905140161514282,0.8865507245063782,17.560211181640625,-14.840497970581055,1.5753173828125,22.4782657623291,-40.37350082397461,9.15164852142334,1,0.33845484256744385,-0.0014545039739459753,-0.00046762858983129263,-0.00010340922744944692,0.33845484256744385,-0.0014545039739459753,-0.00046762858983129263,-0.00010340922744944692
20672.229,-0.19488564133644104,-0.15320225059986115,1.316195011138916,0.15591251850128174,0.8593382835388184,0.871405839920044,17.775156021118164,-14.439258575439453,1.5546272993087769,17.278894424438477,-44.92707824707031,10.542699813842773,1,0.33774060010910034,-0.0006431304500438273,0.0006073203403502703,-0.00010873349674511701,0.33774060010910034,-0.0006431304500438273,0.0006073203403502703,-0.00010873349674511701
20682.088,-0.19434472918510437,-0.1473553478717804,1.3252382278442383,0.17449906468391418,0.8239908814430237,0.8581859469413757,17.970563888549805,-13.995787620544434,1.5494288206100464,8.433652877807617,-50.65536117553711,10.803247451782227,1,0.33636966347694397,0.00024938039132393897,0.0010657545644789934,-0.00012967563816346228,0.33636966347694397,0.00024938039132393897,0.0010657545644789934,-0.00012967563816346228
20691.958,-0.19309580326080322,-0.14076383411884308,1.3336831331253052,0.1941760927438736,0.7921673059463501,0.8423934578895569,18.07701301574707,-13.513931274414062,1.5189789533615112,-0.3144175410270691,-56.00123977661133,11.073212623596191,1,0.3359225392341614,0.0004350445815362036,0.0011902833357453346,-9.897234122036025e-05,0.3359225392341614,0.0004350445815362036,0.0011902833357453346,-9.897234122036025e-05
20701.816,-0.1921876221895218,-0.1356291025876999,1.3424286842346191,0.21104879677295685,0.7566017508506775,0.8281465172767639,18.09212875366211,-12.952132225036621,1.4810333251953125,-6.582754611968994,-58.51285934448242,11.275505065917969,1,0.33492857217788696,2.2744266971130855e-05,0.0007483025547116995,-8.950695337262005e-05,0.33492857217788696,2.2744266971130855e-05,0.0007483025547116995,-8.950695337262005e-05
20711.676,-0.19028855860233307,-0.12861323356628418,1.3518688678741455,0.23071593046188354,0.7233410477638245,0.8127700686454773,18.00843048095703,-12.282437324523926,1.408790111541748,-9.81839656829834,-57.21849822998047,11.607036590576172,1,0.3338543474674225,-0.0005636061541736126,-4.5165921619627625e-05,-4.62028656329494e-05,0.3338543474674225,-0.0005636061541736126,-4.5165921619627625e-05,-4.62028656329494e-05
20721.53,-0.18905390799045563,-0.12429188936948776,1.3601669073104858,0.24599508941173553,0.6875479221343994,0.7982657551765442,17.90149688720703,-11.707865715026855,1.3618855476379395,-11.598642349243164,-54.114524841308594,12.293214797973633,1,0.3331179916858673,-0.0009321923716925085,-0.0004985995474271476,-8.063316636253148e-05,0.3331179916858673,-0.0009321923716925085,-0.0004985995474271476,-8.063316636253148e-05
20731.408,-0.18704652786254883,-0.11878807842731476,1.3684264421463013,0.26194459199905396,0.6567680835723877,0.7841903567314148,17.7803897857666,-11.135236740112305,1.3152763843536377,-13.301934242248535,-52.48508071899414,13.713357925415039,1,0.3322814702987671,-0.000978164840489626,-0.0002456703514326364,-8.915200305636972e-05,0.3322814702987671,-0.000978164840489626,-0.0002456703514326364,-8.915200305636972e-05
20741.261,-0.18552978336811066,-0.11519686877727509,1.376407504081726,0.27542832493782043,0.6208031177520752,0.7693143486976624,17.661880493164062,-10.600627899169922,1.2961026430130005,-17.972705841064453,-54.09616470336914,14.401823043823242,1,0.33177095651626587,-0.0003448740753810853,0.0005058583337813616,-0.00012730930757243186,0.33177095651626587,-0.0003448740753810853,0.0005058583337813616,-0.00012730930757243186
20751.122,-0.18324805796146393,-0.11037348955869675,1.3843395709991455,0.2895411252975464,0.5907660722732544,0.7542792558670044,17.48541259765625,-10.030861854553223,1.2764698266983032,-23.462610244750977,-57.672027587890625,14.852235794067383,1,0.33131393790245056,-4.677899050875567e-05,0.001074303756467998,-0.00012920238077640533,0.33131393790245056,-4.677899050875567e-05,0.001074303756467998,-0.00012920238077640533
20760.98,-0.18151132762432098,-0.10742910206317902,1.391973853111267,0.3011436462402344,0.5556880831718445,0.7390589118003845,17.258329391479492,-9.45180606842041,1.2613632678985596,-30.272964477539062,-60.490989685058594,14.904109954833984,1,0.3310418426990509,0.00036552135134115815,0.0010891440324485302,-0.00013458580360747874,0.3310418426990509,0.00036552135134115815,0.0010891440324485302,-0.00013458580360747874
20770.845,-0.17868457734584808,-0.10273081064224243,1.400300145149231,0.31498149037361145,0.5238327383995056,0.7228060364723206,16.914623260498047,-8.754626274108887,1.226931095123291,-35.37668991088867,-60.9736328125,15.234248161315918,1,0.3306724429130554,0.0001675978273851797,0.0006931356037966907,-0.0001115139530156739,0.3306724429130554,0.0001675978273851797,0.0006931356037966907,-0.0001115139530156739
20780.699,-0.17676271498203278,-0.10052080452442169,1.4075037240982056,0.3248368501663208,0.4891650080680847,0.707638144493103,16.566133499145508,-8.147629737854004,1.1941291093826294,-38.42413330078125,-58.39835739135742,15.126364707946777,1,0.3305836021900177,-0.0002287331153638661,4.210109545965679e-05,-0.00011139564594486728,0.3305836021900177,-0.0002287331153638661,4.210109545965679e-05,-0.00011139564594486728
20790.56,-0.17405609786510468,-0.09705977141857147,1.4147402048110962,0.3353372812271118,0.4603767693042755,0.6937260031700134,16.17331314086914,-7.526641845703125,1.1686372756958008,-39.99626541137695,-56.10014343261719,15.250925064086914,1,0.33015796542167664,-0.0005063422722741961,6.32322917226702e-05,-0.00012032858649035916,0.33015796542167664,-0.0005063422722741961,6.32322917226702e-05,-0.00012032858649035916
20800.418,-0.17199575901031494,-0.09546925872564316,1.4216399192810059,0.3431636691093445,0.42651650309562683,0.6793336272239685,15.786423683166504,-6.956800937652588,1.1579127311706543,-41.75794219970703,-54.83644104003906,15.627857208251953,1,0.3300112783908844,-0.0004952120943926275,0.00029099758830852807,-0.00014097493840381503,0.3300112783908844,-0.0004952120943926275,0.00029099758830852807,-0.00014097493840381503
20810.292,-0.16912825405597687,-0.09263665229082108,1.428574800491333,0.35193705558776855,0.3988293707370758,0.6653020977973938,15.368956565856934,-6.378767490386963,1.1597685813903809,-44.54761505126953,-53.40128707885742,16.1511287689209,1,0.3297498822212219,-0.0002137315896106884,0.00025389701477251947,-0.00016043811046984047,0.3297498822212219,-0.0002137315896106884,0.00025389701477251947,-0.00016043811046984047
20820.138,-0.16696003079414368,-0.09162240475416183,1.4351592063903809,0.3578415513038635,0.3664099872112274,0.650305986404419,14.93838119506836,-5.836508750915527,1.1681146621704102,-48.649559020996094,-53.52153778076172,16.265750885009766,1,0.329896479845047,0.00013098117779009044,0.0006460339645855129,-0.0001697260158834979,0.329896479845047,0.00013098117779009044,0.0006460339645855129,-0.0001697260158834979
20829.999,-0.16397814452648163,-0.08936052024364471,1.4417788982391357,0.36487293243408203,0.34024694561958313,0.6363467574119568,14.444302558898926,-5.267897605895996,1.181146264076233,-52.69849395751953,-54.609779357910156,15.878527641296387,1,0.3297617733478546,0.00026696285931393504,0.0009478391730226576,-0.0001734529942041263,0.3297617733478546,0.00026696285931393504,0.0009478391730226576,-0.0001734529942041263
20839.861,-0.16174830496311188,-0.08887457102537155,1.4480438232421875,0.3690178692340851,0.3091496229171753,0.6218684911727905,13.935365676879883,-4.718701362609863,1.183553695678711,-56.23408126831055,-54.36530303955078,15.321682929992676,1,0.3299272358417511,0.00024228289839811623,0.0007555613410659134,-0.00015647448890376836,0.3299272358417511,0.00024228289839811623,0.0007555613410659134,-0.00015647448890376836
20849.732,-0.15831665694713593,-0.08688866347074509,1.4549676179885864,0.3750728666782379,0.2822529673576355,0.6067678928375244,13.311731338500977,-4.086452484130859,1.1989288330078125,-57.940914154052734,-53.82802200317383,15.665472030639648,1,0.3299138844013214,-5.0166436267318204e-05,0.0007542708772234619,-0.00017570104682818055,0.3299138844013214,-5.0166436267318204e-05,0.0007542708772234619,-0.00017570104682818055
20859.583,-0.15609286725521088,-0.08696913719177246,1.4608343839645386,0.3772531747817993,0.2525692582130432,0.5921106934547424,12.763575553894043,-3.5572495460510254,1.2102422714233398,-58.75593185424805,-50.35361862182617,15.212908744812012,1,0.33031216263771057,-0.00024938039132393897,0.00011533440556377172,-0.00016801041783764958,0.33031216263771057,-0.00024938039132393897,0.00011533440556377172,-0.00016801041783764958
20869.445,-0.15300598740577698,-0.08581341803073883,1.466800332069397,0.3807620108127594,0.2294773906469345,0.5788477063179016,12.166959762573242,-3.026923894882202,1.2383933067321777,-59.44906997680664,-46.28988265991211,15.103243827819824,1,0.3303103446960449,-0.00023195927496999502,-9.339667303720489e-05,-0.00018942583119496703,0.3303103446960449,-0.00023195927496999502,-9.339667303720489e-05,-0.00018942583119496703
20879.304,-0.15080127120018005,-0.0863037109375,1.4723711013793945,0.3810274302959442,0.20197156071662903,0.5651007890701294,11.584590911865234,-2.5639402866363525,1.2603106498718262,-61.1575927734375,-44.217918395996094,15.35865306854248,1,0.3306216895580292,5.968354344076943e-06,0.0003134192375000566,-0.00018451566575095057,0.3306216895580292,5.968354344076943e-06,0.0003134192375000566,-0.00018451566575095057
20889.18,-0.14771322906017303,-0.08562365919351578,1.4780553579330444,0.38296905159950256,0.18048177659511566,0.5524981617927551,10.970285415649414,-2.094912528991699,1.3116507530212402,-63.72549819946289,-42.60225296020508,14.615743637084961,1,0.3305879831314087,0.0003053538966923952,0.00040891292155720294,-0.00021805858705192804,0.3305879831314087,0.0003053538966923952,0.00040891292155720294,-0.00021805858705192804
20899.027,-0.14555242657661438,-0.0865238755941391,1.4833372831344604,0.38159552216529846,0.15470358729362488,0.5388593077659607,10.359006881713867,-1.6688998937606812,1.3451619148254395,-66.08583068847656,-42.84906768798828,13.893758773803711,1,0.3310088813304901,0.0003364861477166414,0.0008857360808178782,-0.00019226544827688485,0.3310088813304901,0.0003364861477166414,0.0008857360808178782,-0.00019226544827688485
20908.885,-0.1424947828054428,-0.08626753091812134,1.4887340068817139,0.38203561305999756,0.13530249893665314,0.5255690813064575,9.691413879394531,-1.21647310256958,1.3937991857528687,-67.91260528564453,-43.01214599609375,13.2756929397583,1,0.33128347992897034,0.00034632583265192807,0.0009505813359282911,-0.00020882983517367393,0.33128347992897034,0.00034632583265192807,0.0009505813359282911,-0.00020882983517367393
20918.75,-0.14041514694690704,-0.08751166611909866,1.4937187433242798,0.37897777557373047,0.11174102872610092,0.511620819568634,9.042519569396973,-0.7845839858055115,1.4222841262817383,-68.42583465576172,-42.076454162597656,12.99315071105957,1,0.3319254219532013,9.920371667249128e-05,0.0007960494258441031,-0.00018303671095054597,0.3319254219532013,9.920371667249128e-05,0.0007960494258441031,-0.00018303671095054597
20928.617,-0.1374228149652481,-0.08762527257204056,1.4988282918930054,0.3779395520687103,0.09443511813879013,0.49896252155303955,8.345947265625,-0.34326648712158203,1.46918785572052,-68.7754135131836,-39.84104919433594,12.1889009475708,1,0.3321828544139862,0.00013969173596706241,0.000526505580637604,-0.000202322393306531,0.3321828544139862,0.00013969173596706241,0.000526505580637604,-0.000202322393306531
20938.472,-0.13545255362987518,-0.0891445055603981,1.503525733947754,0.37320640683174133,0.07336609810590744,0.4856356084346771,7.678640842437744,0.05320436879992485,1.4949824810028076,-68.4352798461914,-34.844749450683594,12.030707359313965,1,0.3328104615211487,6.452274305956962e-07,-0.00012420628627296537,-0.0001761151506798342,0.3328104615211487,6.452274305956962e-07,-0.00012420628627296537,-0.0001761151506798342
20948.333,-0.1325521469116211,-0.0895899310708046,1.508355975151062,0.370731383562088,0.058157313615083694,0.47295865416526794,6.988478183746338,0.4242960512638092,1.5524972677230835,-68.0667724609375,-31.37722396850586,11.81600284576416,1,0.33320942521095276,4.6940298489062116e-05,0.00011936708324356005,-0.00021652047871612012,0.33320942521095276,4.6940298489062116e-05,0.00011936708324356005,-0.00021652047871612012
20958.197,-0.13071486353874207,-0.09138011932373047,1.512770652770996,0.364520788192749,0.03906819596886635,0.4591515362262726,6.344611167907715,0.7459273338317871,1.5912165641784668,-68.90807342529297,-30.156475067138672,11.398914337158203,1,0.33409664034843445,0.00034197053173556924,0.0006232897285372019,-0.00019196965149603784,0.33409664034843445,0.00034197053173556924,0.0006232897285372019,-0.00019196965149603784
20968.062,-0.1279318928718567,-0.09210960566997528,1.5173189640045166,0.3609040677547455,0.025946207344532013,0.44682982563972473,5.646606922149658,1.0643162727355957,1.6562050580978394,-69.4997329711914,-29.445236206054688,10.83642292022705,1,0.3345482349395752,0.00039423396810889244,0.0007691110949963331,-0.00022344200988300145,0.3345482349395752,0.00039423396810889244,0.0007691110949963331,-0.00022344200988300145
20977.919,-0.12624426186084747,-0.09406953305006027,1.5214530229568481,0.3535362184047699,0.0095770712941885,0.4339231252670288,4.971951484680176,1.3594106435775757,1.6938674449920654,-69.12352752685547,-29.310670852661133,10.380395889282227,1,0.33535197377204895,0.0002238939341623336,0.00098316534422338,-0.00018794687639456242,0.33535197377204895,0.0002238939341623336,0.00098316534422338,-0.00018794687639456242
20987.778,-0.12359923869371414,-0.09501364082098007,1.525735855102539,0.34888046979904175,-0.0010960563085973263,0.42211276292800903,4.258662223815918,1.663197636604309,1.7507412433624268,-68.72927856445312,-27.494674682617188,9.759180068969727,1,0.3358093798160553,0.00029970816103741527,0.0006473244866356254,-0.00020989470067434013,0.3358093798160553,0.00029970816103741527,0.0006473244866356254,-0.00020989470067434013
20997.635,-0.1220923513174057,-0.09711439162492752,1.5296066999435425,0.3402605652809143,-0.014972764067351818,0.40925443172454834,3.590953826904297,1.93982994556427,1.7880233526229858,-68.04863739013672,-24.710813522338867,8.810090065002441,1,0.3367335796356201,0.00026696285931393504,0.000448433100245893,-0.00018049287609755993,0.3367335796356201,0.00026696285931393504,0.000448433100245893,-0.00018049287609755993
21007.505,-0.11961303651332855,-0.0982542634010315,1.5336270332336426,0.334503710269928,-0.023631760850548744,0.39785176515579224,2.8973917961120605,2.194122552871704,1.844961404800415,-66.61107635498047,-21.465381622314453,8.62971019744873,1,0.3372224271297455,0.00015743551193736494,0.0002976111718453467,-0.0002061677078017965,0.3372224271297455,0.00015743551193736494,0.0002976111718453467,-0.0002061677078017965
21017.354,-0.11829780787229538,-0.10044728964567184,1.5372380018234253,0.3247401714324951,-0.035029202699661255,0.3853612244129181,2.249077320098877,2.4117774963378906,1.877389907836914,-65.1797866821289,-17.35932159423828,7.897853851318359,1,0.3381871283054352,0.00016340386355295777,6.14579112152569e-05,-0.00017197405395563692,0.3381871283054352,0.00016340386355295777,6.14579112152569e-05,-0.00017197405395563692
21027.216,-0.11599686741828918,-0.10172731429338455,1.541006326675415,0.318132609128952,-0.04156298190355301,0.37431034445762634,1.586722493171692,2.5940189361572266,1.9297568798065186,-64.23255157470703,-15.12554931640625,7.279501438140869,1,0.3387170732021332,0.0003282594552729279,0.0004114938201382756,-0.0001946317934198305,0.3387170732021332,0.0003282594552729279,0.0004114938201382756,-0.0001946317934198305
21037.079,-0.11487936228513718,-0.10397517681121826,1.5443671941757202,0.3076499402523041,-0.05062863603234291,0.36149677634239197,0.9662044048309326,2.7500810623168945,1.9588488340377808,-63.23573684692383,-14.316526412963867,6.7523088455200195,1,0.3398907482624054,0.0003479388833511621,0.0007607231382280588,-0.00016327774210367352,0.3398907482624054,0.0003479388833511621,0.0007607231382280588,-0.00016327774210367352
21046.949,-0.11293444782495499,-0.10537326335906982,1.5476467609405518,0.2999221682548523,-0.055635225027799606,0.3493042290210724,0.3528471887111664,2.8934974670410156,2.0021820068359375,-61.39545822143555,-13.523582458496094,7.148096084594727,1,0.34095466136932373,0.00020582755678333342,0.0007965333643369377,-0.0001856988383224234,0.34095466136932373,0.00020582755678333342,0.0007965333643369377,-0.0001856988383224234
21056.805,-0.11201538890600204,-0.10760480165481567,1.5507813692092896,0.2887645363807678,-0.062055476009845734,0.33766382932662964,-0.2546207904815674,3.0352487564086914,2.030895948410034,-59.28728103637695,-11.588116645812988,6.762940406799316,1,0.34195733070373535,0.00015033800445962697,0.0005857052165083587,-0.0001661173446336761,0.34195733070373535,0.00015033800445962697,0.0005857052165083587,-0.0001661173446336761
21066.661,-0.11010713130235672,-0.10902243852615356,1.5540610551834106,0.2809721529483795,-0.06440425664186478,0.32702916860580444,-0.8574862480163574,3.1546013355255127,2.081859588623047,-57.376644134521484,-9.023082733154297,6.744114875793457,1,0.342640221118927,0.00022905576042830944,0.0004145586572121829,-0.00019587411952670664,0.342640221118927,0.00022905576042830944,0.0004145586572121829,-0.00019587411952670664
21076.519,-0.10834585875272751,-0.11047057807445526,1.5571541786193848,0.2727980613708496,-0.06614682078361511,0.31629011034965515,-1.4237291812896729,3.2428410053253174,2.1308443546295166,-56.086341857910156,-5.186566352844238,6.581445693969727,1,0.3434440791606903,0.00041294560651294887,5.88770053582266e-05,-0.0001944543037097901,0.3434440791606903,0.00041294560651294887,5.88770053582266e-05,-0.0001944543037097901
21086.393,-0.10770700871944427,-0.11266663670539856,1.5600097179412842,0.2610160708427429,-0.06931234896183014,0.3054899275302887,-1.9771808385849,3.305534839630127,2.160874128341675,-54.22630310058594,-2.5207719802856445,5.738979816436768,1,0.34438446164131165,0.0003147097013425082,0.0002721246855799109,-0.00016629480523988605,0.34438446164131165,0.0003147097013425082,0.0002721246855799109,-0.00016629480523988605
21096.242,-0.10722681879997253,-0.11479466408491135,1.5626879930496216,0.24888408184051514,-0.07133930921554565,0.2943277955055237,-2.513780355453491,3.340254306793213,2.178635597229004,-52.31843948364258,-1.2499675750732422,5.352261543273926,1,0.34550735354423523,0.0003239041834603995,0.0005837695207446814,-0.00014913882478140295,0.34550735354423523,0.0003239041834603995,0.0005837695207446814,-0.00014913882478140295
21106.112,-0.10574771463871002,-0.11616472899913788,1.5655148029327393,0.2404036819934845,-0.06958387047052383,0.2840757668018341,-3.0561904907226562,3.3544981479644775,2.2138025760650635,-50.1622200012207,-0.03546087443828583,5.59745979309082,1,0.3463338017463684,0.0003150323173031211,0.0005879634991288185,-0.00017404458776582032,0.3463338017463684,0.0003150323173031211,0.0005879634991288185,-0.00017404458776582032
21115.97,-0.1054929718375206,-0.11818421632051468,1.5679757595062256,0.22806812822818756,-0.0695507749915123,0.27295559644699097,-3.549776315689087,3.365670919418335,2.2300965785980225,-46.42665100097656,0.29668891429901123,5.6118364334106445,1,0.34756261110305786,-5.4521722631761804e-05,0.0008320208289660513,-0.0001515051699243486,0.34756261110305786,-5.4521722631761804e-05,0.0008320208289660513,-0.0001515051699243486
21125.834,-0.10423195362091064,-0.11950370669364929,1.5705773830413818,0.2194681316614151,-0.06637111306190491,0.26294100284576416,-4.019224166870117,3.359126567840576,2.2688746452331543,-43.458953857421875,3.4993441104888916,5.654658317565918,1,0.3484508693218231,0.00010033287253463641,0.00016404908092226833,-0.00018143941997550428,0.3484508693218231,0.00010033287253463641,0.00016404908092226833,-0.00018143941997550428
21135.686,-0.103859543800354,-0.12145040184259415,1.5732313394546509,0.20706410706043243,-0.06367742270231247,0.25183284282684326,-4.50277853012085,3.3211045265197754,2.296755313873291,-41.856266021728516,6.295337200164795,5.223057746887207,1,0.34958916902542114,0.00042552754166536033,0.00019937529577873647,-0.0001661173446336761,0.34958916902542114,0.00042552754166536033,0.00019937529577873647,-0.0001661173446336761
21145.544,-0.10284332185983658,-0.1226566880941391,1.5755867958068848,0.19832615554332733,-0.058833856135606766,0.2419498711824417,-4.924595355987549,3.254122734069824,2.3245482444763184,-40.8753776550293,9.273314476013184,5.60225772857666,1,0.35057592391967773,0.0006321616237983108,7.049109990475699e-05,-0.00016996264457702637,0.35057592391967773,0.0006321616237983108,7.049109990475699e-05,-0.00016996264457702637
21155.411,-0.10276683419942856,-0.12441383302211761,1.5779497623443604,0.18581245839595795,-0.054144904017448425,0.2307724952697754,-5.385204315185547,3.150357961654663,2.3390212059020996,-39.061092376708984,11.322846412658691,5.423231601715088,1,0.35188600420951843,0.000515214167535305,0.00022792660456616431,-0.00015280666411854327,0.35188600420951843,0.000515214167535305,0.00022792660456616431,-0.00015280666411854327
21165.284,-0.10378735512495041,-0.12495359033346176,1.5778149366378784,0.18243584036827087,-0.05581112578511238,0.23026955127716064,-5.390698432922363,3.156154155731201,2.319620132446289,-35.09392547607422,12.364898681640625,5.3039774894714355,1,0.3517886996269226,-9.08157744561322e-05,0.00042649536044336855,-0.00010914761514868587,0.3517886996269226,-9.08157744561322e-05,0.00042649536044336855,-0.00010914761514868587
21175.133,-0.10235625505447388,-0.12699127197265625,1.581953763961792,0.1652357131242752,-0.04229166731238365,0.21160738170146942,-6.109104633331299,2.9184179306030273,2.3654205799102783,-30.4517822265625,11.637150764465332,5.259207725524902,1,0.35408440232276917,-0.00017711494001559913,0.0008444414706900716,-0.00019185134442523122,0.35408440232276917,-0.00017711494001559913,0.0008444414706900716,-0.00019185134442523122
21184.997,-0.10179039090871811,-0.12789082527160645,1.5838819742202759,0.15680770576000214,-0.03455718234181404,0.20276343822479248,-6.402663707733154,2.8062148094177246,2.39469838142395,-27.745798110961914,12.613768577575684,5.372738838195801,1,0.3550463616847992,0.0002155059773940593,0.00048117837286554277,-0.0001734529942041263,0.3550463616847992,0.0002155059773940593,0.00048117837286554277,-0.0001734529942041263
21194.853,-0.10236891359090805,-0.12920188903808594,1.5855705738067627,0.14518381655216217,-0.02797621861100197,0.19305333495140076,-6.67476224899292,2.680148124694824,2.401928424835205,-26.73964500427246,14.55919361114502,5.090342998504639,1,0.35634854435920715,0.0006134499562904239,0.00025680052931420505,-0.0001444653025828302,0.35634854435920715,0.0006134499562904239,0.00025680052931420505,-0.0001444653025828302
21204.728,-0.10200496017932892,-0.12991058826446533,1.5873138904571533,0.137112095952034,-0.019074957817792892,0.18443210422992706,-6.943288803100586,2.5250070095062256,2.4159750938415527,-24.875690460205078,17.061616897583008,4.766597270965576,1,0.35735851526260376,0.00048053317004814744,5.1940813136752695e-05,-0.00015132769476622343,0.35735851526260376,0.00048053317004814744,5.1940813136752695e-05,-0.00015132769476622343
21214.578,-0.10266512632369995,-0.13099420070648193,1.5889971256256104,0.12537933886051178,-0.010105067864060402,0.1745022088289261,-7.213750839233398,2.3296685218811035,2.412505626678467,-22.42255210876465,19.619871139526367,4.192530632019043,1,0.35872969031333923,0.0003760063264053315,-2.968046464957297e-05,-0.0001254162343684584,0.35872969031333923,0.0003760063264053315,-2.968046464957297e-05,-0.0001254162343684584
21224.437,-0.1037113294005394,-0.13144199550151825,1.588841438293457,0.12192399799823761,-0.011638895608484745,0.173862025141716,-7.20780611038208,2.3354222774505615,2.4002268314361572,-18.160615921020508,20.404136657714844,5.001105785369873,1,0.358710378408432,-0.00017275965365115553,0.0003342278359923512,-0.00011973700020462275,0.358710378408432,-0.00017275965365115553,0.0003342278359923512,-0.00011973700020462275
21234.299,-0.10460751503705978,-0.13236238062381744,1.5902318954467773,0.1107856035232544,-0.003303864970803261,0.16474777460098267,-7.409499645233154,2.145054578781128,2.4002668857574463,-14.312369346618652,20.766454696655273,4.968413829803467,1,0.3600325584411621,-0.00015098323638085276,0.00043810944771394134,-0.00013488160038832575,0.3600325584411621,-0.00015098323638085276,0.00043810944771394134,-0.00013488160038832575
21244.173,-0.10456697642803192,-0.13275136053562164,1.5916922092437744,0.10337118804454803,0.007002260535955429,0.15705502033233643,-7.573941707611084,1.9388891458511353,2.410026788711548,-10.354901313781738,20.260679244995117,5.365634441375732,1,0.36097219586372375,-0.00023099142708815634,0.0006289355223998427,-0.00015026282926555723,0.36097219586372375,-0.00023099142708815634,0.0006289355223998427,-0.00015026282926555723
21254.016,-0.10464151203632355,-0.13303355872631073,1.5930464267730713,0.09602917730808258,0.017718276008963585,0.1498136669397354,-7.703158855438232,1.7428474426269531,2.421992301940918,-8.873948097229004,20.63216209411621,5.837943077087402,1,0.3618568778038025,0.0003056765126530081,0.0004356898716650903,-0.00015694776084274054,0.3618568778038025,0.0003056765126530081,0.0004356898716650903,-0.00015694776084274054
21263.878,-0.10570117086172104,-0.13355237245559692,1.5943737030029297,0.08553537726402283,0.02867467701435089,0.1413097232580185,-7.8104634284973145,1.5223182439804077,2.4362523555755615,-8.985010147094727,22.129806518554688,5.647740840911865,1,0.36307433247566223,0.0007234613294713199,0.00017179182032123208,-0.0001591366162756458,0.36307433247566223,0.0007234613294713199,0.00017179182032123208,-0.0001591366162756458
21273.738,-0.10682279616594315,-0.1338971108198166,1.5956438779830933,0.07568254321813583,0.03995759040117264,0.13208399713039398,-7.910624027252197,1.2856076955795288,2.4593818187713623,-8.335064888000488,24.18077278137207,5.813048839569092,1,0.3645068109035492,0.0006387751782312989,-5.968354344076943e-06,-0.00017238815780729055,0.3645068109035492,0.0006387751782312989,-5.968354344076943e-06,-0.00017238815780729055
21283.615,-0.107151098549366,-0.13380613923072815,1.5967634916305542,0.0694306418299675,0.05132417380809784,0.123945452272892,-8.008050918579102,1.0548067092895508,2.4728922843933105,-6.288248062133789,25.642963409423828,5.71255350112915,1,0.3657509684562683,0.00037342539872042835,3.919757000403479e-05,-0.00016037895693443716,0.3657509684562683,0.00037342539872042835,3.919757000403479e-05,-0.00016037895693443716
21293.458,-0.10853185504674911,-0.1339232325553894,1.5977236032485962,0.06044745072722435,0.06196565181016922,0.11616192013025284,-8.087702751159668,0.8033012747764587,2.479818344116211,-2.492377758026123,26.488683700561523,5.510984897613525,1,0.3669930696487427,-4.3391544750193134e-05,0.00013936913455836475,-0.00015115021960809827,0.3669930696487427,-4.3391544750193134e-05,0.00013936913455836475,-0.00015115021960809827
21303.321,-0.10900616645812988,-0.13360366225242615,1.5986970663070679,0.054908741265535355,0.073750339448452,0.10950229316949844,-8.12587833404541,0.5449059009552002,2.4932079315185547,2.6626718044281006,25.531496047973633,5.99823522567749,1,0.36795487999916077,-0.0004360124876257032,0.0005174724501557648,-0.00016327774210367352,0.36795487999916077,-0.0004360124876257032,0.0005174724501557648,-0.00016327774210367352
21313.185,-0.1105266809463501,-0.13346470892429352,1.5995228290557861,0.046740639954805374,0.08475597947835922,0.10260471701622009,-8.121241569519043,0.28251081705093384,2.5069470405578613,6.510695457458496,25.919828414916992,5.7529778480529785,1,0.36905497312545776,-0.0002547035401221365,0.0002343788801226765,-0.00016262698045466095,0.36905497312545776,-0.0002547035401221365,0.0002343788801226765,-0.00016262698045466095
21323.052,-0.11112968623638153,-0.1329001784324646,1.6003694534301758,0.0420759841799736,0.09678665548563004,0.09613025933504105,-8.075291633605957,0.026959825307130814,2.521343469619751,7.626950263977051,25.96585464477539,5.6081862449646,1,0.3700452148914337,0.0003242267994210124,0.00027422167477197945,-0.00016310025239363313,0.3700452148914337,0.0003242267994210124,0.00027422167477197945,-0.00016310025239363313
21332.899,-0.11276988685131073,-0.13251005113124847,1.6010714769363403,0.03474554046988487,0.10774878412485123,0.08955713361501694,-8.000678062438965,-0.2372433841228485,2.54160213470459,8.167082786560059,25.765581130981445,6.0337934494018555,1,0.3711376190185547,0.0004777909489348531,0.0003316469374112785,-0.00017434039909858257,0.3711376190185547,0.0004777909489348531,0.0003316469374112785,-0.00017434039909858257
21342.762,-0.11348502337932587,-0.1317051351070404,1.6017992496490479,0.030902588739991188,0.11975626647472382,0.08365146070718765,-7.925245761871338,-0.4955197870731354,2.560889720916748,8.39094352722168,26.406564712524414,5.806216239929199,1,0.3720567524433136,0.0006019971915520728,0.00010420423495816067,-0.00017244731134269387,0.3720567524433136,0.0006019971915520728,0.00010420423495816067,-0.00017244731134269387
