timestamp,stateEstimate.x,stateEstimate.y,stateEstimate.z,stateEstimate.vx,stateEstimate.vy,stateEstimate.vz,stateEstimate.roll,stateEstimate.pitch,stateEstimate.yaw,gyro.x,gyro.y,gyro.z,ILBC.nominal_controller,ILBC.nominal_thrust,ILBC.nominal_torqueX,ILBC.nominal_torqueY,ILBC.nominal_torqueZ,ILBC.full_thrust,ILBC.full_torqueX,ILBC.full_torqueY,ILBC.full_torqueZ
45108.6,0.046461787074804306,-0.7985612154006958,0.704197108745575,0.17384326457977295,0.007850234396755695,-0.006480701733380556,-0.2800932228565216,-4.029124736785889,-8.513022422790527,-0.11225135624408722,0.04735877737402916,0.2011495977640152,1,0.0,0.0,0.0,0.0,0.0,0.0,0.0,0.0
45118.45,0.04706621915102005,-0.7985345125198364,0.7041749358177185,0.17568689584732056,0.008096110075712204,-0.006561310961842537,-0.2803070545196533,-4.026933670043945,-8.502537727355957,0.0362076610326767,0.049243632704019547,0.041310202330350876,1,0.0,0.0,0.0,0.0,0.0,0.0,0.0,0.0
45128.322,0.0465230867266655,-0.7985582947731018,0.704197108745575,0.174042209982872,0.008108573034405708,-0.006512644235044718,-0.2801535725593567,-4.029249668121338,-8.506758689880371,-0.06857418268918991,0.19388315081596375,0.17441678047180176,1,0.0,0.0,0.0,0.0,0.0,0.0,0.0,0.0
45138.177,0.04712417349219322,-0.7985275983810425,0.7041770219802856,0.17624801397323608,0.008177542127668858,-0.006296120118349791,-0.28231051564216614,-4.0271453857421875,-8.503033638000488,0.04405286908149719,-0.03184087947010994,0.13995230197906494,1,0.0,0.0,0.0,0.0,0.0,0.0,0.0,0.0
45148.04,0.046463415026664734,-0.7985579371452332,0.7042055726051331,0.1741972118616104,0.007984383031725883,-0.006055295933037996,-0.28226178884506226,-4.028807163238525,-8.507243156433105,0.13284814357757568,0.13353602588176727,0.2662156820297241,1,0.0,0.0,0.0,0.0,0.0,0.0,0.0,0.0
45345.287,0.047340985387563705,-0.7951936721801758,0.7168202996253967,0.17051222920417786,0.09743981063365936,0.2996911406517029,-8.64117431640625,1.6026194095611572,-7.314352035522461,-103.22547149658203,-79.51931762695312,16.26980209350586,1,0.5815439820289612,0.003332761349156499,0.0016754944808781147,-0.00010222605487797409,0.5815439820289612,0.003332761349156499,0.0016754944808781147,-0.00010222605487797409
45355.146,0.04612524062395096,-0.7951433658599854,0.7169369459152222,0.1665024310350418,0.09753664582967758,0.3001402020454407,-8.637819290161133,1.6094751358032227,-7.33906364440918,-109.59571075439453,-82.3670883178711,17.24691390991211,1,0.5826225876808167,0.0027467331383377314,0.0013490093406289816,0.00022699154214933515,0.5826225876808167,0.0027467331383377314,0.0013490093406289816,0.00022699154214933515
45365.017,0.04533005133271217,-0.7939399480819702,0.7204039692878723,0.1565985530614853,0.12067234516143799,0.34460002183914185,-9.717872619628906,2.397801399230957,-7.097633361816406,-102.95066833496094,-79.42457580566406,18.42003631591797,1,0.5727222561836243,0.00011968969192821532,0.0003800389531534165,-0.0001221624988829717,0.5727222561836243,0.00011968969192821532,0.0003800389531534165,-0.0001221624988829717
45374.877,0.04564160481095314,-0.7925480604171753,0.7241900563240051,0.14901284873485565,0.14637072384357452,0.38746461272239685,-10.803114891052246,3.173675298690796,-6.8096394538879395,-88.71350860595703,-76.34453582763672,21.223562240600586,1,0.5631536841392517,-0.0017196923727169633,0.0005237633595243096,-0.00021214272419456393,0.5631536841392517,-0.0017196923727169633,0.0005237633595243096,-0.00021214272419456393
45384.732,0.044606275856494904,-0.7908235192298889,0.7285247445106506,0.13558965921401978,0.17449761927127838,0.4285503625869751,-11.781305313110352,3.9164063930511475,-6.512935638427734,-77.5752182006836,-72.9411849975586,19.765674591064453,1,0.5539650321006775,-0.0013049725675955415,0.000663293874822557,-0.00022521679056808352,0.5539650321006775,-0.0013049725675955415,0.000663293874822557,-0.00022521679056808352
45394.59,0.04466778039932251,-0.7888674139976501,0.7331308126449585,0.1247800886631012,0.20468907058238983,0.4673546850681305,-12.631281852722168,4.607672214508057,-6.187371730804443,-79.99238586425781,-70.75109100341797,17.591270446777344,1,0.5452843904495239,0.0017348554683849216,0.0011254380224272609,-0.0002594695833977312,0.5452843904495239,0.0017348554683849216,0.0011254380224272609,-0.0002594695833977312
45404.458,0.04332339018583298,-0.7865263223648071,0.7382349967956543,0.10826368629932404,0.23660385608673096,0.5033220052719116,-13.43354320526123,5.278911113739014,-5.902533054351807,-88.75432586669922,-66.08427429199219,15.829033851623535,1,0.5372536778450012,0.0035676241386681795,0.0007847578963264823,-0.0002084748848574236,0.5372536778450012,0.0035676241386681795,0.0007847578963264823,-0.0002084748848574236
45414.313,0.0430719293653965,-0.783926248550415,0.7435494065284729,0.09475938975811005,0.26957228779792786,0.5349587202072144,-14.301712989807129,5.927045822143555,-5.596680164337158,-91.11674499511719,-60.876914978027344,15.11585521697998,1,0.5302497148513794,0.0025901044718921185,0.0007783056353218853,-0.00024255026073660702,0.5302497148513794,0.0025901044718921185,0.0007783056353218853,-0.00024255026073660702
45424.176,0.04206462576985359,-0.7777206301689148,0.7550766468048096,0.0641220211982727,0.34013044834136963,0.592210590839386,-16.13883399963379,7.043827056884766,-5.0297627449035645,-81.94587707519531,-53.83663558959961,15.747428894042969,1,0.5168090462684631,0.0005569925997406244,0.0007205577567219734,-0.000595608726143837,0.5168090462684631,0.0005569925997406244,0.0007205577567219734,-0.000595608726143837
45434.041,0.04075014218688011,-0.7776596546173096,0.7551897168159485,0.05968348681926727,0.34018731117248535,0.59276282787323,-16.12811851501465,7.055744647979736,-5.05966329574585,-67.7719497680664,-43.333744049072266,13.800183296203613,1,0.5174267292022705,-0.0010226855520159006,-0.0003521328908391297,0.00016097053594421595,0.5174267292022705,-0.0010226855520159006,-0.0003521328908391297,0.00016097053594421595
45443.901,0.038641124963760376,-0.7739591598510742,0.7614586353302002,0.03847697377204895,0.3776812255382538,0.6185693740844727,-16.898414611816406,7.508103847503662,-4.830585479736328,-56.98483657836914,-31.52892303466797,10.990057945251465,1,0.5117440223693848,-0.0003685861884150654,-0.0007694337400607765,-0.00015049947251100093,0.5117440223693848,-0.0003685861884150654,-0.0007694337400607765,-0.00015049947251100093
45453.753,0.03762849420309067,-0.7699347138404846,0.7678556442260742,0.02104448527097702,0.41620320081710815,0.6412204504013062,-17.542037963867188,7.8375067710876465,-4.6371541023254395,-54.571510314941406,-22.19976234436035,14.456613540649414,1,0.5068100690841675,0.0016087132971733809,-0.00039649230893701315,-0.00013902269711252302,0.5068100690841675,0.0016087132971733809,-0.00039649230893701315,-0.00013902269711252302
45463.613,0.03509483113884926,-0.7654600143432617,0.7745488882064819,-0.0011966666206717491,0.45572125911712646,0.6619057655334473,-18.113840103149414,8.072399139404297,-4.489681243896484,-57.90437698364258,-17.115785598754883,14.083582878112793,1,0.5023326873779297,0.0032775942236185074,0.0005231181858107448,-8.548417099518701e-05,0.5023326873779297,0.0032775942236185074,0.0005231181858107448,-8.548417099518701e-05
45473.478,0.03366474807262421,-0.7606498003005981,0.7813381552696228,-0.01927757076919079,0.4956797659397125,0.6799726486206055,-18.70003318786621,8.226195335388184,-4.317948341369629,-57.47764587402344,-14.259098052978516,14.979938507080078,1,0.4984777271747589,0.002889005932956934,0.001070271129719913,-0.00012932068784721196,0.4984777271747589,0.002889005932956934,0.001070271129719913,-0.00012932068784721196
45483.352,0.030691150575876236,-0.7554154396057129,0.7883653044700623,-0.04199904575943947,0.5360121130943298,0.6965345144271851,-19.285749435424805,8.350221633911133,-4.179970741271973,-46.862491607666016,-12.233391761779785,15.305394172668457,1,0.4949713349342346,0.0007941136718727648,0.0014049828751012683,-9.55411305767484e-05,0.4949713349342346,0.0007941136718727648,0.0014049828751012683,-9.55411305767484e-05
45493.203,0.028838545083999634,-0.7498111128807068,0.7954707145690918,-0.0603586845099926,0.5774661898612976,0.7118443846702576,-19.84402084350586,8.436896324157715,-4.015633583068848,-29.318439483642578,-6.385189056396484,16.15462875366211,1,0.49175259470939636,-0.0009207396069541574,0.00060054543428123,-0.00014127073518466204,0.49175259470939636,-0.0009207396069541574,0.00060054543428123,-0.00014127073518466204
45503.056,0.025431588292121887,-0.7437613606452942,0.8027681708335876,-0.08334622532129288,0.6199207305908203,0.7267802357673645,-20.251392364501953,8.49228286743164,-3.880157232284546,-12.536307334899902,4.919338226318359,16.546186447143555,1,0.488604336977005,-0.001087208278477192,-0.0007182994741015136,-0.00011393945896998048,0.488604336977005,-0.001087208278477192,-0.0007182994741015136,-0.00011393945896998048
45512.917,0.023156700655817986,-0.7373337745666504,0.8101437091827393,-0.10174775868654251,0.6623453497886658,0.7398658990859985,-20.48003578186035,8.461241722106934,-3.7425665855407715,-4.041837692260742,16.4090576171875,16.05450439453125,1,0.48589545488357544,0.0005573152448050678,-0.0010463976068422198,-0.00011890878522535786,0.48589545488357544,0.0005573152448050678,-0.0010463976068422198,-0.00011890878522535786
45522.789,0.019321206957101822,-0.7304775714874268,0.8176613450050354,-0.12448353320360184,0.7046757936477661,0.7517102956771851,-20.566635131835938,8.326340675354004,-3.662261962890625,-4.152711391448975,24.5290470123291,15.362645149230957,1,0.4834766685962677,0.0025775223039090633,-0.0005079553229734302,-4.6262022806331515e-05,0.4834766685962677,0.0025775223039090633,-0.0005079553229734302,-4.6262022806331515e-05
45532.637,0.01663157343864441,-0.723212718963623,0.825247585773468,-0.1422785222530365,0.7468459606170654,0.7621248364448547,-20.61288070678711,8.089452743530273,-3.6039793491363525,-4.024332523345947,27.0322208404541,16.03609848022461,1,0.48139703273773193,0.0027972222305834293,0.0006395817035809159,-2.6088941012858413e-05,0.48139703273773193,0.0027972222305834293,0.0006395817035809159,-2.6088941012858413e-05
45542.503,0.012384523637592793,-0.71556156873703,0.8329365849494934,-0.16416801512241364,0.7885524034500122,0.7719957232475281,-20.65308952331543,7.806822299957275,-3.581897735595703,1.6474168300628662,26.925695419311523,16.472993850708008,1,0.4794374406337738,0.001717918086796999,0.0013162640389055014,1.4848808859824203e-05,0.4794374406337738,0.001717918086796999,0.0013162640389055014,1.4848808859824203e-05
45552.367,0.009302244521677494,-0.7074985504150391,0.8407043814659119,-0.180902361869812,0.8301349878311157,0.7815686464309692,-20.6756534576416,7.506537914276123,-3.536804676055908,15.20726490020752,30.54098129272461,17.598234176635742,1,0.47753748297691345,-0.00015533850819338113,0.0005181176238693297,-2.3545122530777007e-05,0.47753748297691345,-0.00015533850819338113,0.0005181176238693297,-2.3545122530777007e-05
45562.229,0.004678816068917513,-0.6990597248077393,0.8485427498817444,-0.20158062875270844,0.8716289401054382,0.7906882762908936,-20.612077713012695,7.1933183670043945,-3.504091739654541,32.001548767089844,38.58089828491211,18.415494918823242,1,0.4757363498210907,-0.0012451277580112219,-0.0005621544551104307,-1.532207716081757e-05,0.4757363498210907,-0.0012451277580112219,-0.0005621544551104307,-1.532207716081757e-05
45572.088,0.0012309198500588536,-0.6901980042457581,0.8564718961715698,-0.21710564196109772,0.9125345349311829,0.7994094491004944,-20.38389015197754,6.820101261138916,-3.4601404666900635,45.73440933227539,47.95023727416992,19.76032066345215,1,0.4740211069583893,-0.0009844558080658317,-0.001132858102209866,-4.070111390319653e-05,0.4740211069583893,-0.0009844558080658317,-0.001132858102209866,-4.070111390319653e-05
45581.948,-0.0037339329719543457,-0.6810033917427063,0.8644466996192932,-0.23638677597045898,0.9530134797096252,0.8083329200744629,-20.002262115478516,6.36245584487915,-3.4436585903167725,50.178218841552734,55.98136901855469,19.49355125427246,1,0.4722423255443573,0.0008649273659102619,-0.0010934992460533977,-5.32427338839625e-06,0.4722423255443573,0.0008649273659102619,-0.0010934992460533977,-5.32427338839625e-06
45591.8,-0.007512418553233147,-0.6713696718215942,0.8725284337997437,-0.2503357231616974,0.9921936392784119,0.8165618181228638,-19.519620895385742,5.808262348175049,-3.4418294429779053,48.68890380859375,59.21318054199219,19.4311466217041,1,0.47062355279922485,0.0022471658885478973,-0.00023389497073367238,1.3251526070234831e-05,0.47062355279922485,0.0022471658885478973,-0.00023389497073367238,1.3251526070234831e-05
45601.67,-0.012785340659320354,-0.6614653468132019,0.8806251883506775,-0.2677268087863922,1.0300627946853638,0.8240384459495544,-19.02956771850586,5.201763153076172,-3.4590115547180176,48.67058181762695,57.9903678894043,20.377334594726562,1,0.46918025612831116,0.002066179644316435,0.0007613684865646064,3.093994746450335e-05,0.46918025612831116,0.002066179644316435,0.0007613684865646064,3.093994746450335e-05
45611.522,-0.016855807974934578,-0.6511067152023315,0.8888409733772278,-0.2795542776584625,1.0668801069259644,0.8316637277603149,-18.551441192626953,4.583592414855957,-3.463029623031616,55.23893356323242,58.01597595214844,21.911046981811523,1,0.4676887094974518,0.0005866730934940279,0.000506180920638144,3.904467575921444e-06,0.4676887094974518,0.0005866730934940279,0.000506180920638144,3.904467575921444e-06
45621.382,-0.022383106872439384,-0.6405582427978516,0.897061288356781,-0.29472291469573975,1.1022580862045288,0.8392617702484131,-18.054149627685547,3.9654452800750732,-3.4442059993743896,67.27079010009766,62.07027053833008,23.171485900878906,1,0.4661926329135895,-0.000901705352589488,-0.0004343993787188083,-3.413450758671388e-05,0.4661926329135895,-0.000901705352589488,-0.0004343993787188083,-3.413450758671388e-05
45631.242,-0.02669757418334484,-0.6295298933982849,0.9054204225540161,-0.30441275238990784,1.1371861696243286,0.8481215238571167,-17.46225929260254,3.327554702758789,-3.412811517715454,79.63687896728516,68.99068450927734,23.7126522064209,1,0.4643705189228058,-0.0013940139906480908,-0.0013098117196932435,-5.48991774849128e-05,0.4643705189228058,-0.0013940139906480908,-0.0013098117196932435,-5.48991774849128e-05
45641.114,-0.03242310509085655,-0.6183708906173706,0.9137768745422363,-0.3172425925731659,1.1704580783843994,0.8566927313804626,-16.752540588378906,2.63175106048584,-3.373189687728882,87.1038589477539,73.33757019042969,23.94569206237793,1,0.46260717511177063,-0.0006739401142112911,-0.0009641310898587108,-6.838734407210723e-05,0.46260717511177063,-0.0006739401142112911,-0.0009641310898587108,-6.838734407210723e-05
45650.963,-0.03693297132849693,-0.6067298054695129,0.9222962260246277,-0.3245997726917267,1.2023042440414429,0.8654844164848328,-15.927774429321289,1.8801257610321045,-3.340021848678589,86.3949966430664,74.7876205444336,23.85496711730957,1,0.46077609062194824,0.0010020382469519973,-0.0004987607826478779,-6.111082620918751e-05,0.46077609062194824,0.0010020382469519973,-0.0004987607826478779,-6.111082620918751e-05
45660.829,-0.042812515050172806,-0.5950475335121155,0.9307990670204163,-0.3349175751209259,1.231795072555542,0.8737155795097351,-15.073521614074707,1.0909085273742676,-3.291551351547241,82.44773864746094,74.20203399658203,24.78317642211914,1,0.4590717554092407,0.0017921192338690162,-0.00010081679647555575,-8.879704546416178e-05,0.4590717554092407,0.0017921192338690162,-0.00010081679647555575,-8.879704546416178e-05
45670.691,-0.04746364429593086,-0.5828482508659363,0.9394705891609192,-0.33957594633102417,1.2601993083953857,0.8823385834693909,-14.247772216796875,0.3068462312221527,-3.235827922821045,79.5912094116211,73.58885955810547,24.621715545654297,1,0.4572574198246002,0.0016683968715369701,-0.00015533850819338113,-9.897234122036025e-05,0.4572574198246002,0.0016683968715369701,-0.00015533850819338113,-9.897234122036025e-05
45680.556,-0.053432874381542206,-0.5707129240036011,0.9481223225593567,-0.3470671772956848,1.2858809232711792,0.8905926942825317,-13.462003707885742,-0.4781769812107086,-3.14642596244812,84.0300064086914,73.6933822631836,25.319297790527344,1,0.4555222690105438,-7.420116162393242e-06,-0.0003584238875191659,-0.00014961209672037512,0.4555222690105438,-7.420116162393242e-06,-0.0003584238875191659,-0.00014961209672037512
45690.417,-0.05817113071680069,-0.5580499768257141,0.9569593071937561,-0.3490195870399475,1.3107775449752808,0.8996536135673523,-12.666390419006348,-1.2580580711364746,-3.0599958896636963,93.9128646850586,76.00076293945312,25.448345184326172,1,0.45357364416122437,-0.001536609255708754,-0.0009986507939174771,-0.00015049947251100093,0.45357364416122437,-0.001536609255708754,-0.0009986507939174771,-0.00015049947251100093
45700.278,-0.06416884809732437,-0.5455376505851746,0.9657711982727051,-0.35364460945129395,1.3329471349716187,0.9082026481628418,-11.80571174621582,-2.057417392730713,-2.9408514499664307,102.0023193359375,76.81842041015625,24.973373413085938,1,0.4517391622066498,-0.0015443519223481417,-0.0008105669403448701,-0.00019285702728666365,0.4517391622066498,-0.0015443519223481417,-0.0008105669403448701,-0.00019285702728666365
45710.134,-0.06893127411603928,-0.532487154006958,0.9747816920280457,-0.3528224229812622,1.3542269468307495,0.9174597859382629,-10.83662223815918,-2.865762948989868,-2.8248212337493896,102.29301452636719,77.65238189697266,24.318696975708008,1,0.44971534609794617,7.629814354004338e-05,-0.0009786486625671387,-0.0001893075241241604,0.44971534609794617,7.629814354004338e-05,-0.0009786486625671387,-0.0001893075241241604
45719.998,-0.07490702718496323,-0.5196740031242371,0.9837548136711121,-0.35474711656570435,1.372511386871338,0.9258306622505188,-9.834179878234863,-3.6808643341064453,-2.681321144104004,97.09092712402344,75.7069091796875,23.048986434936523,1,0.447898805141449,0.0014261140022426844,-0.0004445617087185383,-0.00022054325381759554,0.447898805141449,0.0014261140022426844,-0.0004445617087185383,-0.00022054325381759554
45729.847,-0.07964023947715759,-0.5063032507896423,0.9929326176643372,-0.35114216804504395,1.3898051977157593,0.9348212480545044,-8.84079360961914,-4.476992607116699,-2.5464625358581543,92.35791778564453,71.93413543701172,22.343460083007812,1,0.4459152817726135,0.0015609664842486382,-7.371723768301308e-05,-0.00021054544777143747,0.4459152817726135,0.0015609664842486382,-7.371723768301308e-05,-0.00021054544777143747
45739.709,-0.08552802354097366,-0.4932800531387329,1.0020729303359985,-0.35021039843559265,1.403645396232605,0.9423093199729919,-7.920804500579834,-5.2596588134765625,-2.383673667907715,92.72817993164062,69.90005493164062,21.18766975402832,1,0.44429314136505127,0.0005489272880367935,-0.0004623054410330951,-0.00024402921553701162,0.44429314136505127,0.0005489272880367935,-0.0004623054410330951,-0.00024402921553701162
45749.579,-0.09017684310674667,-0.4796812832355499,1.01141357421875,-0.3438657224178314,1.4168848991394043,0.9506416320800781,-7.005177021026611,-6.00494384765625,-2.23620343208313,100.28321838378906,67.2342300415039,20.674095153808594,1,0.44244930148124695,-0.0011673776898533106,-0.0003869751817546785,-0.0002276423037983477,0.44244930148124695,-0.0011673776898533106,-0.0003869751817546785,-0.0002276423037983477
45759.44,-0.09474921971559525,-0.46617522835731506,1.0205949544906616,-0.33656883239746094,1.4282370805740356,0.9579368829727173,-6.067339897155762,-6.697856426239014,-2.0808467864990234,108.74069213867188,68.64778900146484,19.66841697692871,1,0.44085171818733215,-0.0016719456762075424,-0.001423210371285677,-0.000236989333643578,0.44085171818733215,-0.0016719456762075424,-0.001423210371285677,-0.000236989333643578
45769.3,-0.100438192486763,-0.4527810215950012,1.0302214622497559,-0.3312549293041229,1.4363970756530762,0.9672465324401855,-5.009040355682373,-7.429754734039307,-1.8918097019195557,113.19613647460938,68.0050048828125,18.43739891052246,1,0.4387408196926117,-0.0010754328686743975,-0.0011275348952040076,-0.0002781637303996831,0.4387408196926117,-0.0010754328686743975,-0.0011275348952040076,-0.0002781637303996831
45779.151,-0.10599209368228912,-0.43958914279937744,1.0396898984909058,-0.3250570595264435,1.4420816898345947,0.9746490120887756,-3.9080142974853516,-8.14894962310791,-1.6970880031585693,109.82403564453125,64.47089385986328,17.57013702392578,1,0.43709179759025574,0.0005811886512674391,-0.0005534438532777131,-0.00028745163581334054,0.43709179759025574,0.0005811886512674391,-0.0005534438532777131,-0.00028745163581334054
45789.018,-0.11031021922826767,-0.42577221989631653,1.0493525266647339,-0.31368640065193176,1.4473774433135986,0.982420802116394,-2.794098138809204,-8.828445434570312,-1.5240187644958496,102.8481674194336,58.770782470703125,15.26329517364502,1,0.4353395998477936,0.0015348349697887897,-7.468507828889415e-05,-0.0002516015083529055,0.4353395998477936,0.0015348349697887897,-7.468507828889415e-05,-0.0002516015083529055
45798.883,-0.11450172960758209,-0.41214194893836975,1.0588387250900269,-0.3015480935573578,1.4502638578414917,0.9877297282218933,-1.7541842460632324,-9.44552993774414,-1.35833740234375,98.89389038085938,53.304908752441406,14.199036598205566,1,0.432921439409256,0.001031880034133792,-8.162127778632566e-05,-0.00024195865262299776,0.432921439409256,0.001031880034133792,-8.162127778632566e-05,-0.00024195865262299776
45808.731,-0.119658462703228,-0.39942413568496704,1.0680718421936035,-0.2923847436904907,1.4485578536987305,0.9903120398521423,-0.7967643141746521,-10.0094575881958,-1.1706054210662842,101.75135803222656,51.21593475341797,13.066258430480957,1,0.42836910486221313,-0.0005289252148941159,-0.0008194388938136399,-0.00026934908237308264,0.42836910486221313,-0.0005289252148941159,-0.0008194388938136399,-0.00026934908237308264
45818.595,-0.1246829554438591,-0.38638588786125183,1.0778900384902954,-0.2815088629722595,1.4451847076416016,0.996483564376831,0.20803041756153107,-10.547731399536133,-0.973480761051178,108.91255187988281,48.715599060058594,12.11560344696045,1,0.4225892424583435,-0.0017761498456820846,-0.0007847578963264823,-0.00028277808451093733,0.4225892424583435,-0.0017761498456820846,-0.0007847578963264823,-0.00028277808451093733
45828.453,-0.12847888469696045,-0.37270116806030273,1.0878348350524902,-0.265699177980423,1.4421416521072388,1.0031949281692505,1.274577021598816,-11.060214042663574,-0.8095903396606445,113.42859649658203,46.544960021972656,10.812108039855957,1,0.41656386852264404,-0.0015232207952067256,-0.0009504201007075608,-0.00023923737171571702,0.41656386852264404,-0.0015232207952067256,-0.0009504201007075608,-0.00023923737171571702
45838.326,-0.1331748068332672,-0.35987842082977295,1.0977871417999268,-0.2528521716594696,1.434653401374817,1.0089795589447021,2.3948802947998047,-11.557799339294434,-0.6096399426460266,112.17144012451172,43.05044174194336,9.207837104797363,1,0.41071704030036926,-0.00045617579598911107,-0.0007008782704360783,-0.0002812399761751294,0.41071704030036926,-0.00045617579598911107,-0.0007008782704360783,-0.0002812399761751294
45848.18,-0.13665400445461273,-0.3463900089263916,1.1078580617904663,-0.2352985441684723,1.427399754524231,1.0149955749511719,3.546696186065674,-12.010080337524414,-0.4537353217601776,106.17952728271484,37.145233154296875,8.489059448242188,1,0.4047054946422577,0.0005921575357206166,-0.00016453300486318767,-0.00022811556118540466,0.4047054946422577,0.0005921575357206166,-0.00016453300486318767,-0.00022811556118540466
45858.035,-0.1412236988544464,-0.3319733142852783,1.1195677518844604,-0.21813100576400757,1.415144443511963,1.0227054357528687,4.804801940917969,-12.477665901184082,-0.2478478103876114,99.10569763183594,31.769136428833008,6.973894119262695,1,0.3974032998085022,0.0009054154506884515,-0.00023534671345259994,-0.0002882798435166478,0.3974032998085022,0.0009054154506884515,-0.00023534671345259994,-0.0002882798435166478
45867.904,-0.14432868361473083,-0.3188577890396118,1.1296530961990356,-0.1995358169078827,1.4033150672912598,1.0248751640319824,5.830325603485107,-12.817281723022461,-0.10594800114631653,95.26364135742188,27.832355499267578,6.524652481079102,1,0.3922373354434967,0.00025776837719604373,-0.0005389262223616242,-0.0002117286203429103,0.3922373354434967,0.00025776837719604373,-0.0005389262223616242,-0.0002117286203429103
45877.771,-0.14845509827136993,-0.3050082325935364,1.1412607431411743,-0.1813945174217224,1.386310338973999,1.0288684368133545,6.928300380706787,-13.15523910522461,0.08004602789878845,95.12889099121094,25.02235984802246,5.300222396850586,1,0.38581207394599915,-0.0006739401142112911,-0.0008137931581586599,-0.0002657995792105794,0.38581207394599915,-0.0006739401142112911,-0.0008137931581586599,-0.0002657995792105794
45887.617,-0.1511749029159546,-0.2923310101032257,1.1513025760650635,-0.1619965136051178,1.3706779479980469,1.0286622047424316,7.878124237060547,-13.406929016113281,0.20421051979064941,100.2702865600586,22.021116256713867,4.770421504974365,1,0.38116520643234253,-0.0021100551821291447,-0.0008144383318722248,-0.00019054985023103654,0.38116520643234253,-0.0021100551821291447,-0.0008144383318722248,-0.00019054985023103654
45897.478,-0.15469084680080414,-0.28043797612190247,1.1618331670761108,-0.14543691277503967,1.3506568670272827,1.0298395156860352,8.904125213623047,-13.650529861450195,0.35978707671165466,101.04887390136719,18.06574821472168,4.200218200683594,1,0.37588930130004883,-0.0014812808949500322,-0.0005969967460259795,-0.00023225665790960193,0.37588930130004883,-0.0014812808949500322,-0.0005969967460259795,-0.00023225665790960193
45907.347,-0.15703529119491577,-0.2681815028190613,1.1718621253967285,-0.12572084367275238,1.3320353031158447,1.026954174041748,9.90169906616211,-13.835765838623047,0.4691072404384613,97.74138641357422,13.298547744750977,3.7052202224731445,1,0.3718339502811432,-0.0007268487242981791,-0.0003908465732820332,-0.00017599682905711234,0.3718339502811432,-0.0007268487242981791,-0.0003908465732820332,-0.00017599682905711234
45917.213,-0.16013316810131073,-0.2568524479866028,1.1823674440383911,-0.10880371183156967,1.3082311153411865,1.0255205631256104,10.928906440734863,-13.996688842773438,0.6025251746177673,87.66329193115234,8.145943641662598,2.3449854850769043,1,0.36714261770248413,0.0007933072047308087,-0.0002247004595119506,-0.00020202662562951446,0.36714261770248413,0.0007933072047308087,-0.0002247004595119506,-0.00020202662562951446
45927.066,-0.16208375990390778,-0.24511131644248962,1.1923514604568481,-0.0888252779841423,1.2861535549163818,1.0199556350708008,11.823753356933594,-14.083369255065918,0.6800990700721741,79.20156860351562,2.94933819770813,2.062648057937622,1,0.3637026846408844,0.0006019971915520728,-0.0001353364496026188,-0.00013399422459769994,0.3637026846408844,0.0006019971915520728,-0.0001353364496026188,-0.00013399422459769994
45936.92,-0.16476388275623322,-0.2343691736459732,1.2027599811553955,-0.07194695621728897,1.259513258934021,1.0154613256454468,12.654964447021484,-14.134977340698242,0.7774391174316406,73.8878173828125,-0.999913215637207,1.5928735733032227,1,0.35975182056427,-4.839205939788371e-05,-0.0003216459008399397,-0.00015943244216032326,0.35975182056427,-4.839205939788371e-05,-0.0003216459008399397,-0.00015943244216032326
45946.788,-0.16632609069347382,-0.22319236397743225,1.2126466035842896,-0.05207310616970062,1.2346134185791016,1.0077269077301025,13.390974044799805,-14.136194229125977,0.8262569308280945,72.7923583984375,-3.330707311630249,1.807200312614441,1,0.35683512687683105,-0.0010496238246560097,-0.0006637777551077306,-0.0001027584876283072,0.35683512687683105,-0.0010496238246560097,-0.0006637777551077306,-0.0001027584876283072
45956.65,-0.16767016053199768,-0.21194347739219666,1.2229284048080444,-0.03200322389602661,1.2091679573059082,1.001583456993103,14.136006355285645,-14.110832214355469,0.8682047724723816,71.7051010131836,-5.732265472412109,1.656423807144165,1,0.35329580307006836,-0.0012081884779036045,-0.0006594224832952023,-9.500871237833053e-05,0.35329580307006836,-0.0012081884779036045,-0.0006594224832952023,-9.500871237833053e-05
45966.501,-0.1697796732187271,-0.20250745117664337,1.2326709032058716,-0.015803741291165352,1.1784557104110718,0.9920498132705688,14.83039379119873,-14.065508842468262,0.9357175230979919,68.67017364501953,-9.010176658630371,2.4797260761260986,1,0.35083967447280884,-0.0009347732411697507,-0.0004206883313599974,-0.00013553236203733832,0.35083967447280884,-0.0009347732411697507,-0.0004206883313599974,-0.00013553236203733832
45976.362,-0.17164652049541473,-0.1931050717830658,1.2427940368652344,0.0005033896304666996,1.146916151046753,0.9837905168533325,15.538496971130371,-13.983168601989746,0.9920363426208496,62.2430419921875,-12.796688079833984,2.6665170192718506,1,0.34785035252571106,-0.00024292814487125725,-0.000228894452448003,-0.0001254162343684584,0.34785035252571106,-0.00024292814487125725,-0.000228894452448003,-0.0001254162343684584
45986.225,-0.17244850099086761,-0.18317903578281403,1.2523820400238037,0.019621489569544792,1.117601752281189,0.9725531935691833,16.169628143310547,-13.865145683288574,1.010545015335083,52.64032745361328,-16.639312744140625,2.5882933139801025,1,0.34584295749664307,0.0005702197668142617,-0.00014436965284403414,-7.868093234719709e-05,0.34584295749664307,0.0005702197668142617,-0.00014436965284403414,-7.868093234719709e-05
45996.101,-0.17391954362392426,-0.1744888573884964,1.2623029947280884,0.035410478711128235,1.0841845273971558,0.9623973369598389,16.722206115722656,-13.70704460144043,1.0433498620986938,44.93040466308594,-20.332767486572266,3.0328261852264404,1,0.34337735176086426,0.0002653497795108706,-6.920064333826303e-05,-0.00010104288958245888,0.34337735176086426,0.0002653497795108706,-6.920064333826303e-05,-0.00010104288958245888
46005.95,-0.17436617612838745,-0.16521583497524261,1.271675705909729,0.05381597578525543,1.053497314453125,0.9495580196380615,17.16950225830078,-13.519306182861328,1.0425101518630981,39.368839263916016,-22.295162200927734,3.624519109725952,1,0.3418303430080414,-0.0001301746378885582,-0.00040165407699532807,-6.341801781672984e-05,0.3418303430080414,-0.0001301746378885582,-0.00040165407699532807,-6.341801781672984e-05
46015.806,-0.17546215653419495,-0.1572744995355606,1.2813725471496582,0.06905458122491837,1.0183427333831787,0.9383848905563354,17.580381393432617,-13.301008224487305,1.0626447200775146,37.72942352294922,-24.873924255371094,4.321687698364258,1,0.339686781167984,-0.00107575545553118,-0.0002021175023401156,-9.536365541862324e-05,0.339686781167984,-0.00107575545553118,-0.0002021175023401156,-9.536365541862324e-05
46025.668,-0.17555904388427734,-0.14871500432491302,1.2905259132385254,0.08675415813922882,0.9861937761306763,0.9246088266372681,17.949575424194336,-13.06755256652832,1.0530606508255005,34.516700744628906,-26.39830207824707,4.996480464935303,1,0.3384416103363037,-0.0008157287957146764,-0.0004035898018628359,-6.282643153099343e-05,0.3384416103363037,-0.0008157287957146764,-0.0004035898018628359,-6.282643153099343e-05
46035.534,-0.17550508677959442,-0.14064517617225647,1.299352765083313,0.10401913523674011,0.9532566666603088,0.9094069004058838,18.287202835083008,-12.820131301879883,1.0432746410369873,27.943078994750977,-28.971174240112305,5.289643287658691,1,0.33769887685775757,-6.274836778175086e-05,-0.0001340460148639977,-6.430539360735565e-05,0.33769887685775757,-6.274836778175086e-05,-0.0001340460148639977,-6.430539360735565e-05
46045.385,-0.17612488567829132,-0.13405577838420868,1.3083171844482422,0.11782004684209824,0.9166216254234314,0.8945019245147705,18.565162658691406,-12.54172134399414,1.050095796585083,21.557451248168945,-32.27444839477539,6.146877765655518,1,0.33680006861686707,-5.790916839032434e-05,0.00013711083738598973,-9.134087304119021e-05,0.33680006861686707,-5.790916839032434e-05,0.00013711083738598973,-9.134087304119021e-05
46055.255,-0.17653103172779083,-0.12754683196544647,1.3175103664398193,0.13120406866073608,0.8804192543029785,0.8809037804603577,18.77902603149414,-12.220475196838379,1.0413367748260498,13.711459159851074,-34.85719299316406,6.210864067077637,1,0.33544662594795227,0.00035503640538081527,9.855849202722311e-05,-7.211433694465086e-05,0.33544662594795227,0.00035503640538081527,9.855849202722311e-05,-7.211433694465086e-05
46065.106,-0.17599672079086304,-0.12036566436290741,1.3261312246322632,0.14694181084632874,0.8472881317138672,0.8652334213256836,18.914859771728516,-11.883537292480469,1.003424048423767,7.356719017028809,-35.777252197265625,6.58398962020874,1,0.334879070520401,0.0001577581133460626,-0.00021728033607359976,-3.691496385727078e-05,0.334879070520401,0.0001577581133460626,-0.00021728033607359976,-3.691496385727078e-05
46074.986,-0.17609171569347382,-0.11461092531681061,1.335021734237671,0.15935923159122467,0.8106232285499573,0.8507542610168457,18.98691749572754,-11.52165412902832,0.9778558015823364,2.880235433578491,-35.88801193237305,7.053791522979736,1,0.33386772871017456,-0.0002158285933546722,-0.0003601982316467911,-5.4544227168662474e-05,0.33386772871017456,-0.0002158285933546722,-0.0003601982316467911,-5.4544227168662474e-05
46084.828,-0.17527709901332855,-0.10814926028251648,1.3433513641357422,0.17395015060901642,0.7772586941719055,0.8343539834022522,19.013381958007812,-11.169317245483398,0.9432818293571472,-1.142539620399475,-37.01529312133789,8.06428050994873,1,0.33360135555267334,-0.0002814804611261934,-0.00012049622455378994,-4.9101632612291723e-05,0.33360135555267334,-0.0002814804611261934,-0.00012049622455378994,-4.9101632612291723e-05
46094.689,-0.1742713302373886,-0.10177905112504959,1.3518598079681396,0.18799330294132233,0.7447521686553955,0.8193544745445251,19.0023250579834,-10.79409408569336,0.9133166074752808,-4.777747631072998,-37.51869583129883,8.68222427368164,1,0.3328865170478821,-0.0003363248542882502,-0.00023066881112754345,-5.79754268983379e-05,0.3328865170478821,-0.0003363248542882502,-0.00023066881112754345,-5.79754268983379e-05
46104.551,-0.17402014136314392,-0.09737787395715714,1.35995352268219,0.1989942342042923,0.7070735692977905,0.8034443855285645,18.952329635620117,-10.421792030334473,0.903198778629303,-9.843494415283203,-38.831790924072266,9.783308982849121,1,0.33259373903274536,-1.1614094546530396e-05,7.581422778457636e-06,-9.003937884699553e-05,0.33259373903274536,-1.1614094546530396e-05,7.581422778457636e-06,-9.003937884699553e-05
46114.423,-0.17358236014842987,-0.09310509264469147,1.36820650100708,0.20932574570178986,0.6703418493270874,0.7882402539253235,18.859811782836914,-10.017812728881836,0.8832003474235535,-15.1325101852417,-40.62795639038086,9.721136093139648,1,0.33203575015068054,9.275145566789433e-05,0.0002098602126352489,-7.649206963833421e-05,0.33203575015068054,9.275145566789433e-05,0.0002098602126352489,-7.649206963833421e-05
46124.272,-0.17228104174137115,-0.08804827183485031,1.3759181499481201,0.22158996760845184,0.6375212073326111,0.7708053588867188,18.72307586669922,-9.618698120117188,0.8581526875495911,-20.25615882873535,-42.058509826660156,9.84170150756836,1,0.33229365944862366,0.00015614504809491336,0.0002027627342613414,-7.004378130659461e-05,0.33229365944862366,0.00015614504809491336,0.0002027627342613414,-7.004378130659461e-05
46134.136,-0.17080500721931458,-0.08311305940151215,1.3837655782699585,0.23320065438747406,0.6057397723197937,0.7545964121818542,18.529991149902344,-9.184442520141602,0.8249403238296509,-24.974254608154297,-42.52190399169922,10.105502128601074,1,0.3321722149848938,0.0001734048710204661,4.597245424520224e-05,-6.040092557668686e-05,0.3321722149848938,0.0001734048710204661,4.597245424520224e-05,-6.040092557668686e-05
46143.993,-0.17013348639011383,-0.08010245859622955,1.3912129402160645,0.2417209893465042,0.568881630897522,0.7380765080451965,18.291780471801758,-8.759450912475586,0.8010802865028381,-28.49038314819336,-42.94765853881836,10.23232364654541,1,0.3323202431201935,-6.081268656998873e-05,0.0001017846298054792,-7.193685451056808e-05,0.3323202431201935,-6.081268656998873e-05,0.0001017846298054792,-7.193685451056808e-05
46153.862,-0.16929562389850616,-0.07719197869300842,1.3987746238708496,0.2496534138917923,0.5334484577178955,0.7230064868927002,17.998947143554688,-8.315396308898926,0.7694244980812073,-31.954225540161133,-41.97270965576172,10.459931373596191,1,0.3320433497428894,-4.5004617277299985e-05,-0.0001671139179961756,-6.253064202610403e-05,0.3320433497428894,-4.5004617277299985e-05,-0.0001671139179961756,-6.253064202610403e-05
46163.713,-0.16762247681617737,-0.07345321029424667,1.4058403968811035,0.2594635486602783,0.5020071268081665,0.7064698934555054,17.68153190612793,-7.891186714172363,0.7426099181175232,-35.22046661376953,-41.846187591552734,11.16897201538086,1,0.3323715925216675,-2.6454328690306284e-05,2.4196029698941857e-05,-7.246927998494357e-05,0.3323715925216675,-2.6454328690306284e-05,2.4196029698941857e-05,-7.246927998494357e-05
46173.574,-0.16663196682929993,-0.07119067758321762,1.4130686521530151,0.2660488486289978,0.46766069531440735,0.6912886500358582,17.323095321655273,-7.4535322189331055,0.7246578335762024,-38.92648696899414,-40.98851776123047,11.201276779174805,1,0.332275927066803,0.00011323742364766076,-0.00010097809717990458,-8.299951150547713e-05,0.332275927066803,0.00011323742364766076,-0.00010097809717990458,-8.299951150547713e-05
46183.443,-0.16481122374534607,-0.06806815415620804,1.4198158979415894,0.27461978793144226,0.4375022351741791,0.6749114990234375,16.93356704711914,-7.040371417999268,0.7130368947982788,-43.22638702392578,-40.93054962158203,11.544772148132324,1,0.3327118754386902,0.0003516489523462951,8.581524161854759e-05,-9.281984239351004e-05,0.3327118754386902,0.0003516489523462951,8.581524161854759e-05,-9.281984239351004e-05
46193.303,-0.1628371924161911,-0.06508101522922516,1.4266642332077026,0.2826298773288727,0.40876784920692444,0.659830629825592,16.489347457885742,-6.609221935272217,0.7063236236572266,-47.608917236328125,-40.58183670043945,11.73608112335205,1,0.33277031779289246,0.000511020130943507,4.6940298489062116e-05,-0.00010003718489315361,0.33277031779289246,0.000511020130943507,4.6940298489062116e-05,-0.00010003718489315361
46203.157,-0.1617535948753357,-0.0639088824391365,1.433150053024292,0.28734591603279114,0.37513455748558044,0.6446782946586609,16.02706527709961,-6.198653221130371,0.6994110345840454,-51.063262939453125,-40.84014129638672,12.00359058380127,1,0.33302199840545654,0.00038229726487770677,0.00024002463032957166,-0.00010145700071007013,0.33302199840545654,0.00038229726487770677,0.00024002463032957166,-0.00010145700071007013
46213.015,-0.1605466902256012,-0.06286891549825668,1.439726710319519,0.2914101183414459,0.3429425060749054,0.6308393478393555,15.512955665588379,-5.764379024505615,0.6975257396697998,-53.00943374633789,-41.10293197631836,11.921713829040527,1,0.33289632201194763,9.549366950523108e-05,0.00032019411446526647,-0.00010707706678658724,0.33289632201194763,9.549366950523108e-05,0.00032019411446526647,-0.00010707706678658724
46222.877,-0.15851689875125885,-0.060940466821193695,1.4458731412887573,0.29754140973091125,0.31510603427886963,0.6157180666923523,14.99182415008545,-5.350186347961426,0.6965202689170837,-54.595542907714844,-40.99099349975586,12.013012886047363,1,0.3332988917827606,6.436144030885771e-05,0.00028115787426941097,-0.00010879266483243555,0.3332988917827606,6.436144030885771e-05,0.00028115787426941097,-0.00010879266483243555
46232.747,-0.15724867582321167,-0.06042783334851265,1.452135682106018,0.30030587315559387,0.2846906781196594,0.6024883389472961,14.433584213256836,-4.918570518493652,0.6876550316810608,-56.79541015625,-39.67216873168945,11.65828800201416,1,0.33316853642463684,0.00023099142708815634,6.0167461924720556e-05,-9.619187767384574e-05,0.33316853642463684,0.00023099142708815634,6.0167461924720556e-05,-9.619187767384574e-05
46242.596,-0.15516266226768494,-0.05904003605246544,1.457995057106018,0.3050515949726105,0.25842753052711487,0.5879330039024353,13.879875183105469,-4.510983943939209,0.6930564045906067,-59.35849380493164,-37.57181167602539,11.748374938964844,1,0.33356404304504395,0.000396330957300961,-0.00013501384819392115,-0.00011482683476060629,0.33356404304504395,0.000396330957300961,-0.00013501384819392115,-0.00011482683476060629
46252.457,-0.15295305848121643,-0.05778781324625015,1.4639414548873901,0.3092833459377289,0.2338247150182724,0.5747285485267639,13.281526565551758,-4.109520435333252,0.7088140249252319,-62.81981658935547,-35.60470962524414,11.872480392456055,1,0.3335763216018677,0.0007257195538841188,-0.0001406595838489011,-0.00012926153431180865,0.3335763216018677,0.0007257195538841188,-0.0001406595838489011,-0.00012926153431180865
46262.319,-0.15174582600593567,-0.058153413236141205,1.4695322513580322,0.309939444065094,0.20515699684619904,0.5608848333358765,12.671401977539062,-3.7439329624176025,0.718138575553894,-65.1455307006836,-34.84920883178711,11.842479705810547,1,0.3339207172393799,0.000558283063583076,0.00014582141011487693,-0.00012151175906183198,0.3339207172393799,0.000558283063583076,0.00014582141011487693,-0.00012151175906183198
46272.189,-0.15044410526752472,-0.05859675630927086,1.475185513496399,0.31010565161705017,0.17861810326576233,0.5481866002082825,12.000815391540527,-3.374415397644043,0.7269165515899658,-66.82271575927734,-35.20981216430664,11.62152099609375,1,0.3339453637599945,0.0004897276521660388,0.0004613376222550869,-0.00011967784666921943,0.3339453637599945,0.0004897276521660388,0.0004613376222550869,-0.00011967784666921943
46282.039,-0.148318350315094,-0.05816813185811043,1.4804837703704834,0.31237539649009705,0.156198650598526,0.5338839888572693,11.352361679077148,-3.018141746520996,0.7563858032226562,-66.95433044433594,-33.369384765625,11.230977058410645,1,0.3345429301261902,0.00020776325254701078,-7.0975020207697526e-06,-0.00014393286255653948,0.3345429301261902,0.00020776325254701078,-7.0975020207697526e-06,-0.00014393286255653948
46291.899,-0.14608830213546753,-0.05786290392279625,1.4858548641204834,0.31427955627441406,0.13545674085617065,0.521270751953125,10.67414379119873,-2.663905143737793,0.7896576523780823,-67.7005844116211,-31.553983688354492,10.337514877319336,1,0.3346817195415497,0.00040229930891655385,-2.5325176466139965e-05,-0.00014375538739841431,0.3346817195415497,0.00040229930891655385,-2.5325176466139965e-05,-0.00014375538739841431
46301.76,-0.14494426548480988,-0.05902679264545441,1.4908629655838013,0.31231141090393066,0.11099270731210709,0.5081385374069214,10.016698837280273,-2.3345282077789307,0.8042395710945129,-68.04285430908203,-31.188737869262695,10.208608627319336,1,0.33512768149375916,0.00033035644446499646,0.0003335826040711254,-0.00012026943295495585,0.33512768149375916,0.00033035644446499646,0.0003335826040711254,-0.00012026943295495585
46311.63,-0.14289982616901398,-0.05924450606107712,1.4956529140472412,0.3127642571926117,0.09117486327886581,0.4945090115070343,9.367707252502441,-2.0214436054229736,0.8330842852592468,-68.15253448486328,-29.67095947265625,9.70153522491455,1,0.3358052670955658,0.0003208393172826618,9.146099910140038e-05,-0.00013570982264354825,0.3358052670955658,0.0003208393172826618,9.146099910140038e-05,-0.00013570982264354825
46321.482,-0.1418083757162094,-0.060710638761520386,1.5004043579101562,0.3096335530281067,0.06928296387195587,0.4817129075527191,8.689812660217285,-1.7175322771072388,0.8447597026824951,-69.72574615478516,-28.600549697875977,9.507205963134766,1,0.3362943232059479,0.0006923290784470737,0.00022163563698995858,-0.00011352534784236923,0.3362943232059479,0.0006923290784470737,0.00022163563698995858,-0.00011352534784236923
46331.344,-0.1396605223417282,-0.06116040050983429,1.5052341222763062,0.3093245327472687,0.05292440578341484,0.4695022702217102,7.976447105407715,-1.4160441160202026,0.8803015351295471,-70.93241882324219,-26.596908569335938,9.56425666809082,1,0.33659717440605164,0.0007344300975091755,4.839206212636782e-06,-0.0001451751886634156,0.33659717440605164,0.0007344300975091755,4.839206212636782e-06,-0.0001451751886634156
46341.208,-0.13865911960601807,-0.06291128695011139,1.5097038745880127,0.3050183951854706,0.0331849604845047,0.4571993350982666,7.2826385498046875,-1.1427676677703857,0.8960908055305481,-70.75200653076172,-24.14727783203125,9.273982048034668,1,0.3371007442474365,0.0004747261118609458,-9.968764788936824e-05,-0.00011926372826565057,0.3371007442474365,0.0004747261118609458,-9.968764788936824e-05,-0.00011926372826565057
46351.073,-0.13761909306049347,-0.06471359729766846,1.5142238140106201,0.300226628780365,0.015256889164447784,0.44607725739479065,6.563976287841797,-0.8731359243392944,0.9193485379219055,-69.76214599609375,-22.242822647094727,9.236602783203125,1,0.3372840881347656,0.0003150323173031211,1.9034210708923638e-05,-0.00012932068784721196,0.3372840881347656,0.0003150323173031211,1.9034210708923638e-05,-0.00012932068784721196
46360.924,-0.13570664823055267,-0.06567275524139404,1.5184825658798218,0.2981983721256256,0.001211522496305406,0.43436259031295776,5.883605480194092,-0.6418585777282715,0.9648168683052063,-69.460693359375,-22.065017700195312,8.761109352111816,1,0.33774319291114807,0.0005092457286082208,0.00040907421498559415,-0.000155527945025824,0.33774319291114807,0.0005092457286082208,0.00040907421498559415,-0.000155527945025824
46370.787,-0.13477221131324768,-0.06767037510871887,1.522735595703125,0.29263171553611755,-0.013993778266012669,0.42274901270866394,5.165598392486572,-0.4119601547718048,0.9886224269866943,-69.32933044433594,-20.716632843017578,8.523584365844727,1,0.33817923069000244,0.0005963514558970928,0.00020114965445827693,-0.0001280192082049325,0.33817923069000244,0.0005963514558970928,0.00020114965445827693,-0.0001280192082049325
46380.646,-0.13296307623386383,-0.06882859021425247,1.5267455577850342,0.2898089289665222,-0.025335663929581642,0.41090747714042664,4.477233409881592,-0.20166434347629547,1.0357952117919922,-69.55707550048828,-19.409563064575195,7.289815902709961,1,0.3387928903102875,0.0007621749537065625,0.00020727932860609144,-0.00015032199735287577,0.3387928903102875,0.0007621749537065625,0.00020727932860609144,-0.00015032199735287577
46390.521,-0.13216322660446167,-0.07099076360464096,1.5307269096374512,0.28335657715797424,-0.038310859352350235,0.3996182978153229,3.770551919937134,0.006253072526305914,1.0571702718734741,-68.87781524658203,-16.971662521362305,7.4878740310668945,1,0.3392835557460785,0.0006194183952175081,-3.484228363959119e-05,-0.00012062438327120617,0.3392835557460785,0.0006194183952175081,-3.484228363959119e-05,-0.00012062438327120617
46400.366,-0.13046865165233612,-0.07235987484455109,1.5344939231872559,0.2797500789165497,-0.04787933826446533,0.3875468671321869,3.109123706817627,0.18205642700195312,1.0912889242172241,-68.00624084472656,-15.07516098022461,7.028406620025635,1,0.3400763273239136,0.0006320003303699195,4.564984192256816e-05,-0.0001347041252302006,0.3400763273239136,0.0006320003303699195,4.564984192256816e-05,-0.0001347041252302006
46410.236,-0.12872622907161713,-0.07376478612422943,1.5383085012435913,0.27613022923469543,-0.05560775846242905,0.37684717774391174,2.4208014011383057,0.34187018871307373,1.1278249025344849,-65.70023345947266,-11.976446151733398,6.785513877868652,1,0.34050485491752625,0.00035358467721380293,-0.00027825433062389493,-0.00013760289584752172,0.34050485491752625,0.00035358467721380293,-0.00027825433062389493,-0.00013760289584752172
46420.088,-0.1282414048910141,-0.07612568885087967,1.541741132736206,0.26830509305000305,-0.06564600765705109,0.3651161193847656,1.7744321823120117,0.46631306409835815,1.146013855934143,-64.65894317626953,-9.914396286010742,6.550045967102051,1,0.3413812816143036,0.0006357103120535612,-7.678206748096272e-05,-0.00011399861250538379,0.3413812816143036,0.0006357103120535612,-7.678206748096272e-05,-0.00011399861250538379
46429.959,-0.12663401663303375,-0.07763230055570602,1.5453158617019653,0.2641355097293854,-0.07092929631471634,0.35448452830314636,1.1066843271255493,0.5771011710166931,1.1891483068466187,-63.855125427246094,-8.979557037353516,6.381141185760498,1,0.3419150412082672,0.000764110591262579,0.00014920886314939708,-0.00014564846060238779,0.3419150412082672,0.000764110591262579,0.00014920886314939708,-0.00014564846060238779
46439.809,-0.12631484866142273,-0.08001233637332916,1.5485094785690308,0.25565803050994873,-0.07834453880786896,0.34256666898727417,0.4762023091316223,0.6750734448432922,1.207808256149292,-62.0524787902832,-9.063095092773438,6.095041751861572,1,0.34296056628227234,0.0005716715240851045,0.0004332702374085784,-0.00011405778059270233,0.34296056628227234,0.0005716715240851045,0.0004332702374085784,-0.00011405778059270233
46449.675,-0.12597821652889252,-0.08235807716846466,1.5517282485961914,0.2472238689661026,-0.08412504196166992,0.33175912499427795,-0.16038717329502106,0.7757140398025513,1.2298469543457031,-60.05030059814453,-8.331827163696289,5.595338344573975,1,0.3437204658985138,0.0005440880777314305,0.0003151936107315123,-0.00011571422510314733,0.3437204658985138,0.0005440880777314305,0.0003151936107315123,-0.00011571422510314733
46459.533,-0.12470000237226486,-0.08396398276090622,1.5548031330108643,0.24203316867351532,-0.08675362169742584,0.3210483491420746,-0.752370297908783,0.8634032607078552,1.267357587814331,-58.26588821411133,-5.86937141418457,5.826582908630371,1,0.3445303440093994,0.0006261932430788875,-9.178360778605565e-05,-0.00013819447485730052,0.3445303440093994,0.0006261932430788875,-9.178360778605565e-05,-0.00013819447485730052
46469.399,-0.12339387834072113,-0.08556830883026123,1.5579129457473755,0.23702028393745422,-0.08795756846666336,0.31127211451530457,-1.3485921621322632,0.9303195476531982,1.3065167665481567,-55.969818115234375,-3.303668260574341,5.922720432281494,1,0.34509211778640747,0.0005507016321644187,-0.0001814702118281275,-0.00014269053644966334,0.34509211778640747,0.0005507016321644187,-0.0001814702118281275,-0.00014269053644966334
46479.252,-0.12340562045574188,-0.08788403868675232,1.5606507062911987,0.227627232670784,-0.09087985008955002,0.2998173236846924,-1.904089093208313,0.9753296375274658,1.319716215133667,-54.114837646484375,-0.765885055065155,5.53974723815918,1,0.3462596833705902,0.0006571642006747425,-0.00020695671264547855,-0.00010831939289346337,0.3462596833705902,0.0006571642006747425,-0.00020695671264547855,-0.00010831939289346337
46489.116,-0.12340030819177628,-0.09012620896100998,1.5634100437164307,0.21854168176651,-0.0922059640288353,0.28955379128456116,-2.4653782844543457,0.9935435056686401,1.3312408924102783,-52.772010803222656,0.9054256677627563,5.309755325317383,1,0.3471243381500244,0.0008107282919809222,-3.7100577173987404e-05,-0.00010512482549529523,0.3471243381500244,0.0008107282919809222,-3.7100577173987404e-05,-0.00010512482549529523
46498.975,-0.12242696434259415,-0.09168937057256699,1.5660600662231445,0.21286413073539734,-0.09088282287120819,0.2790806293487549,-2.983039379119873,0.9894952178001404,1.3620054721832275,-50.922607421875,1.5033174753189087,5.371163368225098,1,0.34809908270835876,0.0007518513011746109,0.00018001846910919994,-0.0001308588107349351,0.34809908270835876,0.0007518513011746109,0.00018001846910919994,-0.0001308588107349351
46508.843,-0.12258436530828476,-0.09384079277515411,1.5685932636260986,0.20366112887859344,-0.09043541550636292,0.26894107460975647,-3.4983408451080322,0.9831462502479553,1.37679123878479,-48.77271270751953,1.6918659210205078,5.520869731903076,1,0.34905293583869934,0.0007103954558260739,0.0003143870853818953,-0.00011275628639850765,0.34905293583869934,0.0007103954558260739,0.0003143870853818953,-0.00011275628639850765
46518.695,-0.12176290899515152,-0.09533433616161346,1.571038007736206,0.1979694366455078,-0.08738313615322113,0.25852352380752563,-3.9774160385131836,0.966071605682373,1.4094197750091553,-45.45872116088867,3.6573493480682373,5.09414005279541,1,0.3501242995262146,0.0004619828541763127,-9.952633990906179e-05,-0.0001333434775006026,0.3501242995262146,0.0004619828541763127,-9.952633990906179e-05,-0.0001333434775006026
46528.556,-0.12092650681734085,-0.09677399694919586,1.5734968185424805,0.1926216036081314,-0.08308960497379303,0.24914786219596863,-4.444385051727295,0.9346399307250977,1.4392859935760498,-42.15965270996094,5.468786716461182,5.1542840003967285,1,0.350933313369751,0.00045730493729934096,-0.00012420628627296537,-0.0001316278794547543,0.350933313369751,0.00045730493729934096,-0.00012420628627296537,-0.0001316278794547543
46538.419,-0.12141931802034378,-0.09872076660394669,1.5756137371063232,0.18301376700401306,-0.08004967123270035,0.2389364093542099,-4.866152286529541,0.8951448202133179,1.4437248706817627,-39.333499908447266,7.390370845794678,4.833974361419678,1,0.3521248996257782,0.000540377979632467,-0.0001671139179961756,-9.80257973424159e-05,0.3521248996257782,0.000540377979632467,-0.0001671139179961756,-9.80257973424159e-05
46548.289,-0.12189905345439911,-0.1005755364894867,1.5777350664138794,0.1738903969526291,-0.07613012194633484,0.22899407148361206,-5.259084224700928,0.829458475112915,1.4523015022277832,-36.781837463378906,8.320651054382324,4.809314250946045,1,0.35325273871421814,0.000594093173276633,4.2585012124618515e-05,-0.00010340922744944692,0.35325273871421814,0.000594093173276633,4.2585012124618515e-05,-0.00010340922744944692
46558.138,-0.12138178944587708,-0.10181933641433716,1.5797927379608154,0.16831734776496887,-0.06988824158906937,0.21899905800819397,-5.622139930725098,0.7521257400512695,1.476746916770935,-35.013790130615234,9.876185417175293,5.2394118309021,1,0.3544309139251709,0.0007955653709359467,-0.0001353364496026188,-0.00012725013948511332,0.3544309139251709,0.0007955653709359467,-0.0001353364496026188,-0.00012725013948511332
46567.997,-0.12085166573524475,-0.10298094153404236,1.5818488597869873,0.16323119401931763,-0.06268810480833054,0.20977823436260223,-5.979565620422363,0.6577243208885193,1.5033738613128662,-33.308074951171875,10.524828910827637,5.132465362548828,1,0.3554222881793976,0.0008600881556048989,2.4518643840565346e-05,-0.00013038555334787816,0.3554222881793976,0.0008600881556048989,2.4518643840565346e-05,-0.00013038555334787816
46577.859,-0.12164261937141418,-0.1045316606760025,1.5835881233215332,0.1540156453847885,-0.0564589649438858,0.19992491602897644,-6.315496921539307,0.5651695132255554,1.5077630281448364,-30.286222457885742,10.05722713470459,5.338706970214844,1,0.3567343056201935,0.000578607723582536,0.0003132579440716654,-0.0001044740856741555,0.3567343056201935,0.000578607723582536,0.0003132579440716654,-0.0001044740856741555
46587.732,-0.12241847813129425,-0.1059509664773941,1.5853251218795776,0.145367830991745,-0.04929697513580322,0.19061395525932312,-6.631338119506836,0.4710669219493866,1.5170783996582031,-26.84848976135254,11.297715187072754,5.462605953216553,1,0.357918918132782,0.00046424116590060294,-4.032671495224349e-05,-0.00011192806414328516,0.357918918132782,0.00046424116590060294,-4.032671495224349e-05,-0.00011192806414328516
46597.581,-0.12204965204000473,-0.10687896609306335,1.58718740940094,0.1401706486940384,-0.039472367614507675,0.1805693656206131,-6.922865390777588,0.3533199429512024,1.5442206859588623,-23.7307071685791,12.1183500289917,5.25082540512085,1,0.35922971367836,0.0005266669322736561,1.0968867172778118e-05,-0.00013381674943957478,0.35922971367836,0.0005266669322736561,1.0968867172778118e-05,-0.00013381674943957478
46607.441,-0.12167666107416153,-0.10768049210309982,1.5890218019485474,0.13555394113063812,-0.028827480971813202,0.1712024062871933,-7.184211254119873,0.21764644980430603,1.5714727640151978,-20.562772750854492,13.37980842590332,5.738480567932129,1,0.36039188504219055,0.0005116653628647327,-0.00013694952940568328,-0.00013860859326086938,0.36039188504219055,0.0005116653628647327,-0.00013694952940568328,-0.00013860859326086938
46617.299,-0.12278280407190323,-0.10876208543777466,1.5903621912002563,0.12688525021076202,-0.02033184841275215,0.16190193593502045,-7.3799662590026855,0.09094061702489853,1.5735142230987549,-18.586408615112305,16.219820022583008,4.784533977508545,1,0.3617900609970093,0.0007637880044057965,-0.0005340870120562613,-0.00010068793199025095,0.3617900609970093,0.0007637880044057965,-0.0005340870120562613,-0.00010068793199025095
46627.173,-0.1238664984703064,-0.10969783365726471,1.5917036533355713,0.118860624730587,-0.01119298953562975,0.15326359868049622,-7.559383392333984,-0.06627021729946136,1.5722037553787231,-16.745817184448242,16.950454711914062,5.114323139190674,1,0.36303001642227173,0.0008102443534880877,-0.00011436655768193305,-9.885401232168078e-05,0.36303001642227173,0.0008102443534880877,-0.00011436655768193305,-9.885401232168078e-05
46637.022,-0.12380457669496536,-0.11012566089630127,1.5931284427642822,0.11512038111686707,-0.0003717620566021651,0.14539816975593567,-7.720649719238281,-0.24100247025489807,1.5856090784072876,-13.673965454101562,18.138015747070312,4.533265590667725,1,0.3640420138835907,0.0005426363204605877,-0.000274705613264814,-0.00011358450137777254,0.3640420138835907,0.0005426363204605877,-0.000274705613264814,-0.00011358450137777254
46646.883,-0.12500782310962677,-0.11079936474561691,1.5943161249160767,0.10759475082159042,0.009658531285822392,0.13728751242160797,-7.853735446929932,-0.4163650870323181,1.578721046447754,-9.996498107910156,16.82642936706543,5.416216850280762,1,0.3652387857437134,0.0003626178076956421,0.00029954686760902405,-9.44171188166365e-05,0.3652387857437134,0.0003626178076956421,0.00029954686760902405,-9.44171188166365e-05
46656.741,-0.12506109476089478,-0.11097344756126404,1.595587134361267,0.10438567399978638,0.021407287567853928,0.13044767081737518,-7.956812381744385,-0.5896161198616028,1.5958212614059448,-6.12986421585083,15.330639839172363,5.854854106903076,1,0.36608320474624634,0.00026728547527454793,0.0003753610362764448,-0.00012813752982765436,0.36608320474624634,0.00026728547527454793,0.0003753610362764448,-0.00012813752982765436
46666.622,-0.12637144327163696,-0.11138459295034409,1.5966378450393677,0.09736848622560501,0.03202032297849655,0.1231311783194542,-8.010415077209473,-0.7444446086883545,1.611594557762146,-3.5728445053100586,16.663330078125,5.8648271560668945,1,0.367160826921463,0.0005063422722741961,-0.00022744266607332975,-0.00012730930757243186,0.367160826921463,0.0005063422722741961,-0.00022744266607332975,-0.00012730930757243186
46676.47,-0.12652572989463806,-0.11131857335567474,1.5977691411972046,0.09467169642448425,0.0440162718296051,0.11680695414543152,-8.043031692504883,-0.9202830791473389,1.638305902481079,-2.2991514205932617,18.608362197875977,5.917102813720703,1,0.36795634031295776,0.0008002432878129184,-0.00045407883590087295,-0.00014245390775613487,0.36795634031295776,0.0008002432878129184,-0.00045407883590087295,-0.00014245390775613487
46686.327,-0.12793709337711334,-0.11145385354757309,1.5986964702606201,0.08809906989336014,0.05510612577199936,0.10984127223491669,-8.068110466003418,-1.105084776878357,1.6508671045303345,-0.765394389629364,20.592140197753906,5.711099147796631,1,0.36901775002479553,0.0007637880044057965,-0.0005303769721649587,-0.00012399641855154186,0.36901775002479553,0.0007637880044057965,-0.0005303769721649587,-0.00012399641855154186
46696.188,-0.1281849592924118,-0.11113384366035461,1.5996942520141602,0.08591462671756744,0.06724130362272263,0.10325896739959717,-8.074243545532227,-1.3144159317016602,1.6736842393875122,1.2407200336456299,21.098819732666016,6.019550323486328,1,0.36995404958724976,0.0006718430668115616,-0.0002885779831558466,-0.00013996924099046737,0.36995404958724976,0.0006718430668115616,-0.0002885779831558466,-0.00013996924099046737
