timestamp,stateEstimate.x,stateEstimate.y,stateEstimate.z,stateEstimate.vx,stateEstimate.vy,stateEstimate.vz,stateEstimate.roll,stateEstimate.pitch,stateEstimate.yaw,gyro.x,gyro.y,gyro.z,ILBC.nominal_controller,ILBC.nominal_thrust,ILBC.nominal_torqueX,ILBC.nominal_torqueY,ILBC.nominal_torqueZ,ILBC.full_thrust,ILBC.full_torqueX,ILBC.full_torqueY,ILBC.full_torqueZ
14569.598,0.01701500453054905,-0.7963162660598755,0.7046452760696411,0.03924601152539253,0.06205650046467781,-0.0012089578667655587,-0.9094125032424927,-0.5948184728622437,-8.99638843536377,-0.06690484285354614,0.4594431221485138,0.07341780513525009,1,0.0,0.0,0.0,0.0,0.0,0.0,0.0,0.0
14579.473,0.01688688062131405,-0.796517550945282,0.7046512961387634,0.038765981793403625,0.061345770955085754,-0.0009606226813048124,-0.9092521071434021,-0.5968419313430786,-8.999998092651367,-0.016571445390582085,0.05905577912926674,0.2114579826593399,1,0.0,0.0,0.0,0.0,0.0,0.0,0.0,0.0
14589.325,0.017029941082000732,-0.7962891459465027,0.7046489715576172,0.039086513221263885,0.062145132571458817,-0.0010424333158880472,-0.9078044295310974,-0.5964657068252563,-8.989989280700684,-0.09161592274904251,0.16042901575565338,0.09642264246940613,1,0.0,0.0,0.0,0.0,0.0,0.0,0.0,0.0
14599.183,0.016899218782782555,-0.7964921593666077,0.7046538591384888,0.038414858281612396,0.06155432015657425,-0.0011215637205168605,-0.9084609746932983,-0.5966343283653259,-8.994428634643555,0.07068583369255066,-0.09778384864330292,-0.04569666460156441,1,0.0,0.0,0.0,0.0,0.0,0.0,0.0,0.0
14609.043,0.017038801684975624,-0.7962633967399597,0.7046507596969604,0.038778938353061676,0.06238921731710434,-0.00100443116389215,-0.909164309501648,-0.5959805250167847,-8.991893768310547,-0.11863648146390915,0.13057787716388702,-0.02943156659603119,1,0.0,0.0,0.0,0.0,0.0,0.0,0.0,0.0
14796.436,0.016720592975616455,-0.7950538992881775,0.7145301699638367,0.021230027079582214,0.11705181747674942,0.28764835000038147,-7.36752986907959,3.1594619750976562,-7.605691909790039,-86.85154724121094,-42.24534225463867,15.527543067932129,1,0.5830681324005127,0.0017888931324705482,0.0005173111567273736,-1.851664092100691e-05,0.5830681324005127,0.0017888931324705482,0.0005173111567273736,-1.851664092100691e-05
14806.297,0.01663448102772236,-0.7940892577171326,0.7177900075912476,0.014321579597890377,0.13711969554424286,0.3371331989765167,-8.285370826721191,3.5873095989227295,-7.393132209777832,-102.9028549194336,-57.090904235839844,17.094867706298828,1,0.571932852268219,0.0043314117938280106,0.004670801572501659,-6.448286876548082e-05,0.571932852268219,0.0043314117938280106,0.004670801572501659,-6.448286876548082e-05
14816.172,0.01621142029762268,-0.7933542132377625,0.7214891314506531,0.005822858773171902,0.15733356773853302,0.38525065779685974,-9.31025218963623,4.144714832305908,-7.1444902420043945,-107.24903869628906,-70.54773712158203,19.966358184814453,1,0.5610650777816772,0.0023986331652849913,0.005187628790736198,-0.00014020586968399584,0.5610650777816772,0.0023986331652849913,0.005187628790736198,-0.00014020586968399584
14826.02,0.01594782993197441,-0.7919332385063171,0.7257428169250488,-0.0033999786246567965,0.18280096352100372,0.4322519600391388,-10.410404205322266,4.819329738616943,-6.8280792236328125,-93.20295715332031,-66.02206420898438,19.91101837158203,1,0.5504041314125061,-0.0016067776596173644,0.0016785592306405306,-0.0002374626201344654,0.5504041314125061,-0.0016067776596173644,0.0016785592306405306,-0.0002374626201344654
14835.876,0.015587744303047657,-0.7903162240982056,0.730381965637207,-0.013812722638249397,0.21001537144184113,0.47760772705078125,-11.33366870880127,5.399948596954346,-6.522334575653076,-73.28357696533203,-43.05767059326172,19.057750701904297,1,0.5400837063789368,-0.0033700228668749332,-0.0026844688691198826,-0.00023113263887353241,0.5400837063789368,-0.0033700228668749332,-0.0026844688691198826,-0.00023113263887353241
14845.738,0.0148383853957057,-0.7887474894523621,0.7355589270591736,-0.026129797101020813,0.23797963559627533,0.5206344723701477,-12.06179428100586,5.767449378967285,-6.27410364151001,-60.49674606323242,-23.15747833251953,16.067047119140625,1,0.5302767753601074,-0.002271361881867051,-0.002635270357131958,-0.00014896133507136256,0.5302767753601074,-0.002271361881867051,-0.002635270357131958,-0.00014896133507136256
14855.61,0.013973386958241463,-0.7869557738304138,0.7410227060317993,-0.03873223438858986,0.2661215364933014,0.558499813079834,-12.66940689086914,5.964784145355225,-6.087411880493164,-65.65294647216797,-19.32699203491211,14.336994171142578,1,0.5216933488845825,0.0017027553403750062,0.0006366781308315694,-6.815070082666352e-05,0.5216933488845825,0.0017027553403750062,0.0006366781308315694,-6.815070082666352e-05
14865.465,0.013249894604086876,-0.784426212310791,0.7469799518585205,-0.05045092850923538,0.2967822849750519,0.5926278233528137,-13.370139122009277,6.139572620391846,-5.903224945068359,-83.23285675048828,-26.376968383789062,13.727987289428711,1,0.513985812664032,0.005091328173875809,0.003291950561106205,-6.850565841887146e-05,0.513985812664032,0.005091328173875809,0.003291950561106205,-6.850565841887146e-05
14875.325,0.01214877050369978,-0.7820671796798706,0.7531068921089172,-0.06309351325035095,0.32623037695884705,0.6229283809661865,-14.210650444030762,6.387706756591797,-5.715195655822754,-91.62508392333984,-34.86005401611328,14.768162727355957,1,0.5071823000907898,0.0038424909580498934,0.004128487780690193,-8.856041677063331e-05,0.5071823000907898,0.0038424909580498934,0.004128487780690193,-8.856041677063331e-05
14885.183,0.011173899285495281,-0.7789013385772705,0.7596943378448486,-0.07533001899719238,0.35990235209465027,0.652410089969635,-15.150641441345215,6.694021224975586,-5.48391580581665,-78.9999008178711,-30.292585372924805,14.839519500732422,1,0.5005379915237427,-0.0004729517677333206,0.001536609255708754,-0.00015262917440850288,0.5005379915237427,-0.0004729517677333206,0.001536609255708754,-0.00015262917440850288
14895.053,0.009816979058086872,-0.7759109735488892,0.7663893699645996,-0.08893173933029175,0.3929396867752075,0.6804031729698181,-15.899306297302246,6.934170722961426,-5.279890537261963,-50.91967010498047,-11.33165168762207,14.12945556640625,1,0.4942210912704468,-0.004343348555266857,-0.0019174546469002962,-0.00012239912757650018,0.4942210912704468,-0.004343348555266857,-0.0019174546469002962,-0.00012239912757650018
14904.91,0.008578861132264137,-0.7720521688461304,0.7735382914543152,-0.10172808915376663,0.4293859302997589,0.7062160968780518,-16.394453048706055,6.964067459106445,-5.127204418182373,-29.50778579711914,12.242328643798828,13.323287963867188,1,0.48840636014938354,-0.0035260068252682686,-0.0036505358293652534,-5.933607098995708e-05,0.48840636014938354,-0.0035260068252682686,-0.0036505358293652534,-5.933607098995708e-05
14914.77,0.006958912126719952,-0.7683832049369812,0.7807106375694275,-0.11520346999168396,0.4632273018360138,0.7278412580490112,-16.66946792602539,6.802302837371826,-5.0572357177734375,-30.045583724975586,22.597610473632812,11.396536827087402,1,0.48359790444374084,0.0011886702850461006,-0.0013064243830740452,5.413011967903003e-05,0.48359790444374084,0.0011886702850461006,-0.0013064243830740452,5.413011967903003e-05
14924.632,0.005345972720533609,-0.7633485198020935,0.789053201675415,-0.127889484167099,0.5025633573532104,0.7494484782218933,-17.03308868408203,6.543729782104492,-5.006802558898926,-46.13530731201172,16.39282989501953,11.11616325378418,1,0.4787617623806,0.005285541992634535,0.0023539511021226645,7.832598930690438e-05,0.4787617623806,0.005285541992634535,0.0023539511021226645,7.832598930690438e-05
14934.496,0.003466104157269001,-0.7587639093399048,0.7969560623168945,-0.1397610753774643,0.5372462868690491,0.7667704224586487,-17.552881240844727,6.404980182647705,-4.932476043701172,-57.227745056152344,1.7667102813720703,12.888477325439453,1,0.47496235370635986,0.005080520641058683,0.004742099437862635,3.301049946458079e-05,0.47496235370635986,0.005080520641058683,0.004742099437862635,3.301049946458079e-05
14944.347,0.0017425392288714647,-0.7535207867622375,0.8048528432846069,-0.15042954683303833,0.5737889409065247,0.7827719449996948,-18.133773803710938,6.374581336975098,-4.802872180938721,-47.544586181640625,-3.608036756515503,14.494039535522461,1,0.471466600894928,0.0008702505147084594,0.0032190396450459957,-5.247367516858503e-05,0.471466600894928,0.0008702505147084594,0.0032190396450459957,-5.247367516858503e-05
14954.209,-0.0005252807168290019,-0.7476167678833008,0.8138439059257507,-0.1630699783563614,0.6147000789642334,0.8011403679847717,-18.58026123046875,6.337125301361084,-4.656146049499512,-18.266653060913086,9.62170696258545,15.342283248901367,1,0.4673565924167633,-0.0039013680070638657,-0.0009217074257321656,-8.59574502101168e-05,0.4673565924167633,-0.0039013680070638657,-0.0009217074257321656,-8.59574502101168e-05
14964.068,-0.0007813554257154465,-0.7479859590530396,0.8139300346374512,-0.1640440672636032,0.6133719086647034,0.8014823794364929,-18.573562622070312,6.343590259552002,-4.6585211753845215,10.986881256103516,31.988117218017578,15.68920612335205,1,0.46771594882011414,-0.0050826179794967175,-0.0036511810030788183,9.6901785582304e-05,0.46771594882011414,-0.0050826179794967175,-0.0036511810030788183,9.6901785582304e-05
14973.94,-0.004776736255735159,-0.7357141971588135,0.8304237127304077,-0.18434947729110718,0.6886746883392334,0.8313621878623962,-18.449378967285156,5.6924004554748535,-4.557559013366699,20.477298736572266,47.428646087646484,14.777195930480957,1,0.4607066214084625,-0.001059624832123518,-0.002803351730108261,-2.916518678830471e-05,0.4607066214084625,-0.001059624832123518,-0.002803351730108261,-2.916518678830471e-05
14983.802,-0.005023172590881586,-0.7360942959785461,0.8304926156997681,-0.18528293073177338,0.6875101327896118,0.8315282464027405,-18.451656341552734,5.699097633361816,-4.558750152587891,7.364767074584961,45.36180114746094,15.43906307220459,1,0.461064875125885,0.004026058129966259,0.0008229876402765512,9.311562462244183e-05,0.461064875125885,0.004026058129966259,0.0008229876402765512,9.311562462244183e-05
14993.655,-0.007398686371743679,-0.7298306226730347,0.838992714881897,-0.1950732320547104,0.7222816348075867,0.8435969948768616,-18.28732681274414,5.2105231285095215,-4.565237522125244,-9.92686653137207,30.998085021972656,15.997542381286621,1,0.45845380425453186,0.005285541992634535,0.0038794304709881544,9.613272413844243e-05,0.45845380425453186,0.005285541992634535,0.0038794304709881544,9.613272413844243e-05
15003.525,-0.009613827802240849,-0.7228275537490845,0.8475351333618164,-0.20277146995067596,0.757591187953949,0.8539904952049255,-18.29900550842285,4.787696361541748,-4.541265487670898,-8.51426887512207,17.678966522216797,18.102521896362305,1,0.4562426209449768,0.002136670518666506,0.004210593178868294,4.235755841364153e-05,0.4562426209449768,0.002136670518666506,0.004210593178868294,4.235755841364153e-05
15013.382,-0.014258399605751038,-0.7078230977058411,0.8649302124977112,-0.21641306579113007,0.8280566334724426,0.8751240372657776,-18.420461654663086,4.288521766662598,-4.335211277008057,13.913652420043945,20.562843322753906,19.49053955078125,1,0.45133695006370544,-0.0025413897819817066,0.0009142873459495604,-0.00020238154684193432,0.45133695006370544,-0.0025413897819817066,0.0009142873459495604,-0.00020238154684193432
15023.242,-0.01447971910238266,-0.7082542777061462,0.8649771809577942,-0.2171648144721985,0.8266458511352539,0.8752009868621826,-18.420461654663086,4.288521766662598,-4.335211277008057,42.793190002441406,38.68428039550781,20.436283111572266,1,0.45165231823921204,-0.0050105140544474125,-0.0028770691715180874,4.6912766265450045e-05,0.45165231823921204,-0.0050105140544474125,-0.0028770691715180874,4.6912766265450045e-05
15033.106,-0.019374726340174675,-0.6919266581535339,0.8828021287918091,-0.22914963960647583,0.8965969681739807,0.8981215953826904,-17.62717628479004,3.4595935344696045,-4.1839518547058105,60.08414840698242,57.117942810058594,18.68813705444336,1,0.44626927375793457,-0.003138225059956312,-0.0036950563080608845,-0.0001349999220110476,0.44626927375793457,-0.003138225059956312,-0.0036950563080608845,-0.0001349999220110476
15042.97,-0.01957968808710575,-0.6923843026161194,0.8828383684158325,-0.2299177050590515,0.8952162861824036,0.8980202078819275,-17.633859634399414,3.462815046310425,-4.180315017700195,53.53671646118164,62.68067932128906,18.10394859313965,1,0.4465949237346649,0.0019301980501040816,-0.0013154575135558844,5.2414517995202914e-05,0.4465949237346649,0.0019301980501040816,-0.0013154575135558844,5.2414517995202914e-05
15052.831,-0.022296544164419174,-0.6842337250709534,0.8919339179992676,-0.23541948199272156,0.9263857007026672,0.907555341720581,-17.044340133666992,2.8326668739318848,-4.1790618896484375,34.74281692504883,51.31480407714844,17.48128318786621,1,0.4445168972015381,0.005208436865359545,0.0024938040878623724,5.9809342928929254e-05,0.4445168972015381,0.005208436865359545,0.0024938040878623724,5.9809342928929254e-05
15062.687,-0.024853743612766266,-0.6752970814704895,0.9010740518569946,-0.23899319767951965,0.9577465057373047,0.915617048740387,-16.598676681518555,2.224640369415283,-4.175232887268066,23.84870147705078,35.10627746582031,18.828081130981445,1,0.44279220700263977,0.004145102575421333,0.004056544974446297,4.697192707681097e-05,0.44279220700263977,0.004145102575421333,0.004056544974446297,4.697192707681097e-05
15072.541,-0.027623934671282768,-0.6666005253791809,0.9103221893310547,-0.24234570562839508,0.9860002994537354,0.9230179190635681,-16.320350646972656,1.7613416910171509,-4.113405227661133,37.082191467285156,27.955036163330078,20.070859909057617,1,0.4412204325199127,-0.0011407621204853058,0.0024892876390367746,-3.644169555627741e-05,0.4412204325199127,-0.0011407621204853058,0.0024892876390367746,-3.644169555627741e-05
15082.398,-0.03023083321750164,-0.6571165323257446,0.9196190237998962,-0.2441612184047699,1.0156117677688599,0.9312776327133179,-16.059511184692383,1.4087579250335693,-4.012170791625977,64.83235931396484,38.99132537841797,20.782669067382812,1,0.4394233822822571,-0.005063906311988831,-0.001636619446799159,-9.471291559748352e-05,0.4394233822822571,-0.005063906311988831,-0.001636619446799159,-9.471291559748352e-05
15092.279,-0.03546873480081558,-0.6373440623283386,0.938495397567749,-0.24600906670093536,1.0729732513427734,0.9511816501617432,-14.801700592041016,0.55137699842453,-3.804729700088501,88.14640808105469,57.13615036010742,21.517797470092773,1,0.4347093999385834,-0.0050598736852407455,-0.003887495491653681,-0.00024071632651612163,0.4347093999385834,-0.0050598736852407455,-0.003887495491653681,-0.00024071632651612163
15102.13,-0.03562320023775101,-0.6379222273826599,0.9385188221931458,-0.24649077653884888,1.0710268020629883,0.9510504007339478,-14.801700592041016,0.55137699842453,-3.804729700088501,88.75251007080078,67.45738983154297,19.661649703979492,1,0.43496352434158325,-0.0005161819863133132,-0.002722859848290682,3.0170886020641774e-05,0.43496352434158325,-0.0005161819863133132,-0.002722859848290682,3.0170886020641774e-05
15111.995,-0.038367271423339844,-0.6282752156257629,0.9481189250946045,-0.24670664966106415,1.0952311754226685,0.9601191878318787,-13.902318000793457,-0.11243618279695511,-3.746986150741577,67.31968688964844,61.55025100708008,17.0767765045166,1,0.43292295932769775,0.004726774990558624,0.0006799083785153925,-2.5556513719493523e-05,0.43292295932769775,0.004726774990558624,0.0006799083785153925,-2.5556513719493523e-05
15121.841,-0.04095818102359772,-0.6178126931190491,0.957774817943573,-0.24534082412719727,1.1193428039550781,0.9679194688796997,-13.102422714233398,-0.7961577773094177,-3.7196311950683594,47.02711868286133,44.0120849609375,18.84738540649414,1,0.4311853051185608,0.0052763475105166435,0.003610531333833933,-1.5381235698441742e-06,0.4311853051185608,0.0052763475105166435,0.003610531333833933,-1.5381235698441742e-06
15131.714,-0.04606316238641739,-0.5962550640106201,0.9772995114326477,-0.23943768441677094,1.1629633903503418,0.9819889068603516,-12.090932846069336,-1.7568007707595825,-3.5420141220092773,48.81050491333008,28.864097595214844,19.423982620239258,1,0.42787227034568787,0.0007876614690758288,0.0035721403546631336,-0.00019983772654086351,0.42787227034568787,0.0007876614690758288,0.0035721403546631336,-0.00019983772654086351
15141.572,-0.04617901146411896,-0.5969197154045105,0.9773215651512146,-0.2399078607559204,1.1608086824417114,0.9816989898681641,-12.097097396850586,-1.7565242052078247,-3.5353665351867676,72.32059478759766,28.982397079467773,18.982637405395508,1,0.42812013626098633,-0.0045486921444535255,0.0004961799131706357,1.5381236153189093e-05,0.42812013626098633,-0.0045486921444535255,0.0004961799131706357,1.5381236153189093e-05
15151.424,-0.04877106472849846,-0.5865692496299744,0.9872322678565979,-0.2361607849597931,1.1790357828140259,0.9902915358543396,-11.522924423217773,-2.0647544860839844,-3.390061855316162,99.00288391113281,43.35028076171875,18.979522705078125,1,0.4261527359485626,-0.005285541992634535,-0.003005792386829853,-0.00016298193077091128,0.4261527359485626,-0.005285541992634535,-0.003005792386829853,-0.00016298193077091128
15161.285,-0.05120464786887169,-0.5753792524337769,0.997207760810852,-0.23143309354782104,1.1984232664108276,0.9997158646583557,-10.67712116241455,-2.4408023357391357,-3.2652969360351562,106.47816467285156,57.78632354736328,19.495027542114258,1,0.42396512627601624,-0.0028001258615404367,-0.0036786028649657965,-0.00014641752932220697,0.42396512627601624,-0.0028001258615404367,-0.0036786028649657965,-0.00014641752932220697
15171.16,-0.053666554391384125,-0.5647856593132019,1.0073128938674927,-0.22648738324642181,1.2132513523101807,1.0086276531219482,-9.63414192199707,-2.97399640083313,-3.1521575450897217,91.87139892578125,58.97927474975586,17.34614372253418,1,0.4218912720680237,0.0020831169094890356,-0.001175926998257637,-0.00012151175906183198,0.4218912720680237,0.0020831169094890356,-0.001175926998257637,-0.00012151175906183198
15181.007,-0.05597599223256111,-0.5533242225646973,1.017464280128479,-0.22038985788822174,1.2285466194152832,1.01646888256073,-8.617302894592285,-3.5906929969787598,-3.0551509857177734,68.64305114746094,42.68404769897461,17.122900009155273,1,0.42007121443748474,0.004612247459590435,0.0028607770800590515,-0.00010400081373518333,0.42007121443748474,0.004612247459590435,0.0028607770800590515,-0.00010400081373518333
15190.87,-0.058271024376153946,-0.5425202250480652,1.0277161598205566,-0.2135259062051773,1.2391808032989502,1.0225011110305786,-7.816577434539795,-4.141489028930664,-2.9499096870422363,53.8530158996582,24.7947998046875,16.840850830078125,1,0.4186908006668091,0.003450676565989852,0.003767644288018346,-0.00011671991524053738,0.4186908006668091,0.003450676565989852,0.003767644288018346,-0.00011671991524053738
15200.732,-0.06042235717177391,-0.5308619737625122,1.0380014181137085,-0.20554907619953156,1.2505912780761719,1.0282790660858154,-7.215134143829346,-4.511440277099609,-2.8201637268066406,61.52261734008789,18.809953689575195,15.637051582336426,1,0.41736477613449097,-0.0013130378210917115,0.001508057932369411,-0.00014416950580198318,0.41736477613449097,-0.0013130378210917115,0.001508057932369411,-0.00014416950580198318
15210.598,-0.06253247708082199,-0.5199506878852844,1.0483906269073486,-0.1971064656972885,1.2581440210342407,1.034364938735962,-6.659118175506592,-4.739127159118652,-2.6714611053466797,85.36856842041016,25.985061645507812,15.541001319885254,1,0.4159533977508545,-0.005285541992634535,-0.0015087031060829759,-0.000173393840668723,0.4159533977508545,-0.005285541992634535,-0.0015087031060829759,-0.000173393840668723
15220.468,-0.06449384987354279,-0.5081726908683777,1.0588197708129883,-0.18783901631832123,1.2672297954559326,1.0421504974365234,-5.932734966278076,-4.96716833114624,-2.5405826568603516,102.48832702636719,39.28163528442383,15.474813461303711,1,0.4095078706741333,-0.00479500787332654,-0.0033621187321841717,-0.0001563561672810465,0.4095078706741333,-0.00479500787332654,-0.0033621187321841717,-0.0001563561672810465
15230.314,-0.06638120114803314,-0.49720457196235657,1.069370150566101,-0.17835281789302826,1.2722432613372803,1.0493282079696655,-4.987503528594971,-5.3089599609375,-2.4024901390075684,98.81912231445312,43.896507263183594,13.407222747802734,1,0.40304964780807495,-0.0005166658665984869,-0.0019143897807225585,-0.0001565336569910869,0.40304964780807495,-0.0005166658665984869,-0.0019143897807225585,-0.0001565336569910869
15240.184,-0.06813687831163406,-0.4853441119194031,1.0799428224563599,-0.1683713048696518,1.2781943082809448,1.0557798147201538,-3.957468271255493,-5.750389099121094,-2.287933826446533,75.80536651611328,35.101139068603516,11.920791625976562,1,0.3967093229293823,0.0042491452768445015,0.0010001026093959808,-0.00012163007340859622,0.3967093229293823,0.0042491452768445015,0.0010001026093959808,-0.00012163007340859622
15250.046,-0.06980105489492416,-0.47437432408332825,1.0906215906143188,-0.15782707929611206,1.2793337106704712,1.061028242111206,-3.0691964626312256,-6.17324161529541,-2.173187494277954,54.5875244140625,17.962066650390625,11.404346466064453,1,0.3905649781227112,0.004677737597376108,0.003229202004149556,-0.00012304988922551274,0.3905649781227112,0.004677737597376108,0.003229202004149556,-0.00012304988922551274
15259.908,-0.0713336169719696,-0.46250396966934204,1.1013046503067017,-0.14664579927921295,1.2815278768539429,1.0650678873062134,-2.41072678565979,-6.455664157867432,-2.062856674194336,53.031829833984375,5.698198318481445,9.754783630371094,1,0.3846701383590698,0.0007841126644052565,0.002626720815896988,-0.00011056741641368717,0.3846701383590698,0.0007841126644052565,0.002626720815896988,-0.00011056741641368717
15269.762,-0.07275284081697464,-0.45162683725357056,1.1121001243591309,-0.1351136863231659,1.279138445854187,1.068700909614563,-1.8871361017227173,-6.578065872192383,-1.9497475624084473,73.03253173828125,6.894343376159668,9.096445083618164,1,0.3787723481655121,-0.004370932001620531,-0.0002169577346649021,-0.00011417608766350895,0.3787723481655121,-0.004370932001620531,-0.0002169577346649021,-0.00011417608766350895
15279.624,-0.07404086738824844,-0.43981680274009705,1.1228760480880737,-0.12318025529384613,1.2790273427963257,1.073204517364502,-1.2766413688659668,-6.632318019866943,-1.8523424863815308,97.57666015625,16.95079231262207,9.601790428161621,1,0.37261906266212463,-0.005285541992634535,-0.0024792863987386227,-0.00010240353003609926,0.37261906266212463,-0.005285541992634535,-0.0024792863987386227,-0.00010240353003609926
15289.485,-0.07519304752349854,-0.4290710985660553,1.13377845287323,-0.11107043921947479,1.2743415832519531,1.0780190229415894,-0.4261215925216675,-6.748940944671631,-1.7502329349517822,103.17525482177734,26.35628318786621,8.336237907409668,1,0.3662755489349365,-0.002787544159218669,-0.002819160232320428,-0.00010364585614297539,0.3662755489349365,-0.002787544159218669,-0.002819160232320428,-0.00010364585614297539
15299.336,-0.07622794806957245,-0.41736701130867004,1.1446417570114136,-0.09902262687683105,1.2716591358184814,1.0811634063720703,0.6006073355674744,-6.967479705810547,-1.6511622667312622,88.50691223144531,24.281944274902344,7.224168300628662,1,0.36031776666641235,0.0017706655198708177,-0.0005381196970120072,-9.619187767384574e-05,0.36031776666641235,0.0017706655198708177,-0.0005381196970120072,-9.619187767384574e-05
15309.2,-0.0771319717168808,-0.40592190623283386,1.1552821397781372,-0.0869545266032219,1.266689419746399,1.0811163187026978,1.573283076286316,-7.225046157836914,-1.563983678817749,66.35343170166016,10.417878150939941,6.362827777862549,1,0.35521966218948364,0.004052189644426107,0.0022707167081534863,-7.89767291280441e-05,0.35521966218948364,0.004052189644426107,0.0022707167081534863,-7.89767291280441e-05
15319.06,-0.07788456231355667,-0.3958061635494232,1.1657894849777222,-0.07462900876998901,1.2562860250473022,1.0781168937683105,2.336981773376465,-7.409508228302002,-1.4859315156936646,52.41946792602539,-5.110586643218994,6.2528486251831055,1,0.35088223218917847,0.002838516840711236,0.00312015856616199,-7.022125646471977e-05,0.35088223218917847,0.002838516840711236,0.00312015856616199,-7.022125646471977e-05
15328.937,-0.07852146029472351,-0.3854362666606903,1.1768009662628174,-0.06211334094405174,1.2452610731124878,1.0764827728271484,2.9241390228271484,-7.440150260925293,-1.4089858531951904,58.72169494628906,-12.021659851074219,5.622534275054932,1,0.34591466188430786,-0.0015733873005956411,0.0015843560686334968,-6.761827535228804e-05,0.34591466188430786,-0.0015733873005956411,0.0015843560686334968,-6.761827535228804e-05
15338.788,-0.07905231416225433,-0.37412431836128235,1.1876803636550903,-0.04955826327204704,1.2364920377731323,1.074513554573059,3.4684760570526123,-7.344776153564453,-1.3553955554962158,78.15673065185547,-6.821228504180908,5.953029632568359,1,0.34105509519577026,-0.005051324609667063,-0.0011147917248308659,-4.324493420426734e-05,0.34105509519577026,-0.005051324609667063,-0.0011147917248308659,-4.324493420426734e-05
15348.653,-0.07942880690097809,-0.36406004428863525,1.1986607313156128,-0.037052422761917114,1.2231440544128418,1.0731606483459473,4.14146614074707,-7.241916656494141,-1.29610276222229,91.13842010498047,4.580422878265381,6.441815376281738,1,0.3359506130218506,-0.004396418575197458,-0.0028757788240909576,-5.631898602587171e-05,0.3359506130218506,-0.004396418575197458,-0.0028757788240909576,-5.631898602587171e-05
15358.512,-0.07970229536294937,-0.353020578622818,1.2094987630844116,-0.024902068078517914,1.2123805284500122,1.0706967115402222,5.004683017730713,-7.2144951820373535,-1.2331864833831787,87.7176284790039,8.125207901000977,6.3342437744140625,1,0.3311523497104645,-0.0010926927207037807,-0.001503380131907761,-6.27081171842292e-05,0.3311523497104645,-0.0010926927207037807,-0.001503380131907761,-6.27081171842292e-05
15368.373,-0.07986091077327728,-0.34229087829589844,1.2200567722320557,-0.013219768181443214,1.2002308368682861,1.0646852254867554,5.914407730102539,-7.278762340545654,-1.1581852436065674,66.18663024902344,1.5377376079559326,5.399561405181885,1,0.3273390829563141,0.0032648511696606874,0.0007152346079237759,-7.430319965351373e-05,0.3273390829563141,0.0032648511696606874,0.0007152346079237759,-7.430319965351373e-05
15378.224,-0.07985906302928925,-0.3325648903846741,1.231138825416565,-0.0013606147840619087,1.1834944486618042,1.0594528913497925,6.707596778869629,-7.336626052856445,-1.0821502208709717,43.91425323486328,-11.911434173583984,5.667080402374268,1,0.32303586602211,0.004141231067478657,0.002550422912463546,-8.075148798525333e-05,0.32303586602211,0.004141231067478657,0.002550422912463546,-8.075148798525333e-05
15388.083,-0.07973899692296982,-0.32322245836257935,1.241904854774475,0.010402391664683819,1.1650820970535278,1.0515598058700562,7.249552249908447,-7.296262264251709,-1.024143934249878,36.97783660888672,-21.923696517944336,5.296423435211182,1,0.3195173740386963,0.0012035105610266328,0.0021952250972390175,-5.821205922984518e-05,0.3195173740386963,0.0012035105610266328,0.0021952250972390175,-5.821205922984518e-05
15397.944,-0.07954328507184982,-0.312867134809494,1.252482295036316,0.02183586172759533,1.1495884656906128,1.0429104566574097,7.648438453674316,-7.119075775146484,-0.9907053112983704,48.94291687011719,-21.70568084716797,4.6589789390563965,1,0.3162500560283661,-0.0031533881556242704,9.371928172186017e-05,-2.4550816306145862e-05,0.3162500560283661,-0.0031533881556242704,9.371928172186017e-05,-2.4550816306145862e-05
15407.815,-0.07919590175151825,-0.3039324879646301,1.2630743980407715,0.03327153995633125,1.12972891330719,1.0344527959823608,8.059303283691406,-6.891504764556885,-0.9714304208755493,67.74915313720703,-15.707052230834961,5.708752632141113,1,0.31289762258529663,-0.005285541992634535,-0.0013344917679205537,-1.5203759176074527e-05,0.31289762258529663,-0.005285541992634535,-0.0013344917679205537,-1.5203759176074527e-05
15417.676,-0.07877419143915176,-0.29396241903305054,1.2734721899032593,0.04406958073377609,1.1131587028503418,1.0254838466644287,8.64787483215332,-6.702449321746826,-0.9419828057289124,75.23609924316406,-9.626279830932617,7.118096828460693,1,0.3097395598888397,-0.0035506868734955788,-0.001624521566554904,-3.910383384209126e-05,0.3097395598888397,-0.0035506868734955788,-0.001624521566554904,-3.910383384209126e-05
15427.533,-0.0782148689031601,-0.2854771316051483,1.2838691473007202,0.05464004725217819,1.091639518737793,1.0156991481781006,9.381803512573242,-6.580905914306641,-0.8906422853469849,60.44403839111328,-10.905203819274902,7.932861328125,1,0.30675649642944336,0.0013302976731210947,-0.0001359816815238446,-7.430319965351373e-05,0.30675649642944336,0.0013302976731210947,-0.0001359816815238446,-7.430319965351373e-05
15437.39,-0.0775844156742096,-0.27594852447509766,1.2940582036972046,0.06457291543483734,1.0732609033584595,1.003179669380188,10.078337669372559,-6.480628490447998,-0.8249579668045044,31.43727684020996,-19.27674102783203,7.820380210876465,1,0.30453187227249146,0.00520311389118433,0.0015832269564270973,-9.41213293117471e-05,0.30453187227249146,0.00520311389118433,0.0015832269564270973,-9.41213293117471e-05
15447.262,-0.07682139426469803,-0.26794445514678955,1.3041949272155762,0.07447934150695801,1.049884557723999,0.9890377521514893,10.524085998535156,-6.332839012145996,-0.7719427347183228,13.233404159545898,-29.10403060913086,7.367215633392334,1,0.3027152121067047,0.0036097250413149595,0.00223619700409472,-7.743860624032095e-05,0.3027152121067047,0.0036097250413149595,0.00223619700409472,-7.743860624032095e-05
15457.112,-0.07600174844264984,-0.25887149572372437,1.3140946626663208,0.08364357799291611,1.0300648212432861,0.9735665917396545,10.731305122375488,-6.073055267333984,-0.7447131276130676,17.864185333251953,-30.45554542541504,7.716437339782715,1,0.3013284206390381,-0.001239481964148581,0.000577801198232919,-4.9042475438909605e-05,0.3013284206390381,-0.001239481964148581,0.000577801198232919,-4.9042475438909605e-05
15466.979,-0.07506877183914185,-0.2513750493526459,1.323927640914917,0.0928739681839943,1.0051170587539673,0.9595208168029785,10.87712287902832,-5.7657952308654785,-0.7289456725120544,39.857032775878906,-24.070772171020508,7.344156742095947,1,0.2996020019054413,-0.005285541992634535,-0.0012346426956355572,-3.283302066847682e-05,0.2996020019054413,-0.005285541992634535,-0.0012346426956355572,-3.283302066847682e-05
15476.835,-0.07407711446285248,-0.24277809262275696,1.3335305452346802,0.10139268636703491,0.9844949841499329,0.9449983835220337,11.173332214355469,-5.491344451904297,-0.7069165110588074,58.13599395751953,-16.518131256103516,8.147295951843262,1,0.29809027910232544,-0.005285541992634535,-0.0017753434367477894,-4.726772021967918e-05,0.29809027910232544,-0.005285541992634535,-0.0017753434367477894,-4.726772021967918e-05
15486.714,-0.0729844719171524,-0.23580339550971985,1.3430620431900024,0.10975693166255951,0.9586548209190369,0.9306846857070923,11.700998306274414,-5.298370838165283,-0.6664104461669922,53.280296325683594,-16.607481002807617,8.59360122680664,1,0.29654446244239807,-0.001156408921815455,-0.000253090460319072,-7.513141463277861e-05,0.29654446244239807,-0.001156408921815455,-0.000253090460319072,-7.513141463277861e-05
15496.56,-0.07183784246444702,-0.22769397497177124,1.3523465394973755,0.1173277199268341,0.9374380707740784,0.9135158658027649,12.286337852478027,-5.13011360168457,-0.6133741140365601,25.90142250061035,-26.802444458007812,8.863859176635742,1,0.2958166003227234,0.0043144747614860535,0.00217280350625515,-9.489039075560868e-05,0.2958166003227234,0.0043144747614860535,0.00217280350625515,-9.489039075560868e-05
15506.423,-0.07063350826501846,-0.21995894610881805,1.3612600564956665,0.12456004321575165,0.9153680205345154,0.8936070203781128,12.67639446258545,-4.910338401794434,-0.5754640698432922,-3.649514675140381,-39.29960632324219,8.073810577392578,1,0.2959452271461487,0.005285541992634535,0.003134837606921792,-7.211433694465086e-05,0.2959452271461487,0.005285541992634535,0.003134837606921792,-7.211433694465086e-05
15516.283,-0.06934178620576859,-0.213595449924469,1.3704007863998413,0.1312864124774933,0.8889255523681641,0.8744304776191711,12.773880958557129,-4.560810565948486,-0.567063570022583,-13.058671951293945,-40.222679138183594,7.294031620025635,1,0.295770525932312,0.0020252077374607325,0.0008668631198816001,-3.028920036740601e-05,0.295770525932312,0.0020252077374607325,0.0008668631198816001,-3.028920036740601e-05
15526.158,-0.06800944358110428,-0.20761585235595703,1.3791335821151733,0.13771186769008636,0.861944317817688,0.8545657992362976,12.658979415893555,-4.155271053314209,-0.5846421718597412,2.2573347091674805,-30.20709800720215,7.410549163818359,1,0.2959624230861664,-0.0036413411144167185,-0.0016993677709251642,1.8930750229628757e-06,0.2959624230861664,-0.0036413411144167185,-0.0016993677709251642,1.8930750229628757e-06
15536.005,-0.06661655008792877,-0.20050473511219025,1.3876264095306396,0.1435125768184662,0.8393470644950867,0.8359391689300537,12.60097599029541,-3.7992920875549316,-0.5921803116798401,25.925642013549805,-17.488351821899414,8.52171802520752,1,0.29595908522605896,-0.005285541992634535,-0.0027251180727034807,-1.8102531612385064e-05,0.29595908522605896,-0.005285541992634535,-0.0027251180727034807,-1.8102531612385064e-05
15545.869,-0.06518784165382385,-0.19505266845226288,1.3959648609161377,0.1489630788564682,0.8119180798530579,0.8182958960533142,12.761734962463379,-3.5686087608337402,-0.5629021525382996,36.08723449707031,-12.946637153625488,8.255945205688477,1,0.29578033089637756,-0.004153490532189608,-0.0012588388053700328,-6.324054265860468e-05,0.29578033089637756,-0.004153490532189608,-0.0012588388053700328,-6.324054265860468e-05
15555.727,-0.06369512528181076,-0.18844695389270782,1.404075264930725,0.1539098620414734,0.7893341779708862,0.7995709180831909,13.09936809539795,-3.4162638187408447,-0.51570063829422,23.27289581298828,-21.053560256958008,7.563721656799316,1,0.29597729444503784,0.0008515389636158943,0.0016032290877774358,-8.258539310190827e-05,0.29597729444503784,0.0008515389636158943,0.0016032290877774358,-8.258539310190827e-05
15565.596,-0.062196120619773865,-0.183502197265625,1.4119960069656372,0.1585131585597992,0.7618566751480103,0.7794885635375977,13.405824661254883,-3.2456746101379395,-0.4817071259021759,-4.758439540863037,-33.44807815551758,6.500149250030518,1,0.2966020405292511,0.004867434501647949,0.0029611100908368826,-6.010513243381865e-05,0.2966020405292511,0.004867434501647949,0.0029611100908368826,-6.010513243381865e-05
15575.446,-0.06062693893909454,-0.17740193009376526,1.4196844100952148,0.16273824870586395,0.7389801144599915,0.757632851600647,13.486966133117676,-2.9646832942962646,-0.47882580757141113,-27.46040916442871,-42.17961883544922,5.365234851837158,1,0.29778239130973816,0.004625151865184307,0.0025996214244514704,-1.3488160220731515e-05,0.29778239130973816,0.004625151865184307,0.0025996214244514704,-1.3488160220731515e-05
15585.308,-0.05907293036580086,-0.1729741245508194,1.4271529912948608,0.16665242612361908,0.7108926177024841,0.73624587059021,13.30871295928955,-2.582369327545166,-0.515813410282135,-27.940988540649414,-38.4896240234375,5.29897403717041,1,0.29895639419555664,9.146099910140038e-05,-1.4517618183162995e-06,3.8038975617382675e-05,0.29895639419555664,9.146099910140038e-05,-1.4517618183162995e-06,3.8038975617382675e-05
15595.168,-0.05744192376732826,-0.1673893928527832,1.4344067573547363,0.17009226977825165,0.6876487731933594,0.715510368347168,13.016169548034668,-2.17476487159729,-0.5614022612571716,-7.8505096435546875,-24.207763671875,7.246090888977051,1,0.3000761866569519,-0.0048709833063185215,-0.0026541431434452534,3.685580668388866e-05,0.3000761866569519,-0.0048709833063185215,-0.0026541431434452534,3.685580668388866e-05
15605.043,-0.055846404284238815,-0.16344794631004333,1.4414387941360474,0.17290633916854858,0.6597351431846619,0.6969032287597656,12.832587242126465,-1.870363712310791,-0.5725457072257996,13.420754432678223,-12.257231712341309,8.564398765563965,1,0.3007766902446747,-0.005285541992634535,-0.0026315604336559772,-1.478964895795798e-05,0.3007766902446747,-0.005285541992634535,-0.0026315604336559772,-1.478964895795798e-05
15614.891,-0.05417509377002716,-0.15835601091384888,1.4482883214950562,0.1752065122127533,0.6369961500167847,0.6779670715332031,12.877907752990723,-1.6842738389968872,-0.531180739402771,14.250877380371094,-11.845884323120117,8.709325790405273,1,0.30164894461631775,-0.002056178404018283,-0.00031487102387472987,-8.282204362330958e-05,0.30164894461631775,-0.002056178404018283,-0.00031487102387472987,-8.282204362330958e-05
15624.756,-0.052566640079021454,-0.15491193532943726,1.4549002647399902,0.17698930203914642,0.6096245050430298,0.6581430435180664,13.039590835571289,-1.5619242191314697,-0.4708861708641052,-6.489576816558838,-25.031723022460938,8.875715255737305,1,0.30286115407943726,0.0029612714424729347,0.0029546578880399466,-0.00011009415175067261,0.30286115407943726,0.0029612714424729347,0.0029546578880399466,-0.00011009415175067261
15634.61,-0.05086851492524147,-0.15031075477600098,1.4613268375396729,0.1787828803062439,0.5871861577033997,0.6366804838180542,13.080096244812012,-1.3659733533859253,-0.42966678738594055,-34.173065185546875,-39.63591003417969,7.400819301605225,1,0.30457666516304016,0.005285541992634535,0.003846200881525874,-7.773439574521035e-05,0.30457666516304016,0.005285541992634535,0.003846200881525874,-7.773439574521035e-05
15644.488,-0.049254756420850754,-0.14731907844543457,1.467471957206726,0.18025894463062286,0.5600703954696655,0.6146838068962097,12.865532875061035,-1.034902572631836,-0.4261229932308197,-47.46770477294922,-45.12202453613281,6.077198028564453,1,0.3065713047981262,0.0029465926345437765,0.0022829759400337934,-2.165204750781413e-05,0.3065713047981262,0.0029465926345437765,0.0022829759400337934,-2.165204750781413e-05
15654.331,-0.04754697158932686,-0.1431887298822403,1.4734513759613037,0.18135571479797363,0.5377584099769592,0.5936795473098755,12.433866500854492,-0.5911401510238647,-0.45553457736968994,-39.080936431884766,-35.15842056274414,5.808290958404541,1,0.308408260345459,-0.0017438885988667607,-0.0011512470664456487,2.2421108951675706e-05,0.308408260345459,-0.0017438885988667607,-0.0011512470664456487,2.2421108951675706e-05
15664.189,-0.045949652791023254,-0.14065001904964447,1.4791618585586548,0.18161842226982117,0.5109620690345764,0.5747177600860596,11.991125106811523,-0.19090579450130463,-0.4938812255859375,-17.66908073425293,-18.469785690307617,7.525041580200195,1,0.309876412153244,-0.0052615078166127205,-0.0031045121140778065,2.2953536245040596e-05,0.309876412153244,-0.0052615078166127205,-0.0031045121140778065,2.2953536245040596e-05
15674.049,-0.044252876192331314,-0.1370004266500473,1.4847501516342163,0.1815129816532135,0.48910024762153625,0.5569660067558289,11.723599433898926,0.07576456665992737,-0.4850367307662964,-3.139650344848633,-7.657883644104004,8.195263862609863,1,0.3111081123352051,-0.004489815328270197,-0.002313463017344475,-4.0760274714557454e-05,0.3111081123352051,-0.004489815328270197,-0.002313463017344475,-4.0760274714557454e-05
15683.922,-0.042691271752119064,-0.13490164279937744,1.4900673627853394,0.1806006133556366,0.46324455738067627,0.5393832325935364,11.643006324768066,0.19863848388195038,-0.43638792634010315,-10.88693618774414,-11.415120124816895,8.34204387664795,1,0.31243613362312317,0.00019631045870482922,0.0007889518165029585,-9.335227514384314e-05,0.31243613362312317,0.00019631045870482922,0.0007889518165029585,-9.335227514384314e-05
15693.778,-0.04102328419685364,-0.13169151544570923,1.495276689529419,0.17981605231761932,0.44236165285110474,0.5207982659339905,11.59081745147705,0.29997819662094116,-0.374832421541214,-37.69378662109375,-28.715024948120117,9.885108947753906,1,0.314071923494339,0.0050429366528987885,0.00422640098258853,-0.0001229907211381942,0.314071923494339,0.0050429366528987885,0.00422640098258853,-0.0001229907211381942
15703.635,-0.039509523659944534,-0.13000606000423431,1.500188946723938,0.178571417927742,0.4171423017978668,0.5013089776039124,11.362238883972168,0.5159511566162109,-0.3295169472694397,-63.78947448730469,-43.257530212402344,8.67321491241455,1,0.316087543964386,0.005285541992634535,0.004301247652620077,-9.613272413844243e-05,0.316087543964386,0.005285541992634535,0.004301247652620077,-9.613272413844243e-05
15713.492,-0.03787466138601303,-0.12721127271652222,1.5049937963485718,0.17748814821243286,0.39708802103996277,0.4810650646686554,10.825176239013672,0.895597517490387,-0.31956303119659424,-67.67832946777344,-41.891929626464844,7.447947025299072,1,0.3183533847332001,0.0016001641051843762,0.0011212440440431237,-4.3954838474746794e-05,0.3183533847332001,0.0016001641051843762,0.0011212440440431237,-4.3954838474746794e-05
15723.365,-0.03642061725258827,-0.12588435411453247,1.5094916820526123,0.17535915970802307,0.3732466995716095,0.46249327063560486,10.142101287841797,1.3417965173721313,-0.33142176270484924,-48.94084930419922,-24.11602020263672,7.773345470428467,1,0.32036539912223816,-0.0036807002034038305,-0.0027994804549962282,-1.863495708676055e-05,0.32036539912223816,-0.0036807002034038305,-0.0027994804549962282,-1.863495708676055e-05
15733.211,-0.03484494611620903,-0.12349776178598404,1.513925313949585,0.17285557091236115,0.3541260361671448,0.4470168948173523,9.551998138427734,1.6786051988601685,-0.3159281015396118,-23.722078323364258,-4.50136137008667,9.079065322875977,1,0.3216460049152374,-0.005285541992634535,-0.0038847532123327255,-6.258979556150734e-05,0.3216460049152374,-0.005285541992634535,-0.0038847532123327255,-6.258979556150734e-05
15743.076,-0.03347209841012955,-0.12253578752279282,1.5180822610855103,0.16929775476455688,0.331602543592453,0.43240320682525635,9.213143348693848,1.8182176351547241,-0.2591361403465271,-14.044076919555664,1.8299806118011475,8.54977035522461,1,0.32285401225090027,-0.0032592052593827248,-0.0014256301801651716,-0.0001125788185163401,0.32285401225090027,-0.0032592052593827248,-0.0014256301801651716,-0.0001125788185163401
15752.938,-0.031972166150808334,-0.12052024155855179,1.5222071409225464,0.1660056859254837,0.3139374852180481,0.4179883897304535,9.042707443237305,1.824812412261963,-0.17248612642288208,-29.26532745361328,-8.817365646362305,7.698044776916504,1,0.3240324854850769,0.0023289485834538937,0.0024297654163092375,-0.00014736407320015132,0.3240324854850769,0.0023289485834538937,0.0024297654163092375,-0.00014736407320015132
15762.802,-0.030535075813531876,-0.11875606328248978,1.5260971784591675,0.16273707151412964,0.29626941680908203,0.4017501473426819,8.847564697265625,1.8599530458450317,-0.1032961755990982,-54.93495178222656,-28.394851684570312,7.015785217285156,1,0.32578709721565247,0.005285541992634535,0.005033742170780897,-0.0001238189433934167,0.32578709721565247,0.005285541992634535,0.005033742170780897,-0.0001238189433934167
15772.657,-0.029281465336680412,-0.11822789907455444,1.5298328399658203,0.15896128118038177,0.2758454978466034,0.3852526545524597,8.412373542785645,2.066175937652588,-0.06712513417005539,-71.79969787597656,-37.51356887817383,5.329257488250732,1,0.3276911675930023,0.004326733760535717,0.0033551829401403666,-7.235096563817933e-05,0.3276911675930023,0.004326733760535717,0.0033551829401403666,-7.235096563817933e-05
15782.52,-0.028109777718782425,-0.11787451058626175,1.5333170890808105,0.15471595525741577,0.25595545768737793,0.36931777000427246,7.747605323791504,2.423567295074463,-0.06662039458751678,-65.60874938964844,-27.18514060974121,4.624024391174316,1,0.32958918809890747,-0.0005250538233667612,-0.0008804129320196807,-2.3071852410794236e-05,0.32958918809890747,-0.0005250538233667612,-0.0008804129320196807,-2.3071852410794236e-05
15792.379,-0.026789959520101547,-0.11653812974691391,1.536799430847168,0.1504681408405304,0.24041646718978882,0.35599806904792786,7.045739650726318,2.7614166736602783,-0.06515947729349136,-39.4570198059082,-4.981317043304443,7.146542549133301,1,0.3308444917201996,-0.005285541992634535,-0.00407783780246973,-4.2239240428898484e-05,0.3308444917201996,-0.005285541992634535,-0.00407783780246973,-4.2239240428898484e-05
15802.258,-0.025730378925800323,-0.11646949499845505,1.5399998426437378,0.14490696787834167,0.22209736704826355,0.3442336320877075,6.533240795135498,2.930447578430176,-0.0290126483887434,-16.62786293029785,12.575934410095215,8.162090301513672,1,0.3318577706813812,-0.005285541992634535,-0.0037887757644057274,-9.41213293117471e-05,0.3318577706813812,-0.005285541992634535,-0.0037887757644057274,-9.41213293117471e-05
15812.1,-0.02452089823782444,-0.11542324721813202,1.5432270765304565,0.1397308111190796,0.20843783020973206,0.3323899209499359,6.269802093505859,2.8824820518493652,0.0555504634976387,-17.85441017150879,12.094050407409668,7.058410167694092,1,0.33288106322288513,-0.0008699279278516769,-0.00012823895667679608,-0.0001500853686593473,0.33288106322288513,-0.0008699279278516769,-0.00012823895667679608,-0.0001500853686593473
15821.958,-0.023393336683511734,-0.11455389112234116,1.5462636947631836,0.1345226764678955,0.19505208730697632,0.3195064067840576,6.126839637756348,2.7584283351898193,0.13793165981769562,-42.29384231567383,-7.657348155975342,6.301971435546875,1,0.3342626988887787,0.004757423419505358,0.004543530289083719,-0.00014553015353158116,0.3342626988887787,0.004757423419505358,0.004543530289083719,-0.00014553015353158116
15831.822,-0.022497573867440224,-0.11480922251939774,1.5491212606430054,0.12904542684555054,0.17892244458198547,0.30583399534225464,5.829019069671631,2.746349573135376,0.20245137810707092,-70.27352142333984,-27.533447265625,5.242777347564697,1,0.3359367251396179,0.005285541992634535,0.005285541992634535,-0.00011861298844451085,0.3359367251396179,0.005285541992634535,0.005285541992634535,-0.00011861298844451085
15841.695,-0.0214744433760643,-0.11420527845621109,1.551884412765503,0.12429985404014587,0.16605530679225922,0.2920496463775635,5.263559818267822,2.938394069671631,0.23781481385231018,-76.78711700439453,-29.13507843017578,3.7526328563690186,1,0.3376937806606293,0.0025771998334676027,0.001844060025177896,-7.3356663051527e-05,0.3376937806606293,0.0025771998334676027,0.001844060025177896,-7.3356663051527e-05
15851.544,-0.020718073472380638,-0.11463218927383423,1.5544577836990356,0.11832326650619507,0.15180295705795288,0.27907657623291016,4.485915660858154,3.262253999710083,0.24034962058067322,-59.09443664550781,-10.577098846435547,4.068859100341797,1,0.3393518328666687,-0.0029186864849179983,-0.002859970787540078,-3.490357266855426e-05,0.3393518328666687,-0.0029186864849179983,-0.002859970787540078,-3.490357266855426e-05
15861.403,-0.02004445157945156,-0.11518032848834991,1.5568574666976929,0.11166799813508987,0.13819736242294312,0.2686554491519928,3.8175671100616455,3.459080696105957,0.25405779480934143,-33.70348358154297,13.17021369934082,5.058991432189941,1,0.34046822786331177,-0.005285541992634535,-0.00478387763723731,-5.6437300372635946e-05,0.34046822786331177,-0.005285541992634535,-0.00478387763723731,-5.6437300372635946e-05
15871.263,-0.019202319905161858,-0.11483059078454971,1.5593280792236328,0.10537292808294296,0.12882129848003387,0.2598544955253601,3.392136335372925,3.415006637573242,0.30319076776504517,-21.206783294677734,23.759414672851562,4.914428234100342,1,0.3411499261856079,-0.0032824331428855658,-0.0025417122524231672,-0.00010157530778087676,0.3411499261856079,-0.0032824331428855658,-0.0025417122524231672,-0.00010157530778087676
15881.139,-0.018667692318558693,-0.11554045975208282,1.561525583267212,0.09833626449108124,0.1169435977935791,0.2499258667230606,3.1592626571655273,3.214113473892212,0.360385000705719,-33.37102508544922,13.141575813293457,3.536280870437622,1,0.3422517478466034,0.0021537693683058023,0.002150865737348795,-0.0001042374424287118,0.3422517478466034,0.0021537693683058023,0.002150865737348795,-0.0001042374424287118
15890.989,-0.017957095056772232,-0.1153557300567627,1.5637942552566528,0.09254267811775208,0.10891886800527573,0.23938408493995667,2.880087375640869,3.0315816402435303,0.40966638922691345,-58.94362258911133,-9.299928665161133,3.2070701122283936,1,0.34347593784332275,0.005285541992634535,0.005285541992634535,-9.423965093446895e-05,0.34347593784332275,0.005285541992634535,0.005285541992634535,-9.423965093446895e-05
15900.846,-0.017322320491075516,-0.11529329419136047,1.5659053325653076,0.087006576359272,0.10085291415452957,0.22848866879940033,2.3999905586242676,3.0502283573150635,0.4376332461833954,-74.56056213378906,-25.328641891479492,2.539102792739868,1,0.3448728322982788,0.0046067629009485245,0.004817107226699591,-6.418707926059142e-05,0.3448728322982788,0.0046067629009485245,0.004817107226699591,-6.418707926059142e-05
15910.708,-0.016978923231363297,-0.11613798141479492,1.5678178071975708,0.08058375120162964,0.09144563972949982,0.21733170747756958,1.6759223937988281,3.2671396732330322,0.4531870186328888,-68.79112243652344,-18.61603355407715,1.9044818878173828,1,0.3464410603046417,0.00017437273345422,5.4521722631761804e-05,-4.4960535888094455e-05,0.3464410603046417,0.00017437273345422,5.4521722631761804e-05,-4.4960535888094455e-05
15920.584,-0.01671878807246685,-0.11705075949430466,1.5695878267288208,0.07365523278713226,0.0826941728591919,0.20779775083065033,0.9551488757133484,3.503776788711548,0.45899268984794617,-43.600162506103516,5.301931381225586,3.7053580284118652,1,0.34768372774124146,-0.004645960405468941,-0.004280277527868748,-4.590707249008119e-05,0.34768372774124146,-0.004645960405468941,-0.004280277527868748,-4.590707249008119e-05
15930.437,-0.016275174915790558,-0.11710940301418304,1.571454644203186,0.06709621846675873,0.07829234004020691,0.2006298005580902,0.41539740562438965,3.5511579513549805,0.4829466938972473,-19.230504989624023,28.48433494567871,4.394191265106201,1,0.3482939600944519,-0.005285541992634535,-0.005021643824875355,-7.442151400027797e-05,0.3482939600944519,-0.005285541992634535,-0.005021643824875355,-7.442151400027797e-05
15940.29,-0.015920326113700867,-0.11722413450479507,1.5732102394104004,0.060236476361751556,0.07471984624862671,0.1937331110239029,0.1369016319513321,3.354372024536133,0.5196006894111633,-17.604063034057617,31.292051315307617,3.6297786235809326,1,0.3488943874835968,-0.0008004046394489706,-0.0010381710017099977,-8.63123859744519e-05,0.3488943874835968,-0.0008004046394489706,-0.0010381710017099977,-8.63123859744519e-05
15950.15,-0.01585867814719677,-0.11817263811826706,1.5747900009155273,0.053110089153051376,0.06921262294054031,0.18561333417892456,-0.04397009313106537,3.041917085647583,0.5502713918685913,-39.989166259765625,11.198568344116211,3.152627944946289,1,0.34989023208618164,0.004943732637912035,0.0043586730025708675,-7.684701995458454e-05,0.34989023208618164,0.004943732637912035,0.0043586730025708675,-7.684701995458454e-05
15960.021,-0.015878276899456978,-0.11914405971765518,1.5762450695037842,0.04636271670460701,0.06385111808776855,0.1762102097272873,-0.36121097207069397,2.8619422912597656,0.5766001343727112,-64.98483276367188,-12.874677658081055,3.348839521408081,1,0.3512733280658722,0.005285541992634535,0.005285541992634535,-7.400741014862433e-05,0.3512733280658722,0.005285541992634535,0.005285541992634535,-7.400741014862433e-05
15969.874,-0.015699602663517,-0.11932306736707687,1.5777857303619385,0.04092879965901375,0.0615839958190918,0.1671392321586609,-0.9308876991271973,2.9173758029937744,0.6100749373435974,-68.78779602050781,-18.774049758911133,2.835440158843994,1,0.352538138628006,0.002524613868445158,0.002760282950475812,-8.06923198979348e-05,0.352538138628006,0.002524613868445158,0.002760282950475812,-8.06923198979348e-05
15979.741,-0.01558322086930275,-0.11954616755247116,1.5792073011398315,0.03540273755788803,0.059968478977680206,0.15899282693862915,-1.6143319606781006,3.105499505996704,0.6390621066093445,-48.46446228027344,-2.661543369293213,3.3118720054626465,1,0.3536382019519806,-0.0030025660526007414,-0.002245230134576559,-7.974579784786329e-05,0.3536382019519806,-0.0030025660526007414,-0.002245230134576559,-7.974579784786329e-05
15989.593,-0.01579023338854313,-0.1204940676689148,1.5804593563079834,0.028372278437018394,0.05769916623830795,0.15281815826892853,-2.202004909515381,3.214768648147583,0.6690660715103149,-20.344057083129883,21.07778549194336,3.9727630615234375,1,0.35433676838874817,-0.005285541992634535,-0.004667252767831087,-8.702229388291016e-05,0.35433676838874817,-0.005285541992634535,-0.004667252767831087,-8.702229388291016e-05
15999.465,-0.016068369150161743,-0.1214432492852211,1.5816298723220825,0.02108762226998806,0.056094296276569366,0.147794708609581,-2.501903772354126,3.0992791652679443,0.7022385001182556,-6.625045299530029,33.520179748535156,3.053431987762451,1,0.3547922372817993,-0.0031912950798869133,-0.0028719075489789248,-8.589828212279826e-05,0.3547922372817993,-0.0031912950798869133,-0.0028719075489789248,-8.589828212279826e-05
16009.316,-0.01615104079246521,-0.1216190755367279,1.5829192399978638,0.01493741013109684,0.057623494416475296,0.14322899281978607,-2.598463535308838,2.7973546981811523,0.7227190136909485,-17.120508193969727,24.82290267944336,2.0359315872192383,1,0.35507604479789734,0.002144736237823963,0.0017067879671230912,-6.383212166838348e-05,0.35507604479789734,0.002144736237823963,0.0017067879671230912,-6.383212166838348e-05
16019.178,-0.016557689756155014,-0.12250229716300964,1.5839879512786865,0.008401831611990929,0.056900504976511,0.13642790913581848,-2.7208027839660645,2.5099568367004395,0.7275213003158569,-42.6503791809082,2.4512410163879395,1.7263152599334717,1,0.3560284972190857,0.005285541992634535,0.005285541992634535,-4.235755841364153e-05,0.3560284972190857,0.005285541992634535,0.005285541992634535,-4.235755841364153e-05
16029.036,-0.016760163009166718,-0.12263616919517517,1.5851542949676514,0.0033655918668955564,0.05879706144332886,0.12912482023239136,-3.053572654724121,2.4094033241271973,0.7384558916091919,-58.7279167175293,-13.042013168334961,1.6092064380645752,1,0.35706233978271484,0.005064712837338448,0.004597729537636042,-4.963406172464602e-05,0.35706233978271484,0.005064712837338448,0.004597729537636042,-4.963406172464602e-05
16038.908,-0.017011720687150955,-0.12277955561876297,1.5862233638763428,-0.0014607678167521954,0.060892704874277115,0.12223953008651733,-3.581340789794922,2.4980483055114746,0.7620429396629333,-51.94955825805664,-7.99140739440918,1.5313820838928223,1,0.35804593563079834,0.00032842077780514956,0.00031132224830798805,-6.58435164950788e-05,0.35804593563079834,0.00032842077780514956,0.00031132224830798805,-6.58435164950788e-05
16048.76,-0.01758592016994953,-0.1235252246260643,1.5871343612670898,-0.007578927092254162,0.062340687960386276,0.1165924072265625,-4.154712200164795,2.6260950565338135,0.7846033573150635,-24.169981002807617,14.671215057373047,3.388028621673584,1,0.3588048219680786,-0.004884533118456602,-0.004075740464031696,-7.874009315855801e-05,0.3588048219680786,-0.004884533118456602,-0.004075740464031696,-7.874009315855801e-05
16058.628,-0.018222978338599205,-0.12411317229270935,1.5881633758544922,-0.014346038922667503,0.06579090654850006,0.11299087852239609,-4.530864715576172,2.5566272735595703,0.8127393126487732,3.3578670024871826,36.57205581665039,4.496148586273193,1,0.35899829864501953,-0.005285541992634535,-0.004774038214236498,-9.477206913288683e-05,0.35899829864501953,-0.005285541992634535,-0.004774038214236498,-9.477206913288683e-05
16068.482,-0.01865576021373272,-0.12410400062799454,1.589121699333191,-0.019759248942136765,0.0709599107503891,0.10989260673522949,-4.5563554763793945,2.2484090328216553,0.8292075395584106,6.161294937133789,38.6411018371582,3.1328139305114746,1,0.35910195112228394,-0.0009307406144216657,-0.0008970274357125163,-7.134526822483167e-05,0.35910195112228394,-0.0009307406144216657,-0.0008970274357125163,-7.134526822483167e-05
16078.356,-0.01914491504430771,-0.12405627220869064,1.590018630027771,-0.024696948006749153,0.07609867304563522,0.1053493544459343,-4.480743408203125,1.8691195249557495,0.8307057023048401,-16.532711029052734,19.2833194732666,2.074063539505005,1,0.35959669947624207,0.005141495261341333,0.004148812498897314,-4.531548256636597e-05,0.35959669947624207,0.005141495261341333,0.004148812498897314,-4.531548256636597e-05
16088.202,-0.019921867176890373,-0.12458071112632751,1.5907634496688843,-0.0295504629611969,0.0789509266614914,0.0986957848072052,-4.577995300292969,1.6194323301315308,0.8327421545982361,-42.20817947387695,-5.44026517868042,2.378544807434082,1,0.3606961667537689,0.005285541992634535,0.005285541992634535,-4.821425682166591e-05,0.3606961667537689,0.005285541992634535,0.005285541992634535,-4.821425682166591e-05
16098.07,-0.020484784618020058,-0.1244405135512352,1.5915530920028687,-0.033131420612335205,0.08382843434810638,0.09189954400062561,-4.9277119636535645,1.6191744804382324,0.8586999773979187,-45.483558654785156,-12.005809783935547,3.0591914653778076,1,0.3618149161338806,0.0025591333396732807,0.0028498086612671614,-8.394604810746387e-05,0.3618149161338806,0.0025591333396732807,0.0028498086612671614,-8.394604810746387e-05
16107.925,-0.021348023787140846,-0.12482167780399323,1.5921989679336548,-0.03765261918306351,0.08774144947528839,0.08621527999639511,-5.391507148742676,1.732081413269043,0.8966047763824463,-25.466894149780273,3.6331567764282227,3.08516526222229,1,0.362734317779541,-0.002807062119245529,-0.0021881277207285166,-0.00010062877117889002,0.362734317779541,-0.002807062119245529,-0.0021881277207285166,-0.00010062877117889002
16117.799,-0.022008124738931656,-0.1244715228676796,1.5929582118988037,-0.041639603674411774,0.09511155635118484,0.08341789245605469,-5.709390163421631,1.7358983755111694,0.9283173084259033,3.6529219150543213,28.3045711517334,3.4874885082244873,1,0.36288192868232727,-0.005285541992634535,-0.004970832262188196,-9.71975750871934e-05,0.36288192868232727,-0.005285541992634535,-0.004970832262188196,-9.71975750871934e-05
16127.651,-0.02295590005815029,-0.12468993663787842,1.5935510396957397,-0.04649592563509941,0.10078241676092148,0.08068883419036865,-5.734325408935547,1.5036793947219849,0.9403892755508423,17.5208740234375,42.84932327270508,1.4058548212051392,1,0.3630959987640381,-0.003135805483907461,-0.0035331042017787695,-5.8507856010692194e-05,0.3630959987640381,-0.003135805483907461,-0.0035331042017787695,-5.8507856010692194e-05
16137.506,-0.0236828476190567,-0.12420698255300522,1.5942609310150146,-0.049875617027282715,0.10852305591106415,0.0782652348279953,-5.583835601806641,1.0899193286895752,0.9207902550697327,7.106476306915283,32.926727294921875,0.2792324125766754,1,0.363176167011261,0.00219748355448246,0.0017277577426284552,-1.0352755452913698e-05,0.363176167011261,0.00219748355448246,0.0017277577426284552,-1.0352755452913698e-05
16147.368,-0.024692106992006302,-0.12425453215837479,1.5948035717010498,-0.053594477474689484,0.11410461366176605,0.0738675519824028,-5.487892150878906,0.7316827178001404,0.8941051959991455,-17.807083129882812,8.849992752075195,0.5565121173858643,1,0.3638322651386261,0.005285541992634535,0.005285541992634535,-2.425502543701441e-06,0.3638322651386261,0.005285541992634535,0.005285541992634535,-2.425502543701441e-06
16157.238,-0.025484779849648476,-0.12361481785774231,1.5954382419586182,-0.05572991073131561,0.12143596261739731,0.06913245469331741,-5.616692066192627,0.5940078496932983,0.8860360383987427,-33.87921142578125,-8.53112506866455,0.9480560421943665,1,0.36453014612197876,0.005097458139061928,0.004847755189985037,-2.798201603582129e-05,0.36453014612197876,0.005097458139061928,0.004847755189985037,-2.798201603582129e-05
