timestamp,stateEstimate.x,stateEstimate.y,stateEstimate.z,stateEstimate.vx,stateEstimate.vy,stateEstimate.vz,stateEstimate.roll,stateEstimate.pitch,stateEstimate.yaw,gyro.x,gyro.y,gyro.z,ILBC.nominal_controller,ILBC.nominal_thrust,ILBC.nominal_torqueX,ILBC.nominal_torqueY,ILBC.nominal_torqueZ,ILBC.full_thrust,ILBC.full_torqueX,ILBC.full_torqueY,ILBC.full_torqueZ
17927.933,0.026353325694799423,-0.8059852719306946,0.7047417163848877,0.04244687780737877,0.0545448400080204,-0.00026338972384110093,-0.9183608293533325,-0.6674864292144775,-16.753372192382812,-0.0263447854667902,-0.2878851592540741,-0.017819974571466446,1,0.0,0.0,0.0,0.0,0.0,0.0,0.0,0.0
17937.784,0.026485858485102654,-0.8058115243911743,0.7047397494316101,0.042810648679733276,0.05508048087358475,-8.859558147378266e-05,-0.9176598787307739,-0.6676461100578308,-16.747285842895508,-0.09497087448835373,0.3467700183391571,0.01987733133137226,1,0.0,0.0,0.0,0.0,0.0,0.0,0.0,0.0
17947.66,0.02635427564382553,-0.8059773445129395,0.7047383189201355,0.04238424077630043,0.05440723896026611,-3.8314174162223935e-05,-0.9180527329444885,-0.6679896712303162,-16.752737045288086,-0.26457005739212036,0.027731847018003464,4.080254439031705e-05,1,0.0,0.0,0.0,0.0,0.0,0.0,0.0,0.0
17957.51,0.02648743987083435,-0.8058059811592102,0.7047387957572937,0.04274247586727142,0.05484189838171005,0.00014167590416036546,-0.9178813099861145,-0.6675053238868713,-16.74617576599121,-0.13846981525421143,0.07889393717050552,0.024012131616473198,1,0.0,0.0,0.0,0.0,0.0,0.0,0.0,0.0
17967.372,0.026359232142567635,-0.8059734106063843,0.7047421932220459,0.042431171983480453,0.05438334122300148,0.0003536709991749376,-0.9200027585029602,-0.6675851345062256,-16.751752853393555,-0.064659483730793,0.2042742371559143,-0.20382153987884521,1,0.0,0.0,0.0,0.0,0.0,0.0,0.0,0.0
18154.766,0.02656661346554756,-0.8041736483573914,0.7133388519287109,0.02694128453731537,0.11094493418931961,0.25114282965660095,-8.151322364807129,4.457359313964844,-14.602502822875977,-89.12580108642578,-59.476497650146484,23.846708297729492,1,0.5923294425010681,-0.004298505373299122,-0.0017435658955946565,7.412572449538857e-05,0.5923294425010681,-0.004298505373299122,-0.0017435658955946565,7.412572449538857e-05
18164.617,0.02651633508503437,-0.803327739238739,0.7160652279853821,0.019932830706238747,0.1330985128879547,0.29999840259552,-9.091087341308594,5.022730350494385,-14.29830551147461,-88.27828979492188,-65.79207611083984,24.150400161743164,1,0.581405520439148,0.0005468302988447249,0.0023474988993257284,7.116779306670651e-05,0.581405520439148,0.0005468302988447249,0.0023474988993257284,7.116779306670651e-05
18174.483,0.026100244373083115,-0.8024579882621765,0.7194297909736633,0.01092118676751852,0.1573425978422165,0.34711718559265137,-9.971074104309082,5.600912570953369,-13.982584953308105,-109.96383666992188,-80.64627075195312,25.070293426513672,1,0.5708420872688293,0.005285541992634535,0.004956959746778011,3.709243901539594e-05,0.5708420872688293,0.005285541992634535,0.004956959746778011,3.709243901539594e-05
18184.348,0.025586390867829323,-0.8012090921401978,0.7234009504318237,0.0007101470837369561,0.18493245542049408,0.39127877354621887,-11.041263580322266,6.324775218963623,-13.613471984863281,-127.26081848144531,-90.6626205444336,26.551279067993164,1,0.5609462261199951,0.005285541992634535,0.004733066074550152,-5.525412780116312e-05,0.5609462261199951,0.005285541992634535,0.004733066074550152,-5.525412780116312e-05
18194.202,0.025266243144869804,-0.7995326519012451,0.7275471687316895,-0.009260785765945911,0.21466460824012756,0.4323955178260803,-12.285334587097168,7.129268169403076,-13.193958282470703,-121.62715148925781,-83.9609146118164,25.83598518371582,1,0.5517441630363464,0.0017242091707885265,0.0014654729748144746,-0.0001305038749706,0.5517441630363464,0.0017242091707885265,0.0014654729748144746,-0.0001305038749706
18204.059,0.024509256705641747,-0.7976489663124084,0.7323891520500183,-0.022427426651120186,0.24873395264148712,0.47415992617607117,-13.616390228271484,7.970615863800049,-12.745925903320312,-97.95808410644531,-60.53468704223633,24.87049674987793,1,0.5423193573951721,-0.002536873100325465,-0.0024387985467910767,-0.00017800822388380766,0.5423193573951721,-0.002536873100325465,-0.0024387985467910767,-0.00017800822388380766
18213.925,0.023933714255690575,-0.795304000377655,0.737342119216919,-0.03526397421956062,0.2851617634296417,0.5134153962135315,-14.725278854370117,8.578373908996582,-12.347254753112793,-71.29361724853516,-40.29902267456055,23.14670181274414,1,0.5334583520889282,-0.003942985087633133,-0.002266522729769349,-0.00012133428390370682,0.5334583520889282,-0.003942985087633133,-0.002266522729769349,-0.00012133428390370682
18223.796,0.02290165238082409,-0.7927027940750122,0.7429827451705933,-0.05015057697892189,0.3232954144477844,0.5492085814476013,-15.581274032592773,9.002739906311035,-11.994498252868652,-59.81297302246094,-33.17680358886719,21.410032272338867,1,0.5254025459289551,-0.0011333420407027006,0.0004026218957733363,-6.679005309706554e-05,0.5254025459289551,-0.0011333420407027006,0.0004026218957733363,-6.679005309706554e-05
18233.64,0.022043298929929733,-0.7896025776863098,0.7486162185668945,-0.06374090164899826,0.361693799495697,0.5782521367073059,-16.23739242553711,9.284499168395996,-11.697290420532227,-69.8502197265625,-38.21036911010742,20.954158782958984,1,0.5189771056175232,0.003968955483287573,0.00331856613047421,-7.039873253233964e-06,0.5189771056175232,0.003968955483287573,0.00331856613047421,-7.039873253233964e-06
18243.501,0.020724652335047722,-0.7862297296524048,0.754860520362854,-0.0787595883011818,0.40062978863716125,0.6046501994132996,-16.94338607788086,9.588735580444336,-11.401359558105469,-86.50647735595703,-43.94832229614258,22.378929138183594,1,0.513168454170227,0.005285541992634535,0.003974278457462788,-2.8041176847182214e-05,0.513168454170227,0.005285541992634535,0.003974278457462788,-2.8041176847182214e-05
18253.372,0.019582336768507957,-0.7823835611343384,0.7610029578208923,-0.09270728379487991,0.4401034712791443,0.6273508667945862,-17.78458023071289,9.92873477935791,-11.075600624084473,-88.74506378173828,-39.52903747558594,22.887374877929688,1,0.5082427859306335,0.003996538929641247,0.0020339181646704674,-8.246708603110164e-05,0.5082427859306335,0.003996538929641247,0.0020339181646704674,-8.246708603110164e-05
18263.231,0.017959320917725563,-0.7782067656517029,0.7677181959152222,-0.108552485704422,0.4818074703216553,0.6500589847564697,-18.747777938842773,10.280839920043945,-10.732146263122559,-69.99776458740234,-20.997264862060547,23.45987319946289,1,0.5032815337181091,-0.0005092457286082208,-0.0012520638993009925,-0.0001229907211381942,0.5032815337181091,-0.0005092457286082208,-0.0012520638993009925,-0.0001229907211381942
18273.093,0.016516996547579765,-0.7735440135002136,0.7742851376533508,-0.123305544257164,0.524635374546051,0.669855535030365,-19.55836296081543,10.478572845458984,-10.427932739257812,-40.48106002807617,1.9533008337020874,24.58110809326172,1,0.4990127682685852,-0.0034201894886791706,-0.00281544984318316,-9.506786591373384e-05,0.4990127682685852,-0.0034201894886791706,-0.00281544984318316,-9.506786591373384e-05
18282.952,0.014593257568776608,-0.768530547618866,0.7814038395881653,-0.1393563598394394,0.5686358213424683,0.689452052116394,-20.10890769958496,10.471868515014648,-10.183363914489746,-18.147199630737305,16.307785034179688,24.161592483520508,1,0.49476441740989685,-0.0024808996822685003,-0.0014522457495331764,-2.8277809178689495e-05,0.49476441740989685,-0.0024808996822685003,-0.0014522457495331764,-2.8277809178689495e-05
18292.803,0.012847556732594967,-0.7629973292350769,0.7883183360099792,-0.15384377539157867,0.6129872798919678,0.7053762674331665,-20.384191513061523,10.285137176513672,-10.003987312316895,-15.338581085205078,16.05359649658203,24.036951065063477,1,0.4914029538631439,0.0016721070278435946,0.0016504917293787003,4.608455128618516e-05,0.4914029538631439,0.0016721070278435946,0.0016504917293787003,4.608455128618516e-05
18302.673,0.010643331333994865,-0.7571277022361755,0.7957526445388794,-0.16872499883174896,0.6567135453224182,0.7209718227386475,-20.557668685913086,10.046882629394531,-9.843756675720215,-24.159582138061523,9.26823616027832,25.453699111938477,1,0.4880998134613037,0.004676769953221083,0.0033816371578723192,5.312441862770356e-05,0.4880998134613037,0.004676769953221083,0.0033816371578723192,5.312441862770356e-05
18312.524,0.008616361767053604,-0.7507727146148682,0.8029497265815735,-0.1821659654378891,0.6998986005783081,0.7334964275360107,-20.777597427368164,9.859419822692871,-9.660625457763672,-27.96800422668457,7.473233699798584,27.60048484802246,1,0.4855394661426544,0.004136714618653059,0.0025915561709553003,1.774757834027696e-06,0.4855394661426544,0.004136714618653059,0.0025915561709553003,1.774757834027696e-06
18322.385,0.006142050493508577,-0.744059145450592,0.8106359839439392,-0.1960122287273407,0.7430952191352844,0.7461109161376953,-21.09017562866211,9.694846153259277,-9.432454109191895,-14.563794136047363,16.13288116455078,29.315732955932617,1,0.48293811082839966,0.00046649944852106273,0.00029341719346120954,-7.59004833525978e-05,0.48293811082839966,0.00046649944852106273,0.00029341719346120954,-7.59004833525978e-05
18332.25,0.003861253848299384,-0.7368621826171875,0.818062961101532,-0.20865972340106964,0.7866442799568176,0.7570851445198059,-21.322288513183594,9.485079765319824,-9.216110229492188,11.670394897460938,33.20199966430664,31.07376480102539,1,0.48072707653045654,-0.0028554543387144804,-0.0019561683293431997,-8.282204362330958e-05,0.48072707653045654,-0.0028554543387144804,-0.0019561683293431997,-8.282204362330958e-05
18342.125,0.001144678215496242,-0.7293044328689575,0.8259789347648621,-0.2219015657901764,0.8305476903915405,0.7700089812278748,-21.325349807739258,9.133899688720703,-9.024683952331543,33.782264709472656,49.83277893066406,32.34214401245117,1,0.4780134856700897,-0.002649465575814247,-0.002434765687212348,-6.891976954648271e-05,0.4780134856700897,-0.002649465575814247,-0.002434765687212348,-6.891976954648271e-05
18351.976,-0.0013825116911903024,-0.7212551832199097,0.8336207270622253,-0.23368923366069794,0.874057412147522,0.7805392742156982,-21.074182510375977,8.620115280151367,-8.889890670776367,42.455352783203125,55.184078216552734,32.08606719970703,1,0.47587767243385315,-8.710571273695678e-05,-0.0003289047162979841,-2.3663437787035946e-06,0.47587767243385315,-8.710571273695678e-05,-0.0003289047162979841,-2.3663437787035946e-06
18361.836,-0.004311264492571354,-0.7128919363021851,0.8417525291442871,-0.24508242309093475,0.9157406687736511,0.7918463945388794,-20.671695709228516,7.99088191986084,-8.778669357299805,36.397464752197266,50.18913650512695,32.521610260009766,1,0.47353243827819824,0.003283885307610035,0.0019774609245359898,1.9167386199114844e-05,0.47353243827819824,0.003283885307610035,0.0019774609245359898,1.9167386199114844e-05
18371.693,-0.007040891796350479,-0.7040311694145203,0.8495810031890869,-0.2548348605632782,0.9567340612411499,0.8003884553909302,-20.298254013061523,7.40415096282959,-8.662282943725586,30.40605354309082,43.464359283447266,34.425594329833984,1,0.4718600809574127,0.003675376996397972,0.0026147845201194286,-5.560908448387636e-06,0.4718600809574127,0.003675376996397972,0.0026147845201194286,-5.560908448387636e-06
18381.563,-0.01015195157378912,-0.6949048638343811,0.8578874468803406,-0.2642369568347931,0.9955819249153137,0.8100007176399231,-19.98843765258789,6.8542327880859375,-8.496338844299316,36.475303649902344,42.15125274658203,36.35258865356445,1,0.46990808844566345,0.0011675390414893627,0.0016050033736974,-8.779136260272935e-05,0.46990808844566345,0.0011675390414893627,0.0016050033736974,-8.779136260272935e-05
18391.419,-0.013048277236521244,-0.6853122115135193,0.8658851385116577,-0.27227163314819336,1.0341417789459229,0.8179276585578918,-19.677885055541992,6.350631237030029,-8.302742004394531,53.14266586303711,55.9268684387207,37.18315124511719,1,0.4683621823787689,-0.0014735383447259665,-0.001966007985174656,-0.00013618309458252043,0.4683621823787689,-0.0014735383447259665,-0.001966007985174656,-0.00013618309458252043
18401.271,-0.01629968173801899,-0.675459086894989,0.8743612766265869,-0.28015413880348206,1.0716742277145386,0.8285841345787048,-19.22730827331543,5.741851806640625,-8.118766784667969,75.17755126953125,70.45237731933594,37.96675491333008,1,0.46612364053726196,-0.003319372422993183,-0.0027036641258746386,-0.0001375437423121184,0.46612364053726196,-0.003319372422993183,-0.0027036641258746386,-0.0001375437423121184
18411.133,-0.019331250339746475,-0.6651394963264465,0.8825305104255676,-0.2866661548614502,1.108830451965332,0.83760666847229,-18.57318687438965,5.018374919891357,-7.969313144683838,87.24799346923828,78.03853607177734,37.47523880004883,1,0.4642767906188965,-0.0017248542280867696,-0.001653718063607812,-9.743420378072187e-05,0.4642767906188965,-0.0017248542280867696,-0.001653718063607812,-9.743420378072187e-05
18420.999,-0.02295878157019615,-0.6535542011260986,0.8920027017593384,-0.29301151633262634,1.1465741395950317,0.8496906757354736,-17.641422271728516,4.082413196563721,-7.826448440551758,83.6008071899414,73.73839569091797,36.90602493286133,1,0.46165284514427185,0.001600647927261889,0.0008286333759315312,-9.122255141846836e-05,0.46165284514427185,0.001600647927261889,0.0008286333759315312,-9.122255141846836e-05
18430.85,-0.02608320862054825,-0.642605185508728,0.9003050923347473,-0.2971106171607971,1.1796300411224365,0.8577226996421814,-16.822242736816406,3.2806875705718994,-7.695107460021973,73.51139831542969,61.8974494934082,37.214298248291016,1,0.46002164483070374,0.0033182434272021055,0.0027467331383377314,-8.459678792860359e-05,0.46002164483070374,0.0033182434272021055,0.0027467331383377314,-8.459678792860359e-05
18440.713,-0.029462765902280807,-0.6315795183181763,0.9090706706047058,-0.30019983649253845,1.2093356847763062,0.8672261834144592,-16.075008392333984,2.5453813076019287,-7.510783672332764,70.52837371826172,54.93064498901367,37.49236297607422,1,0.4580115079879761,0.0020189168862998486,0.0019753638189285994,-0.00016020146722439677,0.4580115079879761,0.0020189168862998486,0.0019753638189285994,-0.00016020146722439677
18450.574,-0.033009275794029236,-0.6183459162712097,0.9190381765365601,-0.3016396164894104,1.2423121929168701,0.8802779316902161,-15.276506423950195,1.8157224655151367,-7.269749164581299,79.117919921875,58.89467239379883,36.93185806274414,1,0.4551021158695221,-0.000637323479168117,-0.0004611763288266957,-0.00023693018010817468,0.4551021158695221,-0.000637323479168117,-0.0004611763288266957,-0.00023693018010817468
18460.44,-0.03638298436999321,-0.6069212555885315,0.9278500080108643,-0.3028488755226135,1.2687060832977295,0.8903768658638,-14.510104179382324,1.160136342048645,-7.049550533294678,95.93413543701172,70.1102294921875,36.7692756652832,1,0.45290982723236084,-0.0029859517235308886,-0.002446541329845786,-0.00021924175962340087,0.45290982723236084,-0.0029859517235308886,-0.002446541329845786,-0.00021924175962340087
18470.291,-0.03992182016372681,-0.5931522250175476,0.9380165934562683,-0.3021462857723236,1.2980414628982544,0.90487140417099,-13.431138038635254,0.3014664947986603,-6.825735092163086,109.51802062988281,76.8069839477539,36.018310546875,1,0.4496060907840729,-0.0029523996636271477,-0.0019334241515025496,-0.00022787891793996096,0.4496060907840729,-0.0029523996636271477,-0.0019334241515025496,-0.00022787891793996096
18480.155,-0.0432339608669281,-0.5814043879508972,0.9468907713890076,-0.30125561356544495,1.3202162981033325,0.9135386347770691,-12.374674797058105,-0.5045976638793945,-6.631052494049072,109.61495208740234,73.79238891601562,34.25289535522461,1,0.44773438572883606,-0.00034664844861254096,1.6614605556242168e-05,-0.0001874144363682717,0.44773438572883606,-0.00034664844861254096,1.6614605556242168e-05,-0.0001874144363682717
18490.02,-0.04640291631221771,-0.5685424208641052,0.9563183188438416,-0.29806068539619446,1.3417026996612549,0.9251699447631836,-11.265801429748535,-1.3118948936462402,-6.435271263122559,96.49658203125,65.2830810546875,32.481468200683594,1,0.44511038064956665,0.0027233439031988382,0.0013222323032096028,-0.00018451566575095057,0.44511038064956665,0.0027233439031988382,0.0013222323032096028,-0.00018451566575095057
18499.887,-0.04961111396551132,-0.5565179586410522,0.9653792977333069,-0.29451683163642883,1.3584665060043335,0.9325838685035706,-10.329412460327148,-1.9941225051879883,-6.22050142288208,86.24180603027344,53.16356658935547,32.81882858276367,1,0.4435211420059204,0.002451380481943488,0.0024168607778847218,-0.0002195967099396512,0.4435211420059204,0.002451380481943488,0.0024168607778847218,-0.0002195967099396512
18509.743,-0.05268912762403488,-0.5433249473571777,0.9749858379364014,-0.2891979515552521,1.3757208585739136,0.9431661367416382,-9.448439598083496,-2.5897598266601562,-5.976608753204346,84.35865783691406,49.60477828979492,32.09223556518555,1,0.44113051891326904,0.0008002432878129184,0.0007200738764367998,-0.0002610077499412,0.44113051891326904,0.0008002432878129184,0.0007200738764367998,-0.0002610077499412
18519.594,-0.0557636022567749,-0.531097948551178,0.984220027923584,-0.28366413712501526,1.3883923292160034,0.9505501985549927,-8.618023872375488,-3.1257829666137695,-5.7278876304626465,94.21388244628906,56.604034423828125,31.271961212158203,1,0.4395219087600708,-0.001926326542161405,-0.0017998620169237256,-0.0002717745956033468,0.4395219087600708,-0.001926326542161405,-0.0017998620169237256,-0.0002717745956033468
18529.454,-0.058708325028419495,-0.5176683068275452,0.9940110445022583,-0.2767065763473511,1.4022167921066284,0.9613736271858215,-7.643211841583252,-3.7421913146972656,-5.483577251434326,108.08840942382812,63.66504669189453,30.69235610961914,1,0.4370443820953369,-0.0032734002452343702,-0.002237326232716441,-0.0002726028033066541,0.4370443820953369,-0.0032734002452343702,-0.002237326232716441,-0.0002726028033066541
18539.324,-0.06161276623606682,-0.5053038597106934,1.0034114122390747,-0.26947376132011414,1.4111995697021484,0.9683904051780701,-6.589137554168701,-4.400683403015137,-5.2475080490112305,112.94408416748047,65.13130950927734,28.942893981933594,1,0.43550029397010803,-0.0016900120535865426,-0.0013275555102154613,-0.00026000203797593713,0.43550029397010803,-0.0016900120535865426,-0.0013275555102154613,-0.00026000203797593713
18549.182,-0.06437437981367111,-0.4917493164539337,1.0134001970291138,-0.26043781638145447,1.4204462766647339,0.9790953993797302,-5.430673599243164,-5.090276718139648,-5.016607761383057,104.93914794921875,57.220245361328125,26.739173889160156,1,0.4330257773399353,0.001179314567707479,0.0007029753178358078,-0.00024775619385764003,0.4330257773399353,0.001179314567707479,0.0007029753178358078,-0.00024775619385764003
18559.036,-0.0670660063624382,-0.4793687164783478,1.022971272468567,-0.25116395950317383,1.4243251085281372,0.9846596121788025,-4.404219627380371,-5.664358615875244,-4.784540176391602,91.30508422851562,44.125240325927734,25.28510093688965,1,0.4318176507949829,0.0028052874840795994,0.002118443138897419,-0.0002487619058229029,0.4318176507949829,0.0028052874840795994,0.002118443138897419,-0.0002487619058229029
18568.904,-0.06961670517921448,-0.4657509922981262,1.03311026096344,-0.24036075174808502,1.42918062210083,0.9930867552757263,-3.4547665119171143,-6.130767345428467,-4.549200057983398,85.13265991210938,35.064056396484375,23.57769012451172,1,0.42988714575767517,0.0015320924576371908,0.0015285438857972622,-0.0002507141325622797,0.42988714575767517,0.0015320924576371908,0.0015285438857972622,-0.0002507141325622797
18578.766,-0.0720427930355072,-0.4534192383289337,1.0428208112716675,-0.22906556725502014,1.428963303565979,0.9981677532196045,-2.610569477081299,-6.4922661781311035,-4.323282718658447,92.01991271972656,34.27996826171875,21.441177368164062,1,0.4287787675857544,-0.0014183713356032968,-0.0002348627895116806,-0.00023349898401647806,0.4287787675857544,-0.0014183713356032968,-0.0002348627895116806,-0.00023349898401647806
18588.62,-0.07435070723295212,-0.4398227334022522,1.0531058311462402,-0.21691414713859558,1.4304381608963013,1.0077462196350098,-1.6481229066848755,-6.857335567474365,-4.107577323913574,105.70313262939453,40.2851676940918,20.498384475708008,1,0.4258477985858917,-0.003385992720723152,-0.001980041852220893,-0.00022332370281219482,0.4258477985858917,-0.003385992720723152,-0.001980041852220893,-0.00022332370281219482
18598.483,-0.07651354372501373,-0.4276180863380432,1.0629751682281494,-0.20447887480258942,1.4265472888946533,1.0135866403579712,-0.6044757962226868,-7.260917663574219,-3.899806022644043,114.37709045410156,44.00617599487305,19.474140167236328,1,0.42014533281326294,-0.0028422267641872168,-0.001822122372686863,-0.00021504149481188506,0.42014533281326294,-0.0028422267641872168,-0.001822122372686863,-0.00021504149481188506
18608.342,-0.07853911817073822,-0.4141489565372467,1.0734317302703857,-0.19106324017047882,1.4237993955612183,1.0223718881607056,0.5802202224731445,-7.710917949676514,-3.6927804946899414,111.13652801513672,39.13001251220703,17.58781623840332,1,0.41336753964424133,-0.00043762550922110677,-6.290968303801492e-05,-0.0002095397503580898,0.41336753964424133,-0.00043762550922110677,-6.290968303801492e-05,-0.0002095397503580898
18618.209,-0.08040454238653183,-0.40216028690338135,1.0834451913833618,-0.17741626501083374,1.4153566360473633,1.0263631343841553,1.6694432497024536,-8.090364456176758,-3.4983956813812256,97.44970703125,28.849430084228516,16.175363540649414,1,0.40795308351516724,0.0020635987166315317,0.0012815829832106829,-0.0001920879731187597,0.40795308351516724,0.0020635987166315317,0.0012815829832106829,-0.0001920879731187597
18628.075,-0.0821332037448883,-0.38887906074523926,1.0940191745758057,-0.16291312873363495,1.4083744287490845,1.0327614545822144,2.6772875785827637,-8.378978729248047,-3.3139572143554688,85.2877197265625,17.808032989501953,15.243562698364258,1,0.4016127586364746,0.0021350577007979155,0.0017379202181473374,-0.00018096616258844733,0.4016127586364746,0.0021350577007979155,0.0017379202181473374,-0.00018096616258844733
18637.927,-0.08367463946342468,-0.37720566987991333,1.1041560173034668,-0.14811956882476807,1.395350456237793,1.0354835987091064,3.528700351715088,-8.552748680114746,-3.139211654663086,83.28839874267578,12.929059982299805,14.321642875671387,1,0.3963569700717926,3.59714322257787e-05,0.0005707037053070962,-0.00016984433750621974,0.3963569700717926,3.59714322257787e-05,0.0005707037053070962,-0.00016984433750621974
18647.785,-0.08509967476129532,-0.36418628692626953,1.1148163080215454,-0.13306120038032532,1.3850659132003784,1.0412631034851074,4.399166584014893,-8.67900276184082,-2.978123903274536,90.64627838134766,14.742511749267578,13.432449340820312,1,0.3900327682495117,-0.0022521663922816515,-0.000963485857937485,-0.0001534574112156406,0.3900327682495117,-0.0022521663922816515,-0.000963485857937485,-0.0001534574112156406
18657.651,-0.08632072061300278,-0.352858304977417,1.1250419616699219,-0.11782544106245041,1.3689044713974,1.0433965921401978,5.304027557373047,-8.821741104125977,-2.820523500442505,100.00570678710938,18.197397232055664,12.864422798156738,1,0.3847847282886505,-0.003204844892024994,-0.0015572565607726574,-0.0001518009667051956,0.3847847282886505,-0.003204844892024994,-0.0015572565607726574,-0.0001518009667051956
18667.501,-0.08741915225982666,-0.3401986062526703,1.135790228843689,-0.10248839110136032,1.3551974296569824,1.0477068424224854,6.343018054962158,-9.001006126403809,-2.662856101989746,100.82090759277344,18.54713249206543,12.029400825500488,1,0.3786886930465698,-0.001689528115093708,-0.0010793042602017522,-0.00015268834249582142,0.3786886930465698,-0.001689528115093708,-0.0010793042602017522,-0.00015268834249582142
18677.362,-0.08831828832626343,-0.32929059863090515,1.1460731029510498,-0.08710221201181412,1.3356523513793945,1.0473414659500122,7.334975719451904,-9.174601554870605,-2.508249044418335,91.75059509277344,12.189087867736816,11.267195701599121,1,0.37394267320632935,0.0004497235349845141,0.00039181439206004143,-0.00015002620057202876,0.37394267320632935,0.0004497235349845141,0.00039181439206004143,-0.00015002620057202876
18687.222,-0.08909859508275986,-0.3170355558395386,1.1568398475646973,-0.07178427278995514,1.3187289237976074,1.0479148626327515,8.27698040008545,-9.280056953430176,-2.3720295429229736,77.47705841064453,1.9269306659698486,10.796529769897461,1,0.36868029832839966,0.00189954973757267,0.0014741835184395313,-0.00012967563816346228,0.36868029832839966,0.00189954973757267,0.0014741835184395313,-0.00012967563816346228
18697.092,-0.08967725932598114,-0.30660751461982727,1.1671192646026611,-0.056386299431324005,1.2959383726119995,1.0443243980407715,9.034207344055176,-9.288383483886719,-2.2573091983795166,66.51924133300781,-4.853222846984863,9.511289596557617,1,0.364656537771225,0.001485152286477387,0.0009470325894653797,-9.873569797491655e-05,0.364656537771225,0.001485152286477387,0.0009470325894653797,-9.873569797491655e-05
18706.945,-0.09014156460762024,-0.29480674862861633,1.1778388023376465,-0.04121599718928337,1.2763882875442505,1.0427963733673096,9.727873802185059,-9.227203369140625,-2.162935972213745,66.82347869873047,-6.027241230010986,9.680517196655273,1,0.3598625063896179,-0.0009357411763630807,-0.00021486073092091829,-7.862177881179377e-05,0.3598625063896179,-0.0009357411763630807,-0.00021486073092091829,-7.862177881179377e-05
18716.805,-0.09040740132331848,-0.2849121689796448,1.1880792379379272,-0.026035090908408165,1.250909686088562,1.038253664970398,10.389822006225586,-9.163496971130371,-2.0672247409820557,73.89962005615234,-4.040877819061279,10.384986877441406,1,0.3560195565223694,-0.0027778656221926212,-0.0010162332328036427,-8.938863902585581e-05,0.3560195565223694,-0.0027778656221926212,-0.0010162332328036427,-8.938863902585581e-05
18726.664,-0.09056248515844345,-0.27364251017570496,1.1987383365631104,-0.011265364475548267,1.2289248704910278,1.0356613397598267,11.159896850585938,-9.109305381774902,-1.9657042026519775,78.62683868408203,-4.447219371795654,11.001398086547852,1,0.3514465093612671,-0.0026764036156237125,-0.0006019971915520728,-0.00010530230065342039,0.3514465093612671,-0.0026764036156237125,-0.0006019971915520728,-0.00010530230065342039
18736.537,-0.09052728861570358,-0.26429593563079834,1.2088955640792847,0.0034817757550626993,1.2014788389205933,1.029373288154602,11.926799774169922,-9.054962158203125,-1.8587026596069336,74.0232162475586,-5.025772571563721,10.606220245361328,1,0.3480075001716614,-0.0008470223983749747,-0.000633129442576319,-0.00011388030543457717,0.3480075001716614,-0.0008470223983749747,-0.000633129442576319,-0.00011388030543457717
18746.391,-0.09038365632295609,-0.25357088446617126,1.2194374799728394,0.017637280747294426,1.1775840520858765,1.0237793922424316,12.683760643005371,-8.982715606689453,-1.7612040042877197,61.480491638183594,-9.929573059082031,9.802785873413086,1,0.34417155385017395,0.001062850933521986,0.0003561655757948756,-0.00010051045683212578,0.34417155385017395,0.001062850933521986,0.0003561655757948756,-0.00010051045683212578
18756.247,-0.09005468338727951,-0.24485307931900024,1.2294785976409912,0.031830016523599625,1.1476346254348755,1.0146455764770508,13.284530639648438,-8.872640609741211,-1.6803112030029297,47.599544525146484,-17.52988052368164,9.426838874816895,1,0.34143492579460144,0.001673236140049994,0.0011330194538459182,-8.06923198979348e-05,0.34143492579460144,0.001673236140049994,0.0011330194538459182,-8.06923198979348e-05
18766.109,-0.08962343633174896,-0.23471951484680176,1.239849328994751,0.04536648839712143,1.121992826461792,1.0063894987106323,13.775548934936523,-8.683534622192383,-1.6238441467285156,39.892555236816406,-22.52479362487793,9.299141883850098,1,0.3382877707481384,0.0005895766080357134,0.0007612070767208934,-5.1822928071487695e-05,0.3382877707481384,0.0005895766080357134,0.0007612070767208934,-5.1822928071487695e-05
18775.976,-0.08902420848608017,-0.22663889825344086,1.24971604347229,0.05893364176154137,1.090285062789917,0.9957582354545593,14.172432899475098,-8.460400581359863,-1.5796266794204712,40.597328186035156,-23.925376892089844,9.909109115600586,1,0.33595553040504456,-0.0013246521120890975,5.0327736971667036e-05,-4.283082307665609e-05,0.33595553040504456,-0.0013246521120890975,5.0327736971667036e-05,-4.283082307665609e-05
18785.837,-0.0883372575044632,-0.21710190176963806,1.2598720788955688,0.07163216173648834,1.063689112663269,0.9863587617874146,14.586197853088379,-8.20344066619873,-1.5428813695907593,44.58087921142578,-22.4163761138916,10.082265853881836,1,0.33314740657806396,-0.002293299650773406,-0.000625870656222105,-3.6323377571534365e-05,0.33314740657806396,-0.002293299650773406,-0.000625870656222105,-3.6323377571534365e-05
18795.688,-0.08749987185001373,-0.20964068174362183,1.269527792930603,0.0842168852686882,1.031102180480957,0.974819540977478,15.01944637298584,-7.975608825683594,-1.4952155351638794,45.21774673461914,-20.725927352905273,10.192985534667969,1,0.3310961127281189,-0.0018584162462502718,-0.0007704015588387847,-5.271031113807112e-05,0.3310961127281189,-0.0018584162462502718,-0.0007704015588387847,-5.271031113807112e-05
18805.561,-0.08655890822410583,-0.2007599174976349,1.2794625759124756,0.09595831483602524,1.0032312870025635,0.9639092087745667,15.47957992553711,-7.7456135749816895,-1.4483968019485474,38.003257751464844,-23.047433853149414,10.62498664855957,1,0.32872653007507324,-0.00015937119314912707,9.807457536226138e-05,-5.667393634212203e-05,0.32872653007507324,-0.00015937119314912707,9.807457536226138e-05,-5.667393634212203e-05
18815.422,-0.08548999577760696,-0.1939619928598404,1.288879632949829,0.10765636712312698,0.969483494758606,0.9504441618919373,15.849444389343262,-7.509834289550781,-1.4036997556686401,26.718149185180664,-27.878353118896484,10.811888694763184,1,0.32722902297973633,0.0009029958746396005,0.0007645945297554135,-5.7265522627858445e-05,0.32722902297973633,0.0009029958746396005,0.0007645945297554135,-5.7265522627858445e-05
18825.273,-0.08432653546333313,-0.1857231706380844,1.298537254333496,0.11839157342910767,0.9410284757614136,0.9372100830078125,16.11473274230957,-7.210790634155273,-1.374680757522583,15.043745040893555,-32.68706130981445,11.009262084960938,1,0.32553544640541077,0.0013146511046215892,0.0009425160242244601,-4.040532076032832e-05,0.32553544640541077,0.0013146511046215892,0.0009425160242244601,-4.040532076032832e-05
18835.133,-0.08306152373552322,-0.1795995533466339,1.3076788187026978,0.12890097498893738,0.9063646793365479,0.9223124980926514,16.266338348388672,-6.877739906311035,-1.3599685430526733,9.058283805847168,-34.48176956176758,11.39293098449707,1,0.3244953155517578,0.0002355080214329064,0.0004037510952912271,-2.5970624847104773e-05,0.3244953155517578,0.0002355080214329064,0.0004037510952912271,-2.5970624847104773e-05
18844.993,-0.08170092105865479,-0.17201393842697144,1.3170320987701416,0.1386006623506546,0.877416729927063,0.9084406495094299,16.359521865844727,-6.513822555541992,-1.347374677658081,8.109761238098145,-34.11928176879883,12.180622100830078,1,0.3230784237384796,-0.0008492806227877736,-3.645535252871923e-05,-2.946098175016232e-05,0.3230784237384796,-0.0008492806227877736,-3.645535252871923e-05,-2.946098175016232e-05
18854.868,-0.08025985211133957,-0.16652584075927734,1.3258693218231201,0.14820948243141174,0.8426166772842407,0.893277108669281,16.444778442382812,-6.1711039543151855,-1.3276677131652832,10.00911808013916,-32.92333221435547,12.61475944519043,1,0.32222434878349304,-0.0016677515814080834,-0.00025099347112700343,-4.2239240428898484e-05,0.32222434878349304,-0.0016677515814080834,-0.00025099347112700343,-4.2239240428898484e-05
18864.712,-0.0787268728017807,-0.1595950722694397,1.334909439086914,0.15673018991947174,0.8137270212173462,0.8783096075057983,16.54784393310547,-5.822466850280762,-1.300757884979248,8.635615348815918,-32.38151931762695,12.729500770568848,1,0.3212064206600189,-0.0010717228287830949,-0.000131626395159401,-5.312441862770356e-05,0.3212064206600189,-0.0010717228287830949,-0.000131626395159401,-5.312441862770356e-05
18874.575,-0.07714736461639404,-0.15474000573158264,1.3434205055236816,0.1649465560913086,0.7791976928710938,0.8615500330924988,16.633235931396484,-5.484233379364014,-1.2703685760498047,3.7510263919830322,-34.7495231628418,13.71275806427002,1,0.32088544964790344,-0.00034116406459361315,0.0005576378316618502,-6.572520214831457e-05,0.32088544964790344,-0.00034116406459361315,0.0005576378316618502,-6.572520214831457e-05
18884.44,-0.07545861601829529,-0.1484595686197281,1.3521144390106201,0.17235350608825684,0.7503596544265747,0.8453136086463928,16.65972328186035,-5.110593795776367,-1.240303874015808,-4.469188213348389,-37.18653869628906,13.865729331970215,1,0.32033267617225647,0.0005548956105485559,0.0006908773211762309,-6.773659697500989e-05,0.32033267617225647,0.0005548956105485559,0.0006908773211762309,-6.773659697500989e-05
18894.311,-0.073764868080616,-0.144239604473114,1.3602733612060547,0.17932210862636566,0.7158323526382446,0.8277778625488281,16.60110855102539,-4.7257304191589355,-1.2170181274414062,-13.191400527954102,-39.233734130859375,13.790821075439453,1,0.3203601539134979,0.0008617013227194548,0.0007207190501503646,-5.9750185755547136e-05,0.3203601539134979,0.0008617013227194548,0.0007207190501503646,-5.9750185755547136e-05
18904.155,-0.07195518910884857,-0.13859575986862183,1.3686020374298096,0.18557089567184448,0.6872780323028564,0.8107485771179199,16.4583797454834,-4.313358783721924,-1.1952810287475586,-20.123628616333008,-37.73661422729492,13.824529647827148,1,0.320169061422348,0.0007086210534907877,-1.7259833839489147e-05,-5.898112431168556e-05,0.320169061422348,0.0007086210534907877,-1.7259833839489147e-05,-5.898112431168556e-05
18914.014,-0.0701637864112854,-0.13498404622077942,1.3763933181762695,0.19141128659248352,0.6531385183334351,0.7930655479431152,16.256195068359375,-3.9272620677948,-1.1689821481704712,-21.556612014770508,-36.29460525512695,14.175138473510742,1,0.3204009532928467,-0.000458595430245623,-3.274529444752261e-05,-6.826901517342776e-05,0.3204009532928467,-0.000458595430245623,-3.274529444752261e-05,-6.826901517342776e-05
18923.884,-0.06825503706932068,-0.12995539605617523,1.3843525648117065,0.19645513594150543,0.6251024603843689,0.7766866087913513,16.037757873535156,-3.5344583988189697,-1.1361604928970337,-20.231853485107422,-35.10553741455078,14.555876731872559,1,0.32021787762641907,-0.0011270510731264949,7.904036465333775e-06,-8.045569120440632e-05,0.32021787762641907,-0.0011270510731264949,7.904036465333775e-06,-8.045569120440632e-05
18933.749,-0.06639876961708069,-0.12693685293197632,1.3917827606201172,0.20104721188545227,0.5915584564208984,0.7592649459838867,15.841343879699707,-3.1679792404174805,-1.0962716341018677,-19.94825553894043,-34.761844635009766,13.956311225891113,1,0.3205511271953583,-0.0010513982269912958,0.00019792352395597845,-8.672649710206315e-05,0.3205511271953583,-0.0010513982269912958,0.00019792352395597845,-8.672649710206315e-05
18943.595,-0.06441384553909302,-0.12253378331661224,1.39938223361969,0.2050667107105255,0.5641388297080994,0.7422263026237488,15.639371871948242,-2.793011426925659,-1.0551481246948242,-24.083621978759766,-35.55442428588867,14.013550758361816,1,0.320699542760849,-6.113530253060162e-05,0.0004979543155059218,-9.039433643920347e-05,0.320699542760849,-6.113530253060162e-05,0.0004979543155059218,-9.039433643920347e-05
18953.458,-0.06224682554602623,-0.11927882581949234,1.4075815677642822,0.20866557955741882,0.5302432775497437,0.7240903377532959,15.35917854309082,-2.361506462097168,-1.0172557830810547,-31.004104614257812,-36.34761428833008,13.386797904968262,1,0.3208156228065491,0.0006782954442314804,0.0005828017019666731,-8.359109779121354e-05,0.3208156228065491,0.0006782954442314804,0.0005828017019666731,-8.359109779121354e-05
18963.323,-0.060215625911951065,-0.11552076041698456,1.414735198020935,0.21148185431957245,0.5036386847496033,0.7061473727226257,15.031546592712402,-1.9668787717819214,-0.9912493824958801,-37.492881774902344,-37.813575744628906,13.604711532592773,1,0.32139962911605835,0.0008142770384438336,0.0008296011947095394,-7.146358984755352e-05,0.32139962911605835,0.0008142770384438336,0.0008296011947095394,-7.146358984755352e-05
18973.196,-0.05831507593393326,-0.11374639719724655,1.4212820529937744,0.21373511850833893,0.4712721109390259,0.6874066591262817,14.661992073059082,-1.5902128219604492,-0.9684104323387146,-41.66632080078125,-36.59465026855469,13.285900115966797,1,0.32248321175575256,0.00042826973367482424,0.00029083629488013685,-6.625762762269005e-05,0.32248321175575256,0.00042826973367482424,0.00029083629488013685,-6.625762762269005e-05
18983.039,-0.056255094707012177,-0.11055043339729309,1.4280592203140259,0.21549174189567566,0.4455533027648926,0.670469343662262,14.235095977783203,-1.208355188369751,-0.9313186407089233,-43.336063385009766,-33.1244010925293,13.532788276672363,1,0.32300257682800293,-2.5163868485833518e-05,-0.00024825125001370907,-8.731809066375718e-05,0.32300257682800293,-2.5163868485833518e-05,-0.00024825125001370907,-8.731809066375718e-05
18992.899,-0.054067615419626236,-0.10859362035989761,1.435271978378296,0.21658723056316376,0.4139651358127594,0.6522166132926941,13.751031875610352,-0.8142894506454468,-0.8834033012390137,-42.49501419067383,-30.912891387939453,13.923232078552246,1,0.32362934947013855,-0.0006187731632962823,-2.4518643840565346e-05,-0.0001055980974342674,0.32362934947013855,-0.0006187731632962823,-2.4518643840565346e-05,-0.0001055980974342674
19002.758,-0.05201231315732002,-0.1059875562787056,1.441624641418457,0.21720044314861298,0.38941001892089844,0.6352201700210571,13.32763671875,-0.4889325499534607,-0.8176732063293457,-41.74153137207031,-30.80282211303711,14.027814865112305,1,0.3243700861930847,-0.0006497440626844764,0.0004424647195264697,-0.00013127292913850397,0.3243700861930847,-0.0006497440626844764,0.0004424647195264697,-0.00013127292913850397
19012.631,-0.04986967891454697,-0.10469231754541397,1.4483163356781006,0.2170940488576889,0.3587218225002289,0.6167858242988586,12.862841606140137,-0.1223512515425682,-0.7576736807823181,-44.50724411010742,-30.96523666381836,13.627959251403809,1,0.32529881596565247,0.00011001127859344706,0.0005650579696521163,-0.00012393726501613855,0.32529881596565247,0.00011001127859344706,0.0005650579696521163,-0.00012393726501613855
19022.481,-0.050006844103336334,-0.10608217865228653,1.4481676816940308,0.21673165261745453,0.3540324568748474,0.6166893243789673,12.861798286437988,-0.12427821010351181,-0.7642926573753357,-49.848812103271484,-30.176376342773438,13.21053409576416,1,0.32507389783859253,0.0007971785380505025,0.0003453579847700894,-3.792066127061844e-05,0.32507389783859253,0.0007971785380505025,0.0003453579847700894,-3.792066127061844e-05
19032.344,-0.04813394695520401,-0.10538190603256226,1.4539321660995483,0.2159242182970047,0.32619357109069824,0.5992748737335205,12.39391040802002,0.20808446407318115,-0.71724933385849,-52.689964294433594,-31.254846572875977,13.112141609191895,1,0.32621267437934875,0.00035793991992250085,0.0008266976801678538,-0.0001058938869391568,0.32621267437934875,0.00035793991992250085,0.0008266976801678538,-0.0001058938869391568
19042.202,-0.046134427189826965,-0.10357082635164261,1.4596713781356812,0.21505199372768402,0.3036731779575348,0.5817615985870361,11.88248348236084,0.530782163143158,-0.6600695848464966,-54.776432037353516,-30.0946102142334,14.248308181762695,1,0.3273907005786896,0.000296643323963508,0.0003871364751830697,-0.00012902490561828017,0.3273907005786896,0.000296643323963508,0.0003871364751830697,-0.00012902490561828017
19052.081,-0.04432064667344093,-0.10331252962350845,1.4650555849075317,0.21318882703781128,0.2771422863006592,0.5646418929100037,11.3549222946167,0.8585489392280579,-0.5972715020179749,-56.20326614379883,-26.829294204711914,13.690224647521973,1,0.3286501467227936,0.00018856771930586547,-0.00010113940516021103,-0.0001347632787656039,0.3286501467227936,0.00018856771930586547,-0.00010113940516021103,-0.0001347632787656039
19061.924,-0.04236818104982376,-0.10194655507802963,1.4704359769821167,0.2113615870475769,0.2560385465621948,0.5482584238052368,10.800982475280762,1.166904330253601,-0.5232198238372803,-55.834835052490234,-24.30551528930664,13.510857582092285,1,0.32973089814186096,-0.00016840438183862716,8.06534353614552e-06,-0.00015061777958180755,0.32973089814186096,-0.00016840438183862716,8.06534353614552e-06,-0.00015061777958180755
19071.786,-0.04062647372484207,-0.10207878053188324,1.4754550457000732,0.2084750086069107,0.2311771959066391,0.5319252014160156,10.24709701538086,1.440219759941101,-0.44945481419563293,-56.665958404541016,-22.7645263671875,12.900872230529785,1,0.33098164200782776,8.565394819015637e-05,0.00020631146617233753,-0.00014913882478140295,0.33098164200782776,8.565394819015637e-05,0.00020631146617233753,-0.00014913882478140295
19081.644,-0.038744546473026276,-0.1011359691619873,1.4804977178573608,0.20573394000530243,0.21154049038887024,0.5162099003791809,9.695220947265625,1.69535493850708,-0.3635637164115906,-58.051021575927734,-22.854848861694336,12.652056694030762,1,0.3320698142051697,0.00027631866396404803,0.00059489969862625,-0.0001661173446336761,0.3320698142051697,0.00027631866396404803,0.00059489969862625,-0.0001661173446336761
19091.513,-0.03709899261593819,-0.1016169860959053,1.4851641654968262,0.20193494856357574,0.18861080706119537,0.4999466836452484,9.132061004638672,1.9431926012039185,-0.28147077560424805,-59.07365036010742,-22.995933532714844,12.503942489624023,1,0.3334849774837494,0.00023308841628022492,0.0006749079329892993,-0.0001638693065615371,0.3334849774837494,0.00023308841628022492,0.0006749079329892993,-0.0001638693065615371
19101.367,-0.03530270978808403,-0.10103713721036911,1.489871621131897,0.19840307533740997,0.170918807387352,0.48422276973724365,8.54764175415039,2.194474220275879,-0.199233278632164,-60.29115676879883,-22.757999420166016,12.127897262573242,1,0.3347497582435608,0.0003601982316467911,0.0006511958199553192,-0.0001649341720622033,0.3347497582435608,0.0003601982316467911,0.0006511958199553192,-0.0001649341720622033
19111.229,-0.03376658260822296,-0.10182640701532364,1.4941943883895874,0.1937466263771057,0.1499698907136917,0.46786561608314514,7.95980978012085,2.4424071311950684,-0.11994566768407822,-61.9448356628418,-20.90604591369629,11.815553665161133,1,0.3363684415817261,0.0005182789755053818,0.0003227750421501696,-0.0001625086588319391,0.3363684415817261,0.0005182789755053818,0.0003227750421501696,-0.0001625086588319391
19121.09,-0.03206847608089447,-0.10158946365118027,1.498578429222107,0.18944703042507172,0.1338047981262207,0.45347341895103455,7.3591227531433105,2.6764848232269287,-0.03599308803677559,-63.545310974121094,-17.145021438598633,11.116312980651855,1,0.33747249841690063,0.0006205475074239075,-0.00014920886314939708,-0.0001669455668888986,0.33747249841690063,0.0006205475074239075,-0.00014920886314939708,-0.0001669455668888986
19130.954,-0.03065023198723793,-0.10263961553573608,1.5025765895843506,0.1839624047279358,0.11484155803918839,0.4383414387702942,6.735963344573975,2.8847861289978027,0.04481862112879753,-61.99021911621094,-15.584425926208496,10.959078788757324,1,0.33895692229270935,-5.7102628488792107e-05,0.0003003533638548106,-0.00016540742944926023,0.33895692229270935,-5.7102628488792107e-05,0.0003003533638548106,-0.00016540742944926023
19140.818,-0.029065987095236778,-0.10268107056617737,1.5066542625427246,0.17894448339939117,0.10087574273347855,0.424286425113678,6.101860523223877,3.058483600616455,0.1379936784505844,-62.13880920410156,-13.872782707214355,10.31756591796875,1,0.34013861417770386,0.00035874650347977877,0.0002572844678070396,-0.00018025624740403146,0.34013861417770386,0.00035874650347977877,0.0002572844678070396,-0.00018025624740403146
19150.673,-0.027778057381510735,-0.10394676774740219,1.5103501081466675,0.17277076840400696,0.08410356193780899,0.41010603308677673,5.482606410980225,3.2259366512298584,0.2174863964319229,-61.72296905517578,-13.613191604614258,10.587603569030762,1,0.3415462076663971,0.0002595427504274994,0.0006053846445865929,-0.0001686020113993436,0.3415462076663971,0.0002595427504274994,0.0006053846445865929,-0.0001686020113993436
19160.527,-0.026320217177271843,-0.10423387587070465,1.5141453742980957,0.1671372354030609,0.07208071649074554,0.39708608388900757,4.860726356506348,3.374655246734619,0.3025415539741516,-62.4136848449707,-13.143203735351562,9.99691104888916,1,0.34261995553970337,0.0005836082273162901,0.0006003841408528388,-0.00017499113164376467,0.34261995553970337,0.0005836082273162901,0.0006003841408528388,-0.00017499113164376467
19170.4,-0.024948371574282646,-0.10465872287750244,1.5177226066589355,0.16123995184898376,0.060804661363363266,0.38361549377441406,4.245782852172852,3.519021987915039,0.3849586546421051,-62.44208526611328,-11.43657398223877,9.9492769241333,1,0.34391844272613525,0.0005258604069240391,0.00034035748103633523,-0.00017493196355644614,0.34391844272613525,0.0005258604069240391,0.00034035748103633523,-0.00017493196355644614
19180.254,-0.023848634213209152,-0.10615362972021103,1.5210732221603394,0.15428274869918823,0.0477636344730854,0.3701173961162567,3.601768970489502,3.6571638584136963,0.4702763855457306,-62.126163482666016,-9.117691040039062,9.451993942260742,1,0.34534192085266113,0.0005019869422540069,0.0001901807845570147,-0.00017871810996439308,0.34534192085266113,0.0005019869422540069,0.0001901807845570147,-0.00017871810996439308
19190.114,-0.02284862846136093,-0.10773041099309921,1.524208426475525,0.14697213470935822,0.03534867614507675,0.35705962777137756,2.9793779850006104,3.7758278846740723,0.5544761419296265,-60.75128173828125,-6.645349502563477,9.225947380065918,1,0.3467690944671631,0.0002890618925448507,0.0001250128261744976,-0.00017936887161340564,0.3467690944671631,0.0002890618925448507,0.0001250128261744976,-0.00017936887161340564
19199.978,-0.021667279303073883,-0.10839368402957916,1.5274667739868164,0.1404181271791458,0.027260620146989822,0.3447481095790863,2.3682892322540283,3.86309552192688,0.6419773101806641,-58.49691390991211,-4.276732921600342,9.18984603881836,1,0.34795454144477844,0.00011130173515994102,0.00010146202112082392,-0.00018700033251661807,0.34795454144477844,0.00011130173515994102,0.00010146202112082392,-0.00018700033251661807
19209.842,-0.02081998810172081,-0.11006087064743042,1.5303459167480469,0.13272152841091156,0.017110439017415047,0.3319953382015228,1.771392822265625,3.9342424869537354,0.724177896976471,-57.64863586425781,-1.8448526859283447,9.091767311096191,1,0.34944403171539307,0.0004235918167978525,4.887598333880305e-05,-0.00018327333964407444,0.34944403171539307,0.0004235918167978525,4.887598333880305e-05,-0.00018327333964407444
19219.689,-0.019789349287748337,-0.11083600670099258,1.5333527326583862,0.12586484849452972,0.011198488064110279,0.319959819316864,1.1858071088790894,3.9681992530822754,0.8137298226356506,-57.06813049316406,-2.199223756790161,8.645586013793945,1,0.3506973385810852,0.0005510242190212011,0.0006671652081422508,-0.00019315282406751066,0.3506973385810852,0.0005510242190212011,0.0006671652081422508,-0.00019315282406751066
19229.556,-0.019100377336144447,-0.11253449320793152,1.5359891653060913,0.11789155751466751,0.0035189033951610327,0.30791500210762024,0.5968524217605591,3.999251365661621,0.891431450843811,-56.510398864746094,-1.5875277519226074,8.214599609375,1,0.35214319825172424,0.000609578681178391,0.0005005351849831641,-0.00017871810996439308,0.35214319825172424,0.000609578681178391,0.0005005351849831641,-0.00017871810996439308
19239.412,-0.018222646787762642,-0.11338790506124496,1.538763165473938,0.1108325645327568,-0.0004503777308855206,0.2969208061695099,0.02269590087234974,4.01673698425293,0.9740888476371765,-55.577293395996094,-0.03578633815050125,7.488181114196777,1,0.3532646596431732,0.0006021585431881249,0.0002897071244660765,-0.00018333249317947775,0.3532646596431732,0.0006021585431881249,0.0002897071244660765,-0.00018333249317947775
19249.282,-0.017691530287265778,-0.11513442546129227,1.5411758422851562,0.10269473493099213,-0.0066024973057210445,0.2854236960411072,-0.5236490964889526,4.03772497177124,1.0489752292633057,-53.2708854675293,1.7518962621688843,7.817267417907715,1,0.354696661233902,0.000307612179312855,0.0002232486876891926,-0.0001792505499906838,0.354696661233902,0.000307612179312855,0.0002232486876891926,-0.0001792505499906838
19259.139,-0.01697082631289959,-0.11603598296642303,1.543731451034546,0.09543291479349136,-0.008762969635426998,0.2750665843486786,-1.0706459283828735,4.038498401641846,1.124159812927246,-51.11326217651367,2.5018422603607178,7.938461780548096,1,0.35577940940856934,0.0003606821410357952,0.00044262607116252184,-0.0001837465970311314,0.35577940940856934,0.0003606821410357952,0.00044262607116252184,-0.0001837465970311314
19269.003,-0.01659901812672615,-0.11774247884750366,1.545936942100525,0.08713902533054352,-0.012599346227943897,0.2638613283634186,-1.5935513973236084,4.033658981323242,1.1942579746246338,-49.24414825439453,5.248047351837158,7.838411331176758,1,0.35725316405296326,0.00042843102710321546,-2.0808585759368725e-05,-0.00017978297546505928,0.35725316405296326,0.00042843102710321546,-2.0808585759368725e-05,-0.00017978297546505928
19278.854,-0.016034282743930817,-0.11863860487937927,1.54828679561615,0.07982125133275986,-0.01275486871600151,0.2540823221206665,-2.1053683757781982,4.001142501831055,1.265572428703308,-47.55970764160156,7.317624568939209,7.910707950592041,1,0.3583059310913086,0.0005121493013575673,6.597450556000695e-05,-0.0001849297696026042,0.3583059310913086,0.0005121493013575673,6.597450556000695e-05,-0.0001849297696026042
19288.725,-0.01581934280693531,-0.12028321623802185,1.5503044128417969,0.07149560004472733,-0.014571511186659336,0.24386443197727203,-2.593812942504883,3.95497727394104,1.3366069793701172,-46.6393928527832,8.238490104675293,7.83155632019043,1,0.35963860154151917,0.0007192672928795218,0.0003019664727617055,-0.00018711865413933992,0.35963860154151917,0.0007192672928795218,0.0003019664727617055,-0.00018711865413933992
19298.588,-0.01541116088628769,-0.12115991860628128,1.5524665117263794,0.06416551023721695,-0.013163091614842415,0.2349933236837387,-3.064171314239502,3.8810017108917236,1.4097354412078857,-43.82185745239258,8.328588485717773,8.056013107299805,1,0.3605693578720093,0.00033777658245526254,0.0004916632897220552,-0.0001944543037097901,0.3605693578720093,0.00033777658245526254,0.0004916632897220552,-0.0001944543037097901
19308.433,-0.015345784835517406,-0.12272530794143677,1.5543155670166016,0.055997855961322784,-0.013286414556205273,0.22564697265625,-3.509005308151245,3.799271583557129,1.4825501441955566,-41.08234786987305,8.829939842224121,8.534363746643066,1,0.3617789149284363,0.0003343891294207424,0.0004224626754876226,-0.00020066596334800124,0.3617789149284363,0.0003343891294207424,0.0004224626754876226,-0.00020066596334800124
19318.299,-0.015089333988726139,-0.12353455275297165,1.5563093423843384,0.04889587685465813,-0.010158663615584373,0.2172774225473404,-3.9443695545196533,3.705165147781372,1.5593408346176147,-38.845497131347656,11.68404769897461,7.984747886657715,1,0.3626781404018402,0.00046343464055098593,-0.00014582141011487693,-0.00020504368876572698,0.3626781404018402,0.00046343464055098593,-0.00014582141011487693,-0.00020504368876572698
19328.169,-0.015174427069723606,-0.12497935444116592,1.5580028295516968,0.040937505662441254,-0.008533517830073833,0.20818482339382172,-4.346185207366943,3.607947826385498,1.627567172050476,-35.955604553222656,12.431527137756348,7.827275276184082,1,0.363911509513855,0.0003085800271946937,0.0002785769465845078,-0.00019628822337836027,0.363911509513855,0.0003085800271946937,0.0002785769465845078,-0.00019628822337836027
19338.024,-0.015063694678246975,-0.12570273876190186,1.5598326921463013,0.034031160175800323,-0.004019842017441988,0.20036453008651733,-4.7216386795043945,3.4858789443969727,1.694042682647705,-33.0827751159668,13.757899284362793,7.999124526977539,1,0.3647652864456177,0.00030922525911591947,0.00012259322102181613,-0.00019824045011773705,0.3647652864456177,0.00030922525911591947,0.00012259322102181613,-0.00019824045011773705
19347.876,-0.015283401124179363,-0.1270090788602829,1.5613762140274048,0.026384320110082626,-0.0009187818504869938,0.19180689752101898,-5.064894199371338,3.3577897548675537,1.7585376501083374,-33.192039489746094,16.71714210510254,7.076749801635742,1,0.3659496009349823,0.0010054256999865174,-0.0003045473713427782,-0.00019202880503144115,0.3659496009349823,0.0010054256999865174,-0.0003045473713427782,-0.00019202880503144115
19357.744,-0.015312710776925087,-0.12760448455810547,1.563052773475647,0.019839217886328697,0.005024252459406853,0.18381069600582123,-5.40322208404541,3.203890800476074,1.8160498142242432,-30.470041275024414,16.469411849975586,7.399582386016846,1,0.366933137178421,0.00043988379184156656,0.00035713339457288384,-0.0001881835050880909,0.366933137178421,0.00043988379184156656,0.00035713339457288384,-0.0001881835050880909
19367.606,-0.015629995614290237,-0.12870387732982635,1.5647273063659668,0.012249868363142014,0.010697728954255581,0.1753309667110443,-5.765390396118164,3.0176680088043213,1.8787388801574707,-28.312694549560547,16.427335739135742,7.399789810180664,1,0.36804261803627014,0.0005803820677101612,0.0003248720313422382,-0.00019741222786251456,0.36804261803627014,0.0005803820677101612,0.0003248720313422382,-0.00019741222786251456
19377.463,-0.015797967091202736,-0.12916424870491028,1.5662362575531006,0.006118581630289555,0.01771838217973709,0.16794882714748383,-6.058279037475586,2.853677749633789,1.9322714805603027,-25.0504207611084,15.62180233001709,7.183361053466797,1,0.3689661920070648,0.00033858313690871,0.0005129558267071843,-0.0001868228573584929,0.3689661920070648,0.00033858313690871,0.0005129558267071843,-0.0001868228573584929
19387.323,-0.01626911386847496,-0.1300559639930725,1.5677297115325928,-0.0010235252557322383,0.02493966370820999,0.15987227857112885,-6.365464210510254,2.6834115982055664,1.989068627357483,-21.496253967285156,15.336140632629395,7.226629734039307,1,0.37007489800453186,0.00024889648193493485,0.00042972146184183657,-0.00019368523498997092,0.37007489800453186,0.00024889648193493485,0.00042972146184183657,-0.00019368523498997092
19397.181,-0.01656384766101837,-0.13034744560718536,1.5690882205963135,-0.006698600947856903,0.033092036843299866,0.1532393842935562,-6.5921454429626465,2.5283000469207764,2.040069818496704,-18.104127883911133,17.49134635925293,6.96987247467041,1,0.3708961308002472,0.0002503482683096081,-0.00014743447536602616,-0.00018694116442929953,0.3708961308002472,0.0002503482683096081,-0.00014743447536602616,-0.00018694116442929953
19407.05,-0.01715567521750927,-0.13107146322727203,1.5702837705612183,-0.012865882366895676,0.04020776227116585,0.14640788733959198,-6.7898783683776855,2.352509021759033,2.0935537815093994,-15.872359275817871,19.989482879638672,6.803533554077148,1,0.37185201048851013,0.0004816622822545469,-0.00031390314688906074,-0.00019120058277621865,0.37185201048851013,0.0004816622822545469,-0.00031390314688906074,-0.00019120058277621865
19416.911,-0.0175617802888155,-0.13117434084415436,1.571528673171997,-0.01808798499405384,0.04942265897989273,0.14090250432491302,-6.961007595062256,2.163641929626465,2.137997627258301,-13.620347023010254,20.92185401916504,7.038947105407715,1,0.3724570572376251,0.0004877919564023614,-4.4843312934972346e-05,-0.00018362828996032476,0.3724570572376251,0.0004877919564023614,-4.4843312934972346e-05,-0.00018362828996032476
19426.762,-0.01825404167175293,-0.13168898224830627,1.5726234912872314,-0.02371852844953537,0.05725565180182457,0.13467244803905487,-7.102818012237549,1.956051230430603,2.1857004165649414,-11.221307754516602,20.443124771118164,7.072243690490723,1,0.3733203113079071,0.0004423034260980785,0.00025179999647662044,-0.00019001742475666106,0.3733203113079071,0.0004423034260980785,0.00025179999647662044,-0.00019001742475666106
19436.63,-0.018755191937088966,-0.13160660862922668,1.5737632513046265,-0.028293440118432045,0.06690944731235504,0.12901462614536285,-7.220758438110352,1.7523289918899536,2.2304272651672363,-8.657990455627441,19.2099609375,6.951992034912109,1,0.3740224242210388,0.0003990731784142554,0.00043810944771394134,-0.00018747358990367502,0.3740224242210388,0.0003990731784142554,0.00043810944771394134,-0.00018747358990367502
19446.494,-0.019532129168510437,-0.13189277052879333,1.574763298034668,-0.03322381526231766,0.0754714086651802,0.12308749556541443,-7.326831340789795,1.5474817752838135,2.275418758392334,-6.571797847747803,19.06554412841797,7.250586032867432,1,0.37486472725868225,0.000490695470944047,0.00021453812951222062,-0.00019191049796063453,0.37486472725868225,0.000490695470944047,0.00021453812951222062,-0.00019191049796063453
19456.351,-0.02011757530272007,-0.131611168384552,1.575803279876709,-0.03716399148106575,0.08555611968040466,0.11768738180398941,-7.396954536437988,1.359549641609192,2.324085235595703,-4.845306396484375,19.601221084594727,7.270815372467041,1,0.375559538602829,0.0005803820677101612,4.081063889316283e-05,-0.00019877289014402777,0.375559538602829,0.0005803820677101612,4.081063889316283e-05,-0.00019877289014402777
19466.202,-0.02097037434577942,-0.13167670369148254,1.5767165422439575,-0.04150689020752907,0.09445807337760925,0.11212873458862305,-7.453086853027344,1.1636345386505127,2.37135648727417,-1.380744218826294,19.725622177124023,7.29973840713501,1,0.3763604164123535,0.0001624360156711191,0.00010775298869702965,-0.00019936446915380657,0.3763604164123535,0.0001624360156711191,0.00010775298869702965,-0.00019936446915380657
19476.066,-0.02162666618824005,-0.13119162619113922,1.5776644945144653,-0.044835399836301804,0.10482918471097946,0.10714889317750931,-7.4725260734558105,0.9692258834838867,2.417621612548828,1.1076475381851196,20.79743003845215,7.085679054260254,1,0.37700334191322327,0.00033745396649464965,-0.0001464666420361027,-0.0001986545539693907,0.37700334191322327,0.00033745396649464965,-0.0001464666420361027,-0.0001986545539693907
19485.933,-0.02253248170018196,-0.13103342056274414,1.578499436378479,-0.04843951016664505,0.11395297199487686,0.10191917419433594,-7.4697957038879395,0.7589784860610962,2.462043523788452,4.121384143829346,20.681608200073242,7.292769908905029,1,0.37776806950569153,0.00017163048323709518,7.855644071241841e-05,-0.0001997785730054602,0.37776806950569153,0.00017163048323709518,7.855644071241841e-05,-0.0001997785730054602
19495.799,-0.023244338110089302,-0.13033321499824524,1.5793654918670654,-0.05107056349515915,0.1246243342757225,0.09757561981678009,-7.437391757965088,0.5523352026939392,2.507704734802246,5.491201877593994,20.257389068603516,7.468295097351074,1,0.3782997131347656,0.0005182789755053818,0.00013065856182947755,-0.00020462958491407335,0.3782997131347656,0.0005182789755053818,0.00013065856182947755,-0.00020462958491407335
19505.644,-0.02419397048652172,-0.12995517253875732,1.5801374912261963,-0.053989116102457047,0.13380450010299683,0.09311335533857346,-7.385712623596191,0.3404625654220581,2.555048704147339,7.06117582321167,19.628660202026367,7.609784126281738,1,0.3789103031158447,0.00046746732550673187,0.00017388880951330066,-0.0002098355325870216,0.3789103031158447,0.00046746732550673187,0.00017388880951330066,-0.0002098355325870216
